{"type":"FeatureCollection","features":[{"type":"Feature","geometry":{"type":"Point","coordinates":[-71.56102,-41.18675]},"properties":{"name":"Refugio San Martín / Refugio Jakob","country":"Argentina","website":null,"opening_hours":null,"capacity":null,"phone":null,"address":null,"ele":null,"operator":null,"wikipedia":null,"wikidata":null,"description":null,"wheelchair":null,"osmType":"node","osmId":309642110}},{"type":"Feature","geometry":{"type":"Point","coordinates":[-71.48628,-41.19825]},"properties":{"name":"Refugio Emilio Frey","country":"Argentina","website":"https://www.clubandino.org/cab/refugio-emilio-frey-frey/","opening_hours":"24/7","capacity":null,"phone":null,"address":null,"ele":null,"operator":null,"wikipedia":null,"wikidata":"Q125364425","description":null,"wheelchair":null,"osmType":"node","osmId":1167278414}},{"type":"Feature","geometry":{"type":"Point","coordinates":[-71.57778,-41.1367]},"properties":{"name":"Refugio Italia Manfredo Segre","country":"Argentina","website":null,"opening_hours":null,"capacity":null,"phone":null,"address":null,"ele":"1608","operator":null,"wikipedia":null,"wikidata":null,"description":null,"wheelchair":null,"osmType":"node","osmId":1167278699,"elevation":"1608"}},{"type":"Feature","geometry":{"type":"Point","coordinates":[-71.63927,-41.8886]},"properties":{"name":"Refugio Hielo Azul","country":"Argentina","website":null,"opening_hours":null,"capacity":null,"phone":null,"address":null,"ele":null,"operator":null,"wikipedia":null,"wikidata":null,"description":null,"wheelchair":null,"osmType":"node","osmId":1286060230}},{"type":"Feature","geometry":{"type":"Point","coordinates":[-71.62171,-41.85095]},"properties":{"name":"Refugio Cajón de Azul","country":"Argentina","website":null,"opening_hours":null,"capacity":null,"phone":null,"address":null,"ele":null,"operator":null,"wikipedia":null,"wikidata":null,"description":null,"wheelchair":null,"osmType":"node","osmId":1286060232}},{"type":"Feature","geometry":{"type":"Point","coordinates":[-70.06422,-32.65444]},"properties":{"name":"Refugio","country":"Argentina","website":null,"opening_hours":null,"capacity":null,"phone":null,"address":null,"ele":null,"operator":null,"wikipedia":null,"wikidata":null,"description":null,"wheelchair":null,"osmType":"node","osmId":1504745041}},{"type":"Feature","geometry":{"type":"Point","coordinates":[-71.80589,-41.15467]},"properties":{"name":"Refugio Agostino Rocca","country":"Argentina","website":"https://www.clubandino.org/refugios-y-campings/refugio-agostino-rocca.asp","opening_hours":null,"capacity":null,"phone":"+54 9 294 437 8444","address":null,"ele":"1400","operator":"Club Andino Bariloche","wikipedia":null,"wikidata":null,"description":null,"wheelchair":null,"osmType":"node","osmId":2101409072,"elevation":"1400"}},{"type":"Feature","geometry":{"type":"Point","coordinates":[-65.08395,-31.33997]},"properties":{"name":"Refugio de Montaña \"Ruca Leufu\"","country":"Argentina","website":null,"opening_hours":null,"capacity":null,"phone":null,"address":null,"ele":null,"operator":"Asociación Coy Aike","wikipedia":null,"wikidata":null,"description":null,"wheelchair":null,"osmType":"node","osmId":2380681139}},{"type":"Feature","geometry":{"type":"Point","coordinates":[-70.09266,-32.91607]},"properties":{"name":"Refugio Los Hornitos","country":"Argentina","website":"https://www.parqueandinojuncal.cl/","opening_hours":null,"capacity":null,"phone":null,"address":null,"ele":null,"operator":"Parque Andino Juncal","wikipedia":null,"wikidata":null,"description":null,"wheelchair":null,"osmType":"node","osmId":2488431353}},{"type":"Feature","geometry":{"type":"Point","coordinates":[-71.62478,-41.87993]},"properties":{"name":"Refugio Natación","country":"Argentina","website":null,"opening_hours":null,"capacity":null,"phone":null,"address":null,"ele":null,"operator":null,"wikipedia":null,"wikidata":null,"description":null,"wheelchair":null,"osmType":"node","osmId":2572173713}},{"type":"Feature","geometry":{"type":"Point","coordinates":[-64.48229,-31.17794]},"properties":{"name":"Cabañas River Sound","country":"Argentina","website":null,"opening_hours":null,"capacity":null,"phone":null,"address":"167 Puelches, casa grande","ele":null,"operator":null,"wikipedia":null,"wikidata":null,"description":null,"wheelchair":null,"osmType":"node","osmId":2662268534}},{"type":"Feature","geometry":{"type":"Point","coordinates":[-64.90947,-31.98704]},"properties":{"name":"Refugio Gonzalez","country":"Argentina","website":null,"opening_hours":null,"capacity":null,"phone":null,"address":null,"ele":null,"operator":null,"wikipedia":null,"wikidata":null,"description":null,"wheelchair":null,"osmType":"node","osmId":3235209444}},{"type":"Feature","geometry":{"type":"Point","coordinates":[-64.90482,-31.9918]},"properties":{"name":"Puesto Doña Nena","country":"Argentina","website":null,"opening_hours":null,"capacity":null,"phone":null,"address":null,"ele":null,"operator":null,"wikipedia":null,"wikidata":null,"description":null,"wheelchair":null,"osmType":"node","osmId":3235209578}},{"type":"Feature","geometry":{"type":"Point","coordinates":[-71.36431,-41.14421]},"properties":{"name":"Refugio Berghof","country":"Argentina","website":null,"opening_hours":"13:00-19:00","capacity":null,"phone":null,"address":"569 Cerro Bayo","ele":null,"operator":null,"wikipedia":null,"wikidata":null,"description":null,"wheelchair":null,"osmType":"node","osmId":3358809205}},{"type":"Feature","geometry":{"type":"Point","coordinates":[-71.60159,-41.85651]},"properties":{"name":"La Playita","country":"Argentina","website":null,"opening_hours":null,"capacity":null,"phone":null,"address":null,"ele":null,"operator":null,"wikipedia":null,"wikidata":null,"description":null,"wheelchair":null,"osmType":"node","osmId":3421425259}},{"type":"Feature","geometry":{"type":"Point","coordinates":[-71.60809,-41.85453]},"properties":{"name":"La Tronconada","country":"Argentina","website":null,"opening_hours":null,"capacity":null,"phone":null,"address":null,"ele":null,"operator":null,"wikipedia":null,"wikidata":null,"description":null,"wheelchair":null,"osmType":"node","osmId":3421425260}},{"type":"Feature","geometry":{"type":"Point","coordinates":[-71.72741,-41.77135]},"properties":{"name":"Los Laguitos","country":"Argentina","website":null,"opening_hours":null,"capacity":null,"phone":null,"address":null,"ele":null,"operator":null,"wikipedia":null,"wikidata":null,"description":null,"wheelchair":null,"osmType":"node","osmId":3421425261}},{"type":"Feature","geometry":{"type":"Point","coordinates":[-64.91668,-31.95737]},"properties":{"name":null,"country":"Argentina","website":null,"opening_hours":null,"capacity":null,"phone":null,"address":null,"ele":null,"operator":null,"wikipedia":null,"wikidata":null,"description":null,"wheelchair":null,"osmType":"node","osmId":3860925670}},{"type":"Feature","geometry":{"type":"Point","coordinates":[-64.78906,-31.40751]},"properties":{"name":"La Rotonda","country":"Argentina","website":null,"opening_hours":null,"capacity":null,"phone":null,"address":null,"ele":null,"operator":null,"wikipedia":null,"wikidata":null,"description":null,"wheelchair":null,"osmType":"node","osmId":3870108977}},{"type":"Feature","geometry":{"type":"Point","coordinates":[-71.54914,-41.09394]},"properties":{"name":"Roca Negra","country":"Argentina","website":null,"opening_hours":null,"capacity":null,"phone":null,"address":null,"ele":null,"operator":null,"wikipedia":null,"wikidata":null,"description":null,"wheelchair":null,"osmType":"node","osmId":3929101703}},{"type":"Feature","geometry":{"type":"Point","coordinates":[-71.55968,-41.10229]},"properties":{"name":"Refugio López","country":"Argentina","website":null,"opening_hours":null,"capacity":null,"phone":null,"address":null,"ele":null,"operator":null,"wikipedia":null,"wikidata":null,"description":null,"wheelchair":null,"osmType":"node","osmId":3929101704}},{"type":"Feature","geometry":{"type":"Point","coordinates":[-64.47189,-31.09002]},"properties":{"name":"Cabañas Ruca Cuyen","country":"Argentina","website":null,"opening_hours":null,"capacity":null,"phone":null,"address":"Los Eucaliptos","ele":null,"operator":null,"wikipedia":null,"wikidata":null,"description":null,"wheelchair":null,"osmType":"node","osmId":4103564789}},{"type":"Feature","geometry":{"type":"Point","coordinates":[-71.33441,-41.13684]},"properties":{"name":"Aldea Andina","country":"Argentina","website":"http://www.aldeaandinaresort.com/","opening_hours":"Mo-Su 09:00-00:00","capacity":null,"phone":"+54 11 5431-1492","address":"2km, San Carlos de Bariloche","ele":null,"operator":null,"wikipedia":null,"wikidata":null,"description":null,"wheelchair":null,"osmType":"node","osmId":4112586791}},{"type":"Feature","geometry":{"type":"Point","coordinates":[-64.31413,-31.25534]},"properties":{"name":null,"country":"Argentina","website":null,"opening_hours":null,"capacity":null,"phone":null,"address":null,"ele":null,"operator":null,"wikipedia":null,"wikidata":null,"description":null,"wheelchair":null,"osmType":"node","osmId":4225974989}},{"type":"Feature","geometry":{"type":"Point","coordinates":[-66.23461,-33.26009]},"properties":{"name":"La Osela","country":"Argentina","website":null,"opening_hours":null,"capacity":null,"phone":null,"osmType":"node","osmId":4226695089}},{"type":"Feature","geometry":{"type":"Point","coordinates":[-61.53714,-39.00258]},"properties":{"name":"El Arbolito","country":"Argentina","website":"www.pehuencoturismo.com.ar","opening_hours":null,"capacity":null,"phone":"+54 9 2923 41 5009","address":"898 Avenida González Martínez","ele":null,"operator":null,"wikipedia":null,"wikidata":null,"description":null,"wheelchair":null,"osmType":"node","osmId":4240592589}},{"type":"Feature","geometry":{"type":"Point","coordinates":[-64.90953,-31.98617]},"properties":{"name":"Casa de Doña Sara","country":"Argentina","website":null,"opening_hours":null,"capacity":null,"phone":null,"address":null,"ele":null,"operator":null,"wikipedia":null,"wikidata":null,"description":null,"wheelchair":null,"osmType":"node","osmId":4277185990}},{"type":"Feature","geometry":{"type":"Point","coordinates":[-67.47732,-30.6292]},"properties":{"name":"Don Isauro","country":"Argentina","website":null,"opening_hours":null,"capacity":null,"phone":null,"address":"Leandro N. Alem","ele":null,"operator":null,"wikipedia":null,"wikidata":null,"description":null,"wheelchair":null,"osmType":"node","osmId":4303186793}},{"type":"Feature","geometry":{"type":"Point","coordinates":[-68.65835,-32.68485]},"properties":{"name":"Cabañas Los Horneros","country":"Argentina","website":null,"opening_hours":null,"capacity":null,"phone":null,"address":"Ruta 36 s/n","ele":null,"operator":"Marita","wikipedia":null,"wikidata":null,"description":null,"wheelchair":null,"osmType":"node","osmId":4354958189}},{"type":"Feature","geometry":{"type":"Point","coordinates":[-65.65919,-33.04705]},"properties":{"name":"Cabañas La Toma vieja","country":"Argentina","website":null,"opening_hours":null,"capacity":null,"phone":null,"address":null,"ele":null,"operator":null,"wikipedia":null,"wikidata":null,"description":null,"wheelchair":null,"osmType":"node","osmId":4368515717}},{"type":"Feature","geometry":{"type":"Point","coordinates":[-64.48419,-31.03707]},"properties":{"name":"Cabañas Cuchito","country":"Argentina","website":null,"opening_hours":null,"capacity":null,"phone":"+54 9 342 439 4061","address":"Santa Juana y Belgrano","ele":null,"operator":"Tacca Hugo","wikipedia":null,"wikidata":null,"description":null,"wheelchair":null,"osmType":"node","osmId":4376022289}},{"type":"Feature","geometry":{"type":"Point","coordinates":[-65.06033,-31.93606]},"properties":{"name":"Cabañas Tintihuasi","country":"Argentina","website":"http://www.tintihuasi.com.ar","opening_hours":null,"capacity":null,"phone":"+54 351 521 8863","address":null,"ele":null,"operator":null,"wikipedia":null,"wikidata":null,"description":null,"wheelchair":null,"osmType":"node","osmId":4431021191}},{"type":"Feature","geometry":{"type":"Point","coordinates":[-61.30774,-38.98696]},"properties":{"name":"Aires de Mar","country":"Argentina","website":null,"opening_hours":"24/7","capacity":null,"phone":"+54 291 471 5654","address":"52 Río Uruguay, 8153","ele":null,"operator":"Micaela","wikipedia":null,"wikidata":null,"description":null,"wheelchair":null,"osmType":"node","osmId":4440705790}},{"type":"Feature","geometry":{"type":"Point","coordinates":[-68.89483,-32.85273]},"properties":{"name":"El Challao","country":"Argentina","website":null,"opening_hours":null,"capacity":null,"phone":null,"address":null,"ele":null,"operator":null,"wikipedia":null,"wikidata":null,"description":null,"wheelchair":null,"osmType":"node","osmId":4524068890}},{"type":"Feature","geometry":{"type":"Point","coordinates":[-64.55669,-31.47305]},"properties":{"name":"Complejo La Loma","country":"Argentina","website":"https://www.complejolaloma.com.ar/","opening_hours":null,"capacity":null,"phone":null,"address":"Los Romerillos","ele":null,"operator":null,"wikipedia":null,"wikidata":null,"description":null,"wheelchair":null,"osmType":"node","osmId":4537775990}},{"type":"Feature","geometry":{"type":"Point","coordinates":[-60.48748,-32.32445]},"properties":{"name":"Las Cuevas","country":"Argentina","website":null,"opening_hours":null,"capacity":null,"phone":"03419616646","address":null,"ele":null,"operator":null,"wikipedia":null,"wikidata":null,"description":null,"wheelchair":null,"osmType":"node","osmId":4558798294}},{"type":"Feature","geometry":{"type":"Point","coordinates":[-60.48751,-32.32501]},"properties":{"name":"Las cuevas","country":"Argentina","website":null,"opening_hours":null,"capacity":null,"phone":null,"address":null,"ele":null,"operator":null,"wikipedia":null,"wikidata":null,"description":null,"wheelchair":null,"osmType":"node","osmId":4558831091}},{"type":"Feature","geometry":{"type":"Point","coordinates":[-71.46782,-43.03309]},"properties":{"name":"Cabaña de Franco","country":"Argentina","website":"https://www.cabaniasdefranco.com.ar/","opening_hours":null,"capacity":null,"phone":"+54 9 2945 69 0538","address":"km 6 Ruta Provincial 71","ele":null,"operator":null,"wikipedia":null,"wikidata":null,"description":null,"wheelchair":null,"osmType":"node","osmId":4582150990}},{"type":"Feature","geometry":{"type":"Point","coordinates":[-65.09558,-40.81331]},"properties":{"name":"Departamentos Eva Luna","country":"Argentina","website":null,"opening_hours":null,"capacity":null,"phone":null,"address":"172 San Antonio Abad, 8521 Las Grutas","ele":null,"operator":null,"wikipedia":null,"wikidata":null,"description":null,"wheelchair":null,"osmType":"node","osmId":4592875492}},{"type":"Feature","geometry":{"type":"Point","coordinates":[-68.26721,-34.64611]},"properties":{"name":"Cabañas Saint Bernard","country":"Argentina","website":null,"opening_hours":"24/7","capacity":null,"phone":null,"address":"6500 Avenida Alberdi","ele":null,"operator":null,"wikipedia":null,"wikidata":null,"description":null,"wheelchair":null,"osmType":"node","osmId":4597282889}},{"type":"Feature","geometry":{"type":"Point","coordinates":[-65.0199,-42.783]},"properties":{"name":"Complejo sol de patagonia","country":"Argentina","website":null,"opening_hours":null,"capacity":null,"phone":null,"address":"Sayhueque, 9120","ele":null,"operator":null,"wikipedia":null,"wikidata":null,"description":null,"wheelchair":null,"osmType":"node","osmId":4673713689}},{"type":"Feature","geometry":{"type":"Point","coordinates":[-64.90467,-31.96805]},"properties":{"name":"Rancho de Luna","country":"Argentina","website":null,"opening_hours":null,"capacity":null,"phone":null,"address":null,"ele":null,"operator":null,"wikipedia":null,"wikidata":null,"description":null,"wheelchair":null,"osmType":"node","osmId":4682703275}},{"type":"Feature","geometry":{"type":"Point","coordinates":[-64.90761,-31.987]},"properties":{"name":"Refugio San Expedito","country":"Argentina","website":null,"opening_hours":null,"capacity":null,"phone":null,"address":null,"ele":null,"operator":null,"wikipedia":null,"wikidata":null,"description":null,"wheelchair":null,"osmType":"node","osmId":4682703276}},{"type":"Feature","geometry":{"type":"Point","coordinates":[-64.90921,-31.98704]},"properties":{"name":null,"country":"Argentina","website":null,"opening_hours":null,"capacity":null,"phone":null,"address":null,"ele":null,"operator":null,"wikipedia":null,"wikidata":null,"description":null,"wheelchair":null,"osmType":"node","osmId":4682703277}},{"type":"Feature","geometry":{"type":"Point","coordinates":[-64.41498,-32.1842]},"properties":{"name":"Cabañas dnv","country":"Argentina","website":null,"opening_hours":null,"capacity":null,"phone":null,"address":null,"ele":null,"operator":null,"wikipedia":null,"wikidata":null,"description":null,"wheelchair":null,"osmType":"node","osmId":4715498793}},{"type":"Feature","geometry":{"type":"Point","coordinates":[-71.66293,-41.83692]},"properties":{"name":"REFUGIO LAS HORQUETAS","country":"Argentina","website":null,"opening_hours":null,"capacity":null,"phone":null,"address":null,"ele":null,"operator":null,"wikipedia":null,"wikidata":null,"description":null,"wheelchair":null,"osmType":"node","osmId":4790852321}},{"type":"Feature","geometry":{"type":"Point","coordinates":[-67.46613,-30.63663]},"properties":{"name":"La Hilda","country":"Argentina","website":null,"opening_hours":"24/7","capacity":null,"phone":"+542644047160","address":"1069 Santa Fe, 5449","ele":null,"operator":null,"wikipedia":null,"wikidata":null,"description":null,"wheelchair":null,"osmType":"node","osmId":4825792521}},{"type":"Feature","geometry":{"type":"Point","coordinates":[-71.50002,-40.36371]},"properties":{"name":"Ruca","country":"Argentina","website":null,"opening_hours":null,"capacity":null,"phone":null,"address":null,"ele":null,"operator":null,"wikipedia":null,"wikidata":null,"description":null,"wheelchair":null,"osmType":"node","osmId":4898467021}},{"type":"Feature","geometry":{"type":"Point","coordinates":[-64.59693,-30.72982]},"properties":{"name":"cabañas el carrizal","country":"Argentina","website":null,"opening_hours":null,"capacity":null,"phone":null,"address":"calle publica","ele":null,"operator":null,"wikipedia":null,"wikidata":null,"description":null,"wheelchair":null,"osmType":"node","osmId":4902980773}},{"type":"Feature","geometry":{"type":"Point","coordinates":[-64.59514,-30.72981]},"properties":{"name":"ruta del carrizal","country":"Argentina","website":null,"opening_hours":null,"capacity":null,"phone":null,"address":"Ruta Nacional 38","ele":null,"operator":null,"wikipedia":null,"wikidata":null,"description":null,"wheelchair":null,"osmType":"node","osmId":4902980774}},{"type":"Feature","geometry":{"type":"Point","coordinates":[-68.34786,-54.83067]},"properties":{"name":"Cabaña para 2 a 5px","country":"Argentina","website":null,"opening_hours":null,"capacity":null,"phone":"+54 2901 41 2284","address":"850 de la barranca, 9410","ele":null,"operator":null,"wikipedia":null,"wikidata":null,"description":null,"wheelchair":null,"osmType":"node","osmId":5090910821}},{"type":"Feature","geometry":{"type":"Point","coordinates":[-61.539,-38.99437]},"properties":{"name":"Pehuén-Co Alquileres","country":"Argentina","website":null,"opening_hours":null,"capacity":null,"phone":"+54 9 2923 41 5009","address":"Avenida 9 de Julio","ele":null,"operator":null,"wikipedia":null,"wikidata":null,"description":null,"wheelchair":null,"osmType":"node","osmId":5106618423}},{"type":"Feature","geometry":{"type":"Point","coordinates":[-65.42342,-36.21843]},"properties":{"name":"La Aldea","country":"Argentina","website":null,"opening_hours":null,"capacity":null,"phone":null,"address":null,"ele":null,"operator":null,"wikipedia":null,"wikidata":null,"description":null,"wheelchair":null,"osmType":"node","osmId":5133734939}},{"type":"Feature","geometry":{"type":"Point","coordinates":[-69.2156,-30.3169]},"properties":{"name":"Ensueños","country":"Argentina","website":null,"opening_hours":null,"capacity":null,"phone":null,"address":null,"ele":null,"operator":null,"wikipedia":null,"wikidata":null,"description":null,"wheelchair":null,"osmType":"node","osmId":5135821126}},{"type":"Feature","geometry":{"type":"Point","coordinates":[-67.50044,-39.04557]},"properties":{"name":"Seleme","country":"Argentina","website":null,"opening_hours":null,"capacity":null,"phone":null,"address":"Sargento Cabral","ele":null,"operator":null,"wikipedia":null,"wikidata":null,"description":null,"wheelchair":null,"osmType":"node","osmId":5203377422}},{"type":"Feature","geometry":{"type":"Point","coordinates":[-71.06818,-39.94352]},"properties":{"name":"Casa cisnero","country":"Argentina","website":null,"opening_hours":null,"capacity":null,"phone":null,"address":null,"ele":null,"operator":null,"wikipedia":null,"wikidata":null,"description":null,"wheelchair":null,"osmType":"node","osmId":5307294027}},{"type":"Feature","geometry":{"type":"Point","coordinates":[-64.93493,-31.90614]},"properties":{"name":"Refugio Los Tabaquillos","country":"Argentina","website":null,"opening_hours":null,"capacity":null,"phone":null,"address":null,"ele":"1890","operator":null,"wikipedia":null,"wikidata":null,"description":null,"wheelchair":null,"osmType":"node","osmId":5325786733,"elevation":"1890"}},{"type":"Feature","geometry":{"type":"Point","coordinates":[-64.95035,-31.90082]},"properties":{"name":"Refugio Los Ramblones","country":"Argentina","website":null,"opening_hours":null,"capacity":null,"phone":null,"address":null,"ele":"1570","operator":null,"wikipedia":null,"wikidata":null,"description":null,"wheelchair":null,"osmType":"node","osmId":5325790254,"elevation":"1570"}},{"type":"Feature","geometry":{"type":"Point","coordinates":[-69.81914,-32.84823]},"properties":{"name":"El Refu","country":"Argentina","website":null,"opening_hours":null,"capacity":null,"phone":null,"address":null,"ele":null,"operator":null,"wikipedia":null,"wikidata":null,"description":null,"wheelchair":null,"osmType":"node","osmId":5349037323}},{"type":"Feature","geometry":{"type":"Point","coordinates":[-65.02477,-31.72899]},"properties":{"name":"Cabañas Don José","country":"Argentina","website":null,"opening_hours":null,"capacity":null,"phone":null,"address":"Las Liebres","ele":null,"operator":null,"wikipedia":null,"wikidata":null,"description":null,"wheelchair":null,"osmType":"node","osmId":5349365623}},{"type":"Feature","geometry":{"type":"Point","coordinates":[-64.96977,-31.97899]},"properties":{"name":"Refugio Vaikuntha","country":"Argentina","website":null,"opening_hours":null,"capacity":null,"phone":null,"address":null,"ele":null,"operator":null,"wikipedia":null,"wikidata":null,"description":null,"wheelchair":null,"osmType":"node","osmId":5369140106}},{"type":"Feature","geometry":{"type":"Point","coordinates":[-71.61402,-41.80738]},"properties":{"name":"Encanto Blanco","country":"Argentina","website":null,"opening_hours":null,"capacity":null,"phone":null,"address":null,"ele":null,"operator":null,"wikipedia":null,"wikidata":null,"description":null,"wheelchair":null,"osmType":"node","osmId":5380589873}},{"type":"Feature","geometry":{"type":"Point","coordinates":[-68.38575,-53.90802]},"properties":{"name":"Estancia Aurelia","country":"Argentina","website":null,"opening_hours":null,"capacity":null,"phone":null,"address":null,"ele":null,"operator":null,"wikipedia":null,"wikidata":null,"description":null,"wheelchair":null,"osmType":"node","osmId":5420967321}},{"type":"Feature","geometry":{"type":"Point","coordinates":[-67.52576,-46.46729]},"properties":{"name":null,"country":"Argentina","website":null,"opening_hours":null,"capacity":null,"phone":null,"address":"236 Río Paraná, 9100","ele":null,"operator":null,"wikipedia":null,"wikidata":null,"description":null,"wheelchair":null,"osmType":"node","osmId":5554939359}},{"type":"Feature","geometry":{"type":"Point","coordinates":[-64.59314,-32.53558]},"properties":{"name":"Cabañas La Barraca","country":"Argentina","website":null,"opening_hours":"24/7","capacity":null,"phone":"+5493584246398","address":null,"ele":null,"operator":null,"wikipedia":null,"wikidata":null,"description":null,"wheelchair":null,"osmType":"node","osmId":5589669425}},{"type":"Feature","geometry":{"type":"Point","coordinates":[-64.59327,-32.53537]},"properties":{"name":"Cabañas La Barraca","country":"Argentina","website":null,"opening_hours":"24/7","capacity":null,"phone":"+54 9 358 424 6398","address":null,"ele":null,"operator":null,"wikipedia":null,"wikidata":null,"description":null,"wheelchair":null,"osmType":"node","osmId":5682911423}},{"type":"Feature","geometry":{"type":"Point","coordinates":[-71.53091,-41.96444]},"properties":{"name":null,"country":"Argentina","website":null,"opening_hours":null,"capacity":null,"phone":null,"address":null,"ele":null,"operator":null,"wikipedia":null,"wikidata":null,"description":null,"wheelchair":null,"osmType":"node","osmId":5726834621}},{"type":"Feature","geometry":{"type":"Point","coordinates":[-68.24163,-46.02574]},"properties":{"name":"Casita","country":"Argentina","website":null,"opening_hours":null,"capacity":null,"phone":null,"address":null,"ele":null,"operator":null,"wikipedia":null,"wikidata":null,"description":null,"wheelchair":null,"osmType":"node","osmId":5825828755}},{"type":"Feature","geometry":{"type":"Point","coordinates":[-68.92812,-33.01392]},"properties":{"name":"Casa Mendoza","country":"Argentina","website":null,"opening_hours":null,"capacity":null,"phone":null,"address":null,"ele":null,"operator":null,"wikipedia":null,"wikidata":null,"description":null,"wheelchair":null,"osmType":"node","osmId":6021033786}},{"type":"Feature","geometry":{"type":"Point","coordinates":[-71.50495,-41.3677]},"properties":{"name":"Huinca Ruca","country":"Argentina","website":null,"opening_hours":null,"capacity":null,"phone":null,"address":"Antiguo camino al Bolson (intransitable)","ele":null,"operator":null,"wikipedia":null,"wikidata":null,"description":null,"wheelchair":null,"osmType":"node","osmId":6342187385}},{"type":"Feature","geometry":{"type":"Point","coordinates":[-71.52047,-41.98191]},"properties":{"name":"Cabaña Longchamps","country":"Argentina","website":null,"opening_hours":null,"capacity":null,"phone":null,"address":null,"ele":null,"operator":null,"wikipedia":null,"wikidata":null,"description":null,"wheelchair":null,"osmType":"node","osmId":6359612186}},{"type":"Feature","geometry":{"type":"Point","coordinates":[-71.37861,-41.12707]},"properties":{"name":"Ruca Nilpi","country":"Argentina","website":"http://www.rucanilpi.com.ar","opening_hours":null,"capacity":null,"phone":"+54 294 444 1350","address":"650 Nilpi, 8400","ele":null,"operator":null,"wikipedia":null,"wikidata":null,"description":null,"wheelchair":null,"osmType":"node","osmId":6404120485}},{"type":"Feature","geometry":{"type":"Point","coordinates":[-69.25148,-30.43436]},"properties":{"name":"Camping Bella Vista","country":"Argentina","website":"http://www.campingbellavista.com.ar","opening_hours":"Mo-Su 08:00-22:00","capacity":null,"phone":"+54 264 4450828","address":"S/N Principal Bella Vista, 5467 Iglesia","ele":null,"operator":"Camping Bella Vista","wikipedia":null,"wikidata":null,"description":null,"wheelchair":null,"osmType":"node","osmId":6802750685}},{"type":"Feature","geometry":{"type":"Point","coordinates":[-71.12,-40.80166]},"properties":{"name":null,"country":"Argentina","website":null,"opening_hours":null,"capacity":null,"phone":null,"address":null,"ele":null,"operator":null,"wikipedia":null,"wikidata":null,"description":null,"wheelchair":null,"osmType":"node","osmId":6862996285}},{"type":"Feature","geometry":{"type":"Point","coordinates":[-71.31248,-42.91072]},"properties":{"name":"Aylin","country":"Argentina","website":null,"opening_hours":"24/7","capacity":null,"phone":null,"address":"431 Urquiza","ele":null,"operator":null,"wikipedia":null,"wikidata":null,"description":null,"wheelchair":null,"osmType":"node","osmId":7005330085}},{"type":"Feature","geometry":{"type":"Point","coordinates":[-66.09737,-32.60379]},"properties":{"name":"chacha Raíz","country":"Argentina","website":null,"opening_hours":null,"capacity":null,"phone":null,"address":null,"ele":null,"operator":null,"wikipedia":null,"wikidata":null,"description":null,"wheelchair":null,"osmType":"node","osmId":7112718285}},{"type":"Feature","geometry":{"type":"Point","coordinates":[-72.58926,-48.94887]},"properties":{"name":"Refugio La Nana","country":"Argentina","website":null,"opening_hours":null,"capacity":null,"phone":null,"address":null,"ele":null,"operator":null,"wikipedia":null,"wikidata":null,"description":null,"wheelchair":null,"osmType":"node","osmId":7156980002}},{"type":"Feature","geometry":{"type":"Point","coordinates":[-71.66257,-41.84034]},"properties":{"name":"Refugio Casa de Campo","country":"Argentina","website":null,"opening_hours":null,"capacity":null,"phone":null,"address":null,"ele":null,"operator":null,"wikipedia":null,"wikidata":null,"description":null,"wheelchair":null,"osmType":"node","osmId":7189243086}},{"type":"Feature","geometry":{"type":"Point","coordinates":[-71.65961,-41.83946]},"properties":{"name":"Refugio Del Conde","country":"Argentina","website":null,"opening_hours":null,"capacity":null,"phone":null,"address":null,"ele":null,"operator":null,"wikipedia":null,"wikidata":null,"description":null,"wheelchair":null,"osmType":"node","osmId":7189243185}},{"type":"Feature","geometry":{"type":"Point","coordinates":[-71.35663,-41.12595]},"properties":{"name":"El Cencerro","country":"Argentina","website":null,"opening_hours":null,"capacity":null,"phone":null,"address":"Avenida Exequiel Bustillo","ele":null,"operator":null,"wikipedia":null,"wikidata":null,"description":null,"wheelchair":null,"osmType":"node","osmId":7233820685}},{"type":"Feature","geometry":{"type":"Point","coordinates":[-71.51645,-41.04456]},"properties":{"name":"Balcón al Lago","country":"Argentina","website":null,"opening_hours":null,"capacity":null,"phone":"0294448190","address":"23,400 Avenida Exequiel Bustillo","ele":null,"operator":null,"wikipedia":null,"wikidata":null,"description":null,"wheelchair":null,"osmType":"node","osmId":7339644485}},{"type":"Feature","geometry":{"type":"Point","coordinates":[-64.50637,-30.86156]},"properties":{"name":"Cabañas Apart ONO ZONE","country":"Argentina","website":null,"opening_hours":"24/7","capacity":null,"phone":"+54 9 815 633-700","address":"1310 Avenida Amadeo Sabattini, 5184","ele":null,"operator":null,"wikipedia":null,"wikidata":null,"description":null,"wheelchair":null,"osmType":"node","osmId":7923964385}},{"type":"Feature","geometry":{"type":"Point","coordinates":[-71.57271,-41.35798]},"properties":{"name":"CEF 8","country":"Argentina","website":null,"opening_hours":null,"capacity":null,"phone":null,"address":null,"ele":null,"operator":null,"wikipedia":null,"wikidata":null,"description":null,"wheelchair":null,"osmType":"node","osmId":8430060217}},{"type":"Feature","geometry":{"type":"Point","coordinates":[-69.47093,-31.66447]},"properties":{"name":"Casa Julio Flores","country":"Argentina","website":null,"opening_hours":null,"capacity":null,"phone":null,"address":null,"ele":null,"operator":null,"wikipedia":null,"wikidata":null,"description":null,"wheelchair":null,"osmType":"node","osmId":8596022617}},{"type":"Feature","geometry":{"type":"Point","coordinates":[-64.34859,-30.79182]},"properties":{"name":"A Orilla del Río","country":"Argentina","website":null,"opening_hours":null,"capacity":null,"phone":null,"address":"Ruta Provincial 17","ele":null,"operator":null,"wikipedia":null,"wikidata":null,"description":null,"wheelchair":null,"osmType":"node","osmId":9161521717}},{"type":"Feature","geometry":{"type":"Point","coordinates":[-64.51904,-30.84579]},"properties":{"name":"Cabañas del Alma","country":"Argentina","website":null,"opening_hours":null,"capacity":null,"phone":null,"address":"Camino al Ojo de Agua","ele":null,"operator":null,"wikipedia":null,"wikidata":null,"description":null,"wheelchair":null,"osmType":"node","osmId":9797593517}},{"type":"Feature","geometry":{"type":"Point","coordinates":[-67.15697,-38.15346]},"properties":{"name":"Cabañas del Lago","country":"Argentina","website":null,"opening_hours":"24/7","capacity":null,"phone":"+54 2954 58 9367","address":null,"ele":null,"operator":null,"wikipedia":null,"wikidata":null,"description":null,"wheelchair":null,"osmType":"node","osmId":10096237724}},{"type":"Feature","geometry":{"type":"Point","coordinates":[-62.15641,-37.77613]},"properties":{"name":"Domo Cerro Pirámide","country":"Argentina","website":null,"opening_hours":null,"capacity":null,"phone":null,"address":null,"ele":null,"operator":"Estancia Cerro Áspero","wikipedia":null,"wikidata":null,"description":null,"wheelchair":null,"osmType":"node","osmId":10117649797}},{"type":"Feature","geometry":{"type":"Point","coordinates":[-69.51563,-33.62524]},"properties":{"name":"Refugio","country":"Argentina","website":null,"opening_hours":null,"capacity":null,"phone":null,"address":null,"ele":null,"operator":null,"wikipedia":null,"wikidata":null,"description":null,"wheelchair":null,"osmType":"node","osmId":10261427915}},{"type":"Feature","geometry":{"type":"Point","coordinates":[-71.16888,-38.88266]},"properties":{"name":"Cabañas Viki","country":"Argentina","website":null,"opening_hours":null,"capacity":null,"phone":"+54 299 472 3647","address":"Los Choiques","ele":null,"operator":null,"wikipedia":null,"wikidata":null,"description":null,"wheelchair":null,"osmType":"node","osmId":10578009241}},{"type":"Feature","geometry":{"type":"Point","coordinates":[-70.01026,-32.82031]},"properties":{"name":null,"country":"Argentina","website":null,"opening_hours":null,"capacity":null,"phone":null,"address":null,"ele":null,"operator":null,"wikipedia":null,"wikidata":null,"description":null,"wheelchair":null,"osmType":"node","osmId":10648336105}},{"type":"Feature","geometry":{"type":"Point","coordinates":[-65.00048,-31.80205]},"properties":{"name":null,"country":"Argentina","website":null,"opening_hours":null,"capacity":null,"phone":null,"address":"150 Los Sauces","ele":null,"operator":null,"wikipedia":null,"wikidata":null,"description":null,"wheelchair":null,"osmType":"node","osmId":10687170905}},{"type":"Feature","geometry":{"type":"Point","coordinates":[-64.5311,-30.94736]},"properties":{"name":"Doña Techa","country":"Argentina","website":null,"opening_hours":null,"capacity":null,"phone":null,"address":null,"ele":null,"operator":null,"wikipedia":null,"wikidata":null,"description":null,"wheelchair":null,"osmType":"node","osmId":10718108648}},{"type":"Feature","geometry":{"type":"Point","coordinates":[-70.11992,-38.86037]},"properties":{"name":"Granja Educativa El Mirador","country":"Argentina","website":null,"opening_hours":null,"capacity":null,"phone":"292589972","address":null,"ele":null,"operator":null,"wikipedia":null,"wikidata":null,"description":null,"wheelchair":null,"osmType":"node","osmId":10739806906}},{"type":"Feature","geometry":{"type":"Point","coordinates":[-70.0955,-38.83538]},"properties":{"name":"Granja Educativa El Mirador, Casa de Campo","country":"Argentina","website":null,"opening_hours":null,"capacity":null,"phone":"+54 2942 58 9972","address":"8340","ele":null,"operator":null,"wikipedia":null,"wikidata":null,"description":null,"wheelchair":null,"osmType":"node","osmId":10739838905}},{"type":"Feature","geometry":{"type":"Point","coordinates":[-69.4032,-32.47554]},"properties":{"name":"Cabañas Finca el Duende","country":"Argentina","website":null,"opening_hours":null,"capacity":null,"phone":null,"address":null,"ele":null,"operator":null,"wikipedia":null,"wikidata":null,"description":null,"wheelchair":null,"osmType":"node","osmId":11165058107}},{"type":"Feature","geometry":{"type":"Point","coordinates":[-68.63297,-30.66544]},"properties":{"name":"Refuge","country":"Argentina","website":null,"opening_hours":null,"capacity":null,"phone":null,"address":null,"ele":null,"operator":null,"wikipedia":null,"wikidata":null,"description":null,"wheelchair":null,"osmType":"node","osmId":11199897328}},{"type":"Feature","geometry":{"type":"Point","coordinates":[-72.75088,-50.38735]},"properties":{"name":"Estancia Tierras Patagonicas","country":"Argentina","website":null,"opening_hours":null,"capacity":null,"phone":null,"address":null,"ele":null,"operator":null,"wikipedia":null,"wikidata":null,"description":null,"wheelchair":null,"osmType":"node","osmId":11262697138}},{"type":"Feature","geometry":{"type":"Point","coordinates":[-64.6956,-30.96929]},"properties":{"name":null,"country":"Argentina","website":null,"opening_hours":null,"capacity":null,"phone":null,"address":null,"ele":null,"operator":null,"wikipedia":null,"wikidata":null,"description":null,"wheelchair":null,"osmType":"node","osmId":11471576469}},{"type":"Feature","geometry":{"type":"Point","coordinates":[-61.97321,-36.26423]},"properties":{"name":null,"country":"Argentina","website":null,"opening_hours":null,"capacity":null,"phone":null,"address":null,"ele":null,"operator":null,"wikipedia":null,"wikidata":null,"description":null,"wheelchair":null,"osmType":"node","osmId":11514665571}},{"type":"Feature","geometry":{"type":"Point","coordinates":[-68.1239,-54.74183]},"properties":{"name":"privado","country":"Argentina","website":null,"opening_hours":null,"capacity":null,"phone":null,"address":null,"ele":null,"operator":null,"wikipedia":null,"wikidata":null,"description":null,"wheelchair":null,"osmType":"node","osmId":11843681785}},{"type":"Feature","geometry":{"type":"Point","coordinates":[-68.16438,-32.12248]},"properties":{"name":null,"country":"Argentina","website":null,"opening_hours":null,"capacity":null,"phone":null,"address":null,"ele":null,"operator":null,"wikipedia":null,"wikidata":null,"description":null,"wheelchair":null,"osmType":"node","osmId":11905108769}},{"type":"Feature","geometry":{"type":"Point","coordinates":[-71.25601,-39.80095]},"properties":{"name":"Cabaña La Serendipia","country":"Argentina","website":null,"opening_hours":"24/7","capacity":null,"phone":"+54 342 592 8836","address":"8371","ele":null,"operator":null,"wikipedia":null,"wikidata":null,"description":null,"wheelchair":null,"osmType":"node","osmId":11976336470}},{"type":"Feature","geometry":{"type":"Point","coordinates":[-67.53072,-48.0276]},"properties":{"name":null,"country":"Argentina","website":null,"opening_hours":null,"capacity":null,"phone":null,"address":null,"ele":null,"operator":null,"wikipedia":null,"wikidata":null,"description":null,"wheelchair":null,"osmType":"node","osmId":12070685670}},{"type":"Feature","geometry":{"type":"Point","coordinates":[-67.153,-47.46986]},"properties":{"name":null,"country":"Argentina","website":null,"opening_hours":null,"capacity":null,"phone":null,"address":null,"ele":null,"operator":null,"wikipedia":null,"wikidata":null,"description":null,"wheelchair":null,"osmType":"node","osmId":12070685931}},{"type":"Feature","geometry":{"type":"Point","coordinates":[-62.02418,-38.11634]},"properties":{"name":"Refugio Napostá","country":"Argentina","website":null,"opening_hours":null,"capacity":null,"phone":null,"address":null,"ele":null,"operator":null,"wikipedia":null,"wikidata":null,"description":null,"wheelchair":null,"osmType":"node","osmId":12104412766}},{"type":"Feature","geometry":{"type":"Point","coordinates":[-64.90727,-31.98096]},"properties":{"name":"Refugio Las Rosas","country":"Argentina","website":null,"opening_hours":null,"capacity":null,"phone":null,"address":null,"ele":null,"operator":null,"wikipedia":null,"wikidata":null,"description":null,"wheelchair":null,"osmType":"node","osmId":12800877701}},{"type":"Feature","geometry":{"type":"Point","coordinates":[-64.95788,-31.88141]},"properties":{"name":"Altos de Rabonas","country":"Argentina","website":"https://altosderabonas.com/","opening_hours":null,"capacity":null,"phone":"+54 358 419 1633","address":null,"ele":null,"operator":null,"wikipedia":null,"wikidata":null,"description":null,"wheelchair":null,"osmType":"node","osmId":12809748401}},{"type":"Feature","geometry":{"type":"Point","coordinates":[-69.35514,-32.98041]},"properties":{"name":"Refugio UNCuyo","country":"Argentina","website":null,"opening_hours":null,"capacity":null,"phone":null,"address":null,"ele":null,"operator":null,"wikipedia":null,"wikidata":null,"description":null,"wheelchair":null,"osmType":"node","osmId":12859803052}},{"type":"Feature","geometry":{"type":"Point","coordinates":[-64.58284,-32.05706]},"properties":{"name":"Cabañas Casa de Sierra","country":"Argentina","website":null,"opening_hours":null,"capacity":null,"phone":null,"address":"Bernardo Houssay","ele":null,"operator":null,"wikipedia":null,"wikidata":null,"description":null,"wheelchair":null,"osmType":"node","osmId":13095301602}},{"type":"Feature","geometry":{"type":"Point","coordinates":[-64.65879,-31.35315]},"properties":{"name":"Estancia Cerro Blanco","country":"Argentina","website":"https://estanciacerroblanco.com.ar/","opening_hours":null,"capacity":null,"phone":null,"address":null,"ele":null,"operator":null,"wikipedia":null,"wikidata":null,"description":null,"wheelchair":null,"osmType":"node","osmId":13456749801}},{"type":"Feature","geometry":{"type":"Point","coordinates":[-71.64204,-41.8425]},"properties":{"name":"Refugio El Retamal","country":"Argentina","website":null,"opening_hours":null,"capacity":null,"phone":null,"address":null,"ele":null,"operator":null,"wikipedia":null,"wikidata":null,"description":null,"wheelchair":null,"osmType":"way","osmId":250863793}},{"type":"Feature","geometry":{"type":"Point","coordinates":[-71.81801,-41.17593]},"properties":{"name":"Refugio Otto Meiling","country":"Argentina","website":"https://refugiomeiling.com/","opening_hours":null,"capacity":null,"phone":null,"address":null,"ele":"1885","operator":"Club Andino Bariloche","wikipedia":null,"wikidata":null,"description":null,"wheelchair":null,"osmType":"way","osmId":287208256,"elevation":"1885"}},{"type":"Feature","geometry":{"type":"Point","coordinates":[-62.03002,-38.14262]},"properties":{"name":"Puesto Glorieta","country":"Argentina","website":null,"opening_hours":null,"capacity":null,"phone":null,"address":null,"ele":null,"operator":null,"wikipedia":null,"wikidata":null,"description":null,"wheelchair":null,"osmType":"way","osmId":318476878}},{"type":"Feature","geometry":{"type":"Point","coordinates":[-71.53106,-41.10084]},"properties":{"name":"Refugio Extremo Encantado - Cerro López","country":"Argentina","website":"https://www.instagram.com/refugio.extremo.encantado/","opening_hours":null,"capacity":null,"phone":"+54 9 294 420-5353","address":null,"ele":null,"operator":null,"wikipedia":null,"wikidata":null,"description":"Refugio de Montaña con acceso por ruta de ripio o por trekking paralelo","wheelchair":null,"osmType":"way","osmId":389745255}},{"type":"Feature","geometry":{"type":"Point","coordinates":[-64.90275,-31.97742]},"properties":{"name":"Puesto de Héctor González","country":"Argentina","website":null,"opening_hours":null,"capacity":null,"phone":null,"address":null,"ele":null,"operator":null,"wikipedia":null,"wikidata":null,"description":null,"wheelchair":null,"osmType":"way","osmId":428632681}},{"type":"Feature","geometry":{"type":"Point","coordinates":[-71.62233,-41.06669]},"properties":{"name":"Refugio Vivac Slovenia","country":"Argentina","website":null,"opening_hours":null,"capacity":null,"phone":null,"address":null,"ele":null,"operator":null,"wikipedia":null,"wikidata":null,"description":null,"wheelchair":null,"osmType":"way","osmId":457903461}},{"type":"Feature","geometry":{"type":"Point","coordinates":[-69.69964,-33.63976]},"properties":{"name":"Refugio Real De La Cruz","country":"Argentina","website":null,"opening_hours":null,"capacity":null,"phone":null,"address":null,"ele":null,"operator":"Ejercito Argentino","wikipedia":null,"wikidata":null,"description":null,"wheelchair":null,"osmType":"way","osmId":459435046}},{"type":"Feature","geometry":{"type":"Point","coordinates":[-71.47014,-41.96896]},"properties":{"name":"Refugio Piltriquitrón","country":"Argentina","website":null,"opening_hours":null,"capacity":null,"phone":null,"address":null,"ele":null,"operator":null,"wikipedia":null,"wikidata":null,"description":"Ofrece servicios de comida, pernocte, ducha con agua caliente y proveeduría. Se debe llevar bolsa de dormir. Esta abierto todo el año.","wheelchair":null,"osmType":"way","osmId":504901701}},{"type":"Feature","geometry":{"type":"Point","coordinates":[-71.64148,-41.9674]},"properties":{"name":"Refugio Cerro Lindo \"Mario Marquez\"","country":"Argentina","website":null,"opening_hours":null,"capacity":null,"phone":null,"address":null,"ele":null,"operator":null,"wikipedia":null,"wikidata":null,"description":null,"wheelchair":null,"osmType":"way","osmId":589998029}},{"type":"Feature","geometry":{"type":"Point","coordinates":[-69.51449,-50.82147]},"properties":{"name":null,"country":"Argentina","website":null,"opening_hours":null,"capacity":null,"phone":null,"address":null,"ele":null,"operator":null,"wikipedia":null,"wikidata":null,"description":null,"wheelchair":null,"osmType":"way","osmId":635430423}},{"type":"Feature","geometry":{"type":"Point","coordinates":[-64.90799,-31.98201]},"properties":{"name":"Los Soles","country":"Argentina","website":null,"opening_hours":null,"capacity":null,"phone":null,"address":null,"ele":null,"operator":"Erica Gonzalez","wikipedia":null,"wikidata":null,"description":null,"wheelchair":null,"osmType":"way","osmId":751708303}},{"type":"Feature","geometry":{"type":"Point","coordinates":[-64.90965,-31.97734]},"properties":{"name":"Puesto de Irene","country":"Argentina","website":null,"opening_hours":null,"capacity":null,"phone":null,"address":null,"ele":null,"operator":null,"wikipedia":null,"wikidata":null,"description":null,"wheelchair":null,"osmType":"way","osmId":751714801}},{"type":"Feature","geometry":{"type":"Point","coordinates":[-70.51776,-36.68102]},"properties":{"name":"Base militar del volcan Dumuyo","country":"Argentina","website":null,"opening_hours":null,"capacity":null,"phone":null,"address":null,"ele":null,"operator":null,"wikipedia":null,"wikidata":null,"description":null,"wheelchair":null,"osmType":"way","osmId":1211146802}},{"type":"Feature","geometry":{"type":"Point","coordinates":[-64.40393,-31.34564]},"properties":{"name":"Macondo Refugio De Montaña","country":"Argentina","website":null,"opening_hours":null,"capacity":null,"phone":"+54 351 302 2018","address":"Sendero paralelo a las vías. Ingreso alternativo a Casa Bamba, 5151","ele":null,"operator":null,"wikipedia":null,"wikidata":null,"description":null,"wheelchair":null,"osmType":"way","osmId":1217745172}},{"type":"Feature","geometry":{"type":"Point","coordinates":[-70.83001,-38.65929]},"properties":{"name":"Punta Piñón Mountain House","country":"Argentina","website":null,"opening_hours":null,"capacity":null,"phone":"+54 299 420-3550","address":"Km 50 Ruta Nacional 242, Pino Hachado","ele":null,"operator":null,"wikipedia":null,"wikidata":null,"description":null,"wheelchair":null,"osmType":"way","osmId":1236409491}},{"type":"Feature","geometry":{"type":"Point","coordinates":[-64.90258,-32.05468]},"properties":{"name":"Paraje Tres Arboles","country":"Argentina","website":null,"opening_hours":null,"capacity":null,"phone":null,"address":null,"ele":null,"operator":null,"wikipedia":null,"wikidata":null,"description":null,"wheelchair":null,"osmType":"way","osmId":1263616029}},{"type":"Feature","geometry":{"type":"Point","coordinates":[-73.00915,-49.18546]},"properties":{"name":"Puesto Cagliero","country":"Argentina","website":null,"opening_hours":null,"capacity":null,"phone":null,"address":null,"ele":null,"operator":null,"wikipedia":null,"wikidata":null,"description":null,"wheelchair":null,"osmType":"way","osmId":1312832105}},{"type":"Feature","geometry":{"type":"Point","coordinates":[-64.83749,-31.49054]},"properties":{"name":"Refugio Pampa Rancho Mogotes","country":"Argentina","website":null,"opening_hours":null,"capacity":null,"phone":"+54 2284 30 4010","address":null,"ele":"2300","operator":null,"wikipedia":null,"wikidata":null,"description":"Trekking por acceso Sur a Los Gigantes","wheelchair":null,"osmType":"way","osmId":1431844469,"elevation":"2300"}},{"type":"Feature","geometry":{"type":"Point","coordinates":[-57.77104,-37.95418]},"properties":{"name":"La Escondida","country":"Argentina","website":null,"opening_hours":null,"capacity":null,"phone":null,"address":null,"ele":null,"operator":null,"wikipedia":null,"wikidata":null,"description":null,"wheelchair":null,"osmType":"node","osmId":4349830992}},{"type":"Feature","geometry":{"type":"Point","coordinates":[-58.29322,-32.4264]},"properties":{"name":"Nogales del arroyo","country":"Argentina","website":null,"opening_hours":null,"capacity":null,"phone":null,"address":null,"ele":null,"operator":null,"wikipedia":null,"wikidata":null,"description":null,"wheelchair":null,"osmType":"node","osmId":4350970194}},{"type":"Feature","geometry":{"type":"Point","coordinates":[-57.03572,-37.34889]},"properties":{"name":"Del Pinar","country":"Argentina","website":null,"opening_hours":null,"capacity":null,"phone":null,"address":"Mar del Plata","ele":null,"operator":null,"wikipedia":null,"wikidata":null,"description":null,"wheelchair":null,"osmType":"node","osmId":4366342791}},{"type":"Feature","geometry":{"type":"Point","coordinates":[-57.7768,-37.95038]},"properties":{"name":"CABAÑAS LOS AMORES","country":"Argentina","website":null,"opening_hours":null,"capacity":null,"phone":null,"address":null,"ele":null,"operator":null,"wikipedia":null,"wikidata":null,"description":null,"wheelchair":null,"osmType":"node","osmId":4423296296}},{"type":"Feature","geometry":{"type":"Point","coordinates":[-58.76008,-37.95131]},"properties":{"name":"La fe","country":"Argentina","website":null,"opening_hours":null,"capacity":null,"phone":null,"address":null,"ele":null,"operator":null,"wikipedia":null,"wikidata":null,"description":null,"wheelchair":null,"osmType":"node","osmId":4477445792}},{"type":"Feature","geometry":{"type":"Point","coordinates":[-59.11297,-37.36295]},"properties":{"name":"Casa Serrana","country":"Argentina","website":null,"opening_hours":"Mo-Su 08:00-21:00","capacity":null,"phone":"+542494653395","address":"1357 Ecuador, 7000","ele":null,"operator":null,"wikipedia":null,"wikidata":null,"description":null,"wheelchair":null,"osmType":"node","osmId":4741772922}},{"type":"Feature","geometry":{"type":"Point","coordinates":[-58.91388,-34.3321]},"properties":{"name":"Robertito","country":"Argentina","website":null,"opening_hours":null,"capacity":null,"phone":null,"address":null,"ele":null,"operator":null,"wikipedia":null,"wikidata":null,"description":null,"wheelchair":null,"osmType":"node","osmId":5534847537}},{"type":"Feature","geometry":{"type":"Point","coordinates":[-58.5098,-35.75633]},"properties":{"name":"Wessex","country":"Argentina","website":null,"opening_hours":null,"capacity":null,"phone":null,"address":"2150 Calle 622","ele":null,"operator":null,"wikipedia":null,"wikidata":null,"description":null,"wheelchair":null,"osmType":"node","osmId":6433146788}},{"type":"Feature","geometry":{"type":"Point","coordinates":[-58.44753,-33.01066]},"properties":{"name":"Chacra","country":"Argentina","website":null,"opening_hours":null,"capacity":null,"phone":null,"address":null,"ele":null,"operator":null,"wikipedia":null,"wikidata":null,"description":null,"wheelchair":null,"osmType":"node","osmId":6737247885}},{"type":"Feature","geometry":{"type":"Point","coordinates":[-57.6175,-38.06886]},"properties":{"name":"POSADA DEL INTi","country":"Argentina","website":null,"opening_hours":null,"capacity":null,"phone":null,"address":null,"ele":null,"operator":null,"wikipedia":null,"wikidata":null,"description":null,"wheelchair":null,"osmType":"node","osmId":12894967301}},{"type":"Feature","geometry":{"type":"Point","coordinates":[-65.5474,-28.74928]},"properties":{"name":"Cabaña \"Don Hermete\"","country":"Argentina","website":null,"opening_hours":null,"capacity":null,"phone":null,"address":null,"ele":null,"operator":null,"wikipedia":null,"wikidata":null,"description":null,"wheelchair":null,"osmType":"node","osmId":1042098677}},{"type":"Feature","geometry":{"type":"Point","coordinates":[-64.90708,-27.51346]},"properties":{"name":"Cabañas Ensueño del Lago","country":"Argentina","website":"www.facebook.com/ensueniodellago","opening_hours":null,"capacity":null,"phone":"+54 9 3858 50 2777","address":"Picaflores, 4220","ele":null,"operator":null,"wikipedia":null,"wikidata":null,"description":null,"wheelchair":null,"osmType":"node","osmId":4234840089}},{"type":"Feature","geometry":{"type":"Point","coordinates":[-65.71286,-22.48928]},"properties":{"name":"Casa de La Curva","country":"Argentina","website":null,"opening_hours":null,"capacity":null,"phone":null,"address":null,"ele":null,"operator":null,"wikipedia":null,"wikidata":null,"description":null,"wheelchair":null,"osmType":"node","osmId":4283423889}},{"type":"Feature","geometry":{"type":"Point","coordinates":[-65.04261,-23.61127]},"properties":{"name":"Hospedaje Doña Teresa","country":"Argentina","website":null,"opening_hours":null,"capacity":null,"phone":null,"address":"de San Lucas a Molulo, 4513","ele":null,"operator":null,"wikipedia":null,"wikidata":null,"description":null,"wheelchair":null,"osmType":"node","osmId":4360248790}},{"type":"Feature","geometry":{"type":"Point","coordinates":[-66.35677,-22.55708]},"properties":{"name":"Orosmayo","country":"Argentina","website":null,"opening_hours":null,"capacity":null,"phone":null,"address":null,"ele":null,"operator":null,"wikipedia":null,"wikidata":null,"description":null,"wheelchair":null,"osmType":"node","osmId":4464145889}},{"type":"Feature","geometry":{"type":"Point","coordinates":[-66.35836,-22.76672]},"properties":{"name":"Repetidora Cabalonga","country":"Argentina","website":null,"opening_hours":null,"capacity":null,"phone":null,"address":null,"ele":null,"operator":null,"wikipedia":null,"wikidata":null,"description":null,"wheelchair":null,"osmType":"node","osmId":4549454989}},{"type":"Feature","geometry":{"type":"Point","coordinates":[-65.43044,-28.49924]},"properties":{"name":"Santiago","country":"Argentina","website":null,"opening_hours":null,"capacity":null,"phone":null,"address":"Vilizman El Alto","ele":null,"operator":null,"wikipedia":null,"wikidata":null,"description":null,"wheelchair":null,"osmType":"node","osmId":4640767190}},{"type":"Feature","geometry":{"type":"Point","coordinates":[-65.50399,-28.49865]},"properties":{"name":"Estancia La Huerta _ Flia. Cabral Los Pedraza","country":"Argentina","website":null,"opening_hours":null,"capacity":null,"phone":null,"address":null,"ele":null,"operator":null,"wikipedia":null,"wikidata":null,"description":null,"wheelchair":null,"osmType":"node","osmId":4644402889}},{"type":"Feature","geometry":{"type":"Point","coordinates":[-65.49439,-28.5143]},"properties":{"name":"Selva Medina _ Los Pedraza","country":"Argentina","website":null,"opening_hours":null,"capacity":null,"phone":null,"address":null,"ele":null,"operator":null,"wikipedia":null,"wikidata":null,"description":null,"wheelchair":null,"osmType":"node","osmId":4644402990}},{"type":"Feature","geometry":{"type":"Point","coordinates":[-65.50628,-28.50322]},"properties":{"name":"Negalisa Arebalo _ Los Pedraza","country":"Argentina","website":null,"opening_hours":null,"capacity":null,"phone":null,"address":null,"ele":null,"operator":null,"wikipedia":null,"wikidata":null,"description":null,"wheelchair":null,"osmType":"node","osmId":4644402991}},{"type":"Feature","geometry":{"type":"Point","coordinates":[-65.51631,-28.50801]},"properties":{"name":"Fabian Arévalo","country":"Argentina","website":null,"opening_hours":null,"capacity":null,"phone":null,"address":null,"ele":null,"operator":null,"wikipedia":null,"wikidata":null,"description":null,"wheelchair":null,"osmType":"node","osmId":4658247089}},{"type":"Feature","geometry":{"type":"Point","coordinates":[-65.52439,-28.49558]},"properties":{"name":"Vicente Arevalo- Los Pedraza","country":"Argentina","website":null,"opening_hours":null,"capacity":null,"phone":null,"address":null,"ele":null,"operator":null,"wikipedia":null,"wikidata":null,"description":null,"wheelchair":null,"osmType":"node","osmId":4666367589}},{"type":"Feature","geometry":{"type":"Point","coordinates":[-65.43052,-28.49925]},"properties":{"name":"1-Santiago - Vilizman","country":"Argentina","website":null,"opening_hours":null,"capacity":null,"phone":null,"address":null,"ele":null,"operator":null,"wikipedia":null,"wikidata":null,"description":null,"wheelchair":null,"osmType":"node","osmId":4675708793}},{"type":"Feature","geometry":{"type":"Point","coordinates":[-65.432,-28.47482]},"properties":{"name":"2-Mocha - Ancamugalla","country":"Argentina","website":null,"opening_hours":null,"capacity":null,"phone":null,"address":null,"ele":null,"operator":null,"wikipedia":null,"wikidata":null,"description":null,"wheelchair":null,"osmType":"node","osmId":4675709291}},{"type":"Feature","geometry":{"type":"Point","coordinates":[-65.52588,-28.60399]},"properties":{"name":"Lili Carrizo_Los Nogales_ El Alto","country":"Argentina","website":null,"opening_hours":null,"capacity":null,"phone":null,"address":null,"ele":null,"operator":null,"wikipedia":null,"wikidata":null,"description":null,"wheelchair":null,"osmType":"node","osmId":4686816591}},{"type":"Feature","geometry":{"type":"Point","coordinates":[-65.5064,-28.50339]},"properties":{"name":"Negalisa Arebalo _ Los Pedraza","country":"Argentina","website":null,"opening_hours":null,"capacity":null,"phone":null,"address":null,"ele":null,"operator":null,"wikipedia":null,"wikidata":null,"description":null,"wheelchair":null,"osmType":"node","osmId":4686816892}},{"type":"Feature","geometry":{"type":"Point","coordinates":[-65.51288,-28.79497]},"properties":{"name":"Los Nogales","country":"Argentina","website":null,"opening_hours":null,"capacity":null,"phone":null,"address":null,"ele":null,"operator":null,"wikipedia":null,"wikidata":null,"description":null,"wheelchair":null,"osmType":"node","osmId":4686857889}},{"type":"Feature","geometry":{"type":"Point","coordinates":[-65.59496,-28.55802]},"properties":{"name":"Estancia La Loma Sola - El Alto","country":"Argentina","website":null,"opening_hours":null,"capacity":null,"phone":null,"address":null,"ele":null,"operator":null,"wikipedia":null,"wikidata":null,"description":null,"wheelchair":null,"osmType":"node","osmId":4686857890}},{"type":"Feature","geometry":{"type":"Point","coordinates":[-65.52353,-28.5902]},"properties":{"name":"Pepe Chazarreta_ El lindero","country":"Argentina","website":null,"opening_hours":null,"capacity":null,"phone":null,"address":null,"ele":null,"operator":null,"wikipedia":null,"wikidata":null,"description":null,"wheelchair":null,"osmType":"node","osmId":4693635390}},{"type":"Feature","geometry":{"type":"Point","coordinates":[-65.52526,-28.60311]},"properties":{"name":"Porta Coronel _ los Nogales","country":"Argentina","website":null,"opening_hours":null,"capacity":null,"phone":null,"address":null,"ele":null,"operator":null,"wikipedia":null,"wikidata":null,"description":null,"wheelchair":null,"osmType":"node","osmId":4693635391}},{"type":"Feature","geometry":{"type":"Point","coordinates":[-65.52177,-28.58932]},"properties":{"name":"Pedro Quiroga_ El lindero","country":"Argentina","website":null,"opening_hours":null,"capacity":null,"phone":null,"address":null,"ele":null,"operator":null,"wikipedia":null,"wikidata":null,"description":null,"wheelchair":null,"osmType":"node","osmId":4693652991}},{"type":"Feature","geometry":{"type":"Point","coordinates":[-65.51892,-28.66273]},"properties":{"name":"Flia. Reynozo _Casa Armada_ Ancasti","country":"Argentina","website":null,"opening_hours":null,"capacity":null,"phone":null,"address":null,"ele":null,"operator":null,"wikipedia":null,"wikidata":null,"description":null,"wheelchair":null,"osmType":"node","osmId":4693652992}},{"type":"Feature","geometry":{"type":"Point","coordinates":[-65.50387,-28.50301]},"properties":{"name":"La Huerta _ Flia Cabral Los Pedraza","country":"Argentina","website":null,"opening_hours":null,"capacity":null,"phone":null,"address":null,"ele":null,"operator":null,"wikipedia":null,"wikidata":null,"description":null,"wheelchair":null,"osmType":"node","osmId":4699082191}},{"type":"Feature","geometry":{"type":"Point","coordinates":[-65.49474,-28.51386]},"properties":{"name":"Fabio Medina _ Los Pedraza","country":"Argentina","website":null,"opening_hours":null,"capacity":null,"phone":null,"address":null,"ele":null,"operator":null,"wikipedia":null,"wikidata":null,"description":null,"wheelchair":null,"osmType":"node","osmId":4704971993}},{"type":"Feature","geometry":{"type":"Point","coordinates":[-65.49427,-28.51398]},"properties":{"name":"Selva Medina _ Los Pedraza","country":"Argentina","website":null,"opening_hours":null,"capacity":null,"phone":null,"address":null,"ele":null,"operator":null,"wikipedia":null,"wikidata":null,"description":null,"wheelchair":null,"osmType":"node","osmId":4704976489}},{"type":"Feature","geometry":{"type":"Point","coordinates":[-66.48833,-23.94662]},"properties":{"name":"Hospedaje Comunitario","country":"Argentina","website":null,"opening_hours":null,"capacity":null,"phone":null,"address":null,"ele":null,"operator":null,"wikipedia":null,"wikidata":null,"description":null,"wheelchair":null,"osmType":"node","osmId":4772285321}},{"type":"Feature","geometry":{"type":"Point","coordinates":[-65.2507,-24.39252]},"properties":{"name":"Love","country":"Argentina","website":null,"opening_hours":null,"capacity":null,"phone":null,"address":null,"ele":null,"operator":null,"wikipedia":null,"wikidata":null,"description":null,"wheelchair":null,"osmType":"node","osmId":4911290521}},{"type":"Feature","geometry":{"type":"Point","coordinates":[-65.69996,-22.42263]},"properties":{"name":"Casa Mercedez","country":"Argentina","website":null,"opening_hours":null,"capacity":null,"phone":null,"address":null,"ele":null,"operator":null,"wikipedia":null,"wikidata":null,"description":null,"wheelchair":null,"osmType":"node","osmId":5012376123}},{"type":"Feature","geometry":{"type":"Point","coordinates":[-67.01821,-23.2373]},"properties":{"name":"Grupo Jama","country":"Argentina","website":null,"opening_hours":null,"capacity":null,"phone":null,"address":null,"ele":null,"operator":null,"wikipedia":null,"wikidata":null,"description":null,"wheelchair":null,"osmType":"node","osmId":5101491822}},{"type":"Feature","geometry":{"type":"Point","coordinates":[-64.80808,-24.06924]},"properties":{"name":"Gruchali Grupo Chalican","country":"Argentina","website":null,"opening_hours":null,"capacity":null,"phone":null,"address":null,"ele":null,"operator":null,"wikipedia":null,"wikidata":null,"description":null,"wheelchair":null,"osmType":"node","osmId":5105382622}},{"type":"Feature","geometry":{"type":"Point","coordinates":[-64.80174,-23.82981]},"properties":{"name":"Selisamar","country":"Argentina","website":null,"opening_hours":null,"capacity":null,"phone":null,"address":null,"ele":null,"operator":null,"wikipedia":null,"wikidata":null,"description":null,"wheelchair":null,"osmType":"node","osmId":5105482625}},{"type":"Feature","geometry":{"type":"Point","coordinates":[-65.353,-23.2146]},"properties":{"name":"Semahua Sección Humahuaca","country":"Argentina","website":null,"opening_hours":null,"capacity":null,"phone":null,"address":null,"ele":null,"operator":null,"wikipedia":null,"wikidata":null,"description":null,"wheelchair":null,"osmType":"node","osmId":5105482627}},{"type":"Feature","geometry":{"type":"Point","coordinates":[-65.69841,-22.71761]},"properties":{"name":"Sección Abrapampa","country":"Argentina","website":null,"opening_hours":null,"capacity":null,"phone":null,"address":null,"ele":null,"operator":null,"wikipedia":null,"wikidata":null,"description":null,"wheelchair":null,"osmType":"node","osmId":5105482723}},{"type":"Feature","geometry":{"type":"Point","coordinates":[-66.05164,-21.94306]},"properties":{"name":"Grupo Santa Catalina","country":"Argentina","website":null,"opening_hours":null,"capacity":null,"phone":null,"address":null,"ele":null,"operator":null,"wikipedia":null,"wikidata":null,"description":null,"wheelchair":null,"osmType":"node","osmId":5111228722}},{"type":"Feature","geometry":{"type":"Point","coordinates":[-65.15858,-23.17299]},"properties":{"name":"Cianzo","country":"Argentina","website":null,"opening_hours":null,"capacity":null,"phone":null,"address":null,"ele":null,"operator":null,"wikipedia":null,"wikidata":null,"description":null,"wheelchair":null,"osmType":"node","osmId":5132818623}},{"type":"Feature","geometry":{"type":"Point","coordinates":[-65.11144,-23.10061]},"properties":{"name":"Varas","country":"Argentina","website":null,"opening_hours":null,"capacity":null,"phone":null,"address":null,"ele":null,"operator":null,"wikipedia":null,"wikidata":null,"description":null,"wheelchair":null,"osmType":"node","osmId":5132819125}},{"type":"Feature","geometry":{"type":"Point","coordinates":[-65.49373,-23.76002]},"properties":{"name":"Repetidora Purmamarca","country":"Argentina","website":null,"opening_hours":null,"capacity":null,"phone":null,"address":null,"ele":null,"operator":null,"wikipedia":null,"wikidata":null,"description":null,"wheelchair":null,"osmType":"node","osmId":5132881121}},{"type":"Feature","geometry":{"type":"Point","coordinates":[-65.1346,-23.1227]},"properties":{"name":"Palca de Aparzo","country":"Argentina","website":null,"opening_hours":null,"capacity":null,"phone":null,"address":null,"ele":null,"operator":null,"wikipedia":null,"wikidata":null,"description":null,"wheelchair":null,"osmType":"node","osmId":5132881122}},{"type":"Feature","geometry":{"type":"Point","coordinates":[-65.29267,-24.4179]},"properties":{"name":"Casa de milagro sala","country":"Argentina","website":null,"opening_hours":null,"capacity":null,"phone":null,"address":null,"ele":null,"operator":null,"wikipedia":null,"wikidata":null,"description":null,"wheelchair":null,"osmType":"node","osmId":5318562621}},{"type":"Feature","geometry":{"type":"Point","coordinates":[-66.03303,-22.82253]},"properties":{"name":"Finca DON CELLAS","country":"Argentina","website":null,"opening_hours":null,"capacity":null,"phone":null,"address":null,"ele":null,"operator":null,"wikipedia":null,"wikidata":null,"description":null,"wheelchair":null,"osmType":"node","osmId":5452362424}},{"type":"Feature","geometry":{"type":"Point","coordinates":[-64.96162,-25.81376]},"properties":{"name":"Cabañas La Rotonda","country":"Argentina","website":null,"opening_hours":"24/7","capacity":null,"phone":"+543876482325","address":"Ruta Nac 9 - km 1423 - La Rotonda (Refinor), 4190","ele":null,"operator":null,"wikipedia":null,"wikidata":null,"description":null,"wheelchair":null,"osmType":"node","osmId":5515468921}},{"type":"Feature","geometry":{"type":"Point","coordinates":[-67.62346,-27.69262]},"properties":{"name":"Cabañas Dunas de Medanitos","country":"Argentina","website":null,"opening_hours":null,"capacity":null,"phone":null,"address":"Los Diaguitas","ele":null,"operator":null,"wikipedia":null,"wikidata":null,"description":null,"wheelchair":null,"osmType":"node","osmId":5779544853}},{"type":"Feature","geometry":{"type":"Point","coordinates":[-65.3914,-26.78029]},"properties":{"name":"Cábaña las Cascadas","country":"Argentina","website":null,"opening_hours":null,"capacity":null,"phone":null,"address":"Ruta Provincial 340","ele":null,"operator":null,"wikipedia":null,"wikidata":null,"description":null,"wheelchair":null,"osmType":"node","osmId":5820943653}},{"type":"Feature","geometry":{"type":"Point","coordinates":[-65.42025,-24.94664]},"properties":{"name":"Las Moras","country":"Argentina","website":null,"opening_hours":null,"capacity":null,"phone":null,"address":null,"ele":null,"operator":null,"wikipedia":null,"wikidata":null,"description":null,"wheelchair":null,"osmType":"node","osmId":5830982285}},{"type":"Feature","geometry":{"type":"Point","coordinates":[-65.70099,-28.01385]},"properties":{"name":"cabañas Arakuku","country":"Argentina","website":"https://cabaniasarakuku.com.ar/","opening_hours":null,"capacity":null,"phone":"+54 383 433 7008","address":"San Antonio","ele":null,"operator":null,"wikipedia":null,"wikidata":null,"description":null,"wheelchair":null,"osmType":"node","osmId":6031931586}},{"type":"Feature","geometry":{"type":"Point","coordinates":[-67.57366,-29.12384]},"properties":{"name":"Cabañas de Montaña Rio Amarillo","country":"Argentina","website":"https://www.rioamarillochilecito.com/","opening_hours":null,"capacity":null,"phone":"+54 3825 55 9448","address":null,"ele":null,"operator":null,"wikipedia":null,"wikidata":null,"description":null,"wheelchair":null,"osmType":"node","osmId":11308247269}},{"type":"Feature","geometry":{"type":"Point","coordinates":[-65.04906,-23.61262]},"properties":{"name":"Refugio Ramona","country":"Argentina","website":null,"opening_hours":null,"capacity":null,"phone":null,"address":null,"ele":null,"operator":null,"wikipedia":null,"wikidata":null,"description":null,"wheelchair":null,"osmType":"node","osmId":11748599366}},{"type":"Feature","geometry":{"type":"Point","coordinates":[-65.98362,-28.50872]},"properties":{"name":"Puesto de Montaña","country":"Argentina","website":null,"opening_hours":null,"capacity":null,"phone":null,"address":null,"ele":null,"operator":null,"wikipedia":null,"wikidata":null,"description":null,"wheelchair":null,"osmType":"node","osmId":12454132497}},{"type":"Feature","geometry":{"type":"Point","coordinates":[-65.75525,-26.7415]},"properties":{"name":"Recursos hídricos","country":"Argentina","website":null,"opening_hours":null,"capacity":null,"phone":null,"address":null,"ele":null,"operator":null,"wikipedia":null,"wikidata":null,"description":null,"wheelchair":null,"osmType":"node","osmId":12959925001}},{"type":"Feature","geometry":{"type":"Point","coordinates":[-64.9541,-23.62049]},"properties":{"name":"Loma Andina, retal house , panoramic view","country":"Argentina","website":null,"opening_hours":null,"capacity":null,"phone":"+5493886446120","address":"1 benigno cuellar, 4655 san francisco","ele":null,"operator":null,"wikipedia":null,"wikidata":null,"description":null,"wheelchair":null,"osmType":"node","osmId":13252999991}},{"type":"Feature","geometry":{"type":"Point","coordinates":[-64.95496,-23.62299]},"properties":{"name":"Hospedaje Luna Colorada","country":"Argentina","website":"https://www.lunacolorada.com.ar","opening_hours":null,"capacity":null,"phone":"+54 9 3886 51-9440","address":null,"ele":null,"operator":null,"wikipedia":null,"wikidata":null,"description":null,"wheelchair":null,"osmType":"node","osmId":13285887101}},{"type":"Feature","geometry":{"type":"Point","coordinates":[-66.25577,-28.8245]},"properties":{"name":"Puesto de Aredes","country":"Argentina","website":null,"opening_hours":null,"capacity":null,"phone":null,"address":null,"ele":null,"operator":"Privado","wikipedia":null,"wikidata":null,"description":null,"wheelchair":null,"osmType":"node","osmId":13639576325}},{"type":"Feature","geometry":{"type":"Point","coordinates":[-68.92105,-28.22469]},"properties":{"name":"Refugio Veladero","country":"Argentina","website":null,"opening_hours":null,"capacity":null,"phone":null,"address":null,"ele":null,"operator":null,"wikipedia":null,"wikidata":null,"description":null,"wheelchair":null,"osmType":"way","osmId":1184116243}},{"type":"Feature","geometry":{"type":"Point","coordinates":[-65.15926,-23.56407]},"properties":{"name":"Refugio Lo de Lili","country":"Argentina","website":null,"opening_hours":null,"capacity":null,"phone":null,"address":null,"ele":null,"operator":null,"wikipedia":null,"wikidata":null,"description":null,"wheelchair":null,"osmType":"way","osmId":1270646217}},{"type":"Feature","geometry":{"type":"Point","coordinates":[-65.24321,-23.56628]},"properties":{"name":"Refugio El Cokena","country":"Argentina","website":null,"opening_hours":null,"capacity":null,"phone":null,"address":null,"ele":null,"operator":null,"wikipedia":null,"wikidata":null,"description":null,"wheelchair":null,"osmType":"way","osmId":1270647104}},{"type":"Feature","geometry":{"type":"Point","coordinates":[-58.56281,-27.32198]},"properties":{"name":"Cabañas BigFriends","country":"Argentina","website":null,"opening_hours":null,"capacity":null,"phone":null,"address":null,"ele":null,"operator":null,"wikipedia":null,"wikidata":null,"description":null,"wheelchair":null,"osmType":"node","osmId":4421429289}},{"type":"Feature","geometry":{"type":"Point","coordinates":[-57.98802,-27.31945]},"properties":{"name":"Estancia La Luisa","country":"Argentina","website":null,"opening_hours":null,"capacity":null,"phone":null,"address":null,"ele":null,"operator":null,"wikipedia":null,"wikidata":null,"description":null,"wheelchair":null,"osmType":"node","osmId":4841546622}},{"type":"Feature","geometry":{"type":"Point","coordinates":[-58.47689,-27.37013]},"properties":{"name":"Don Marcos","country":"Argentina","website":null,"opening_hours":null,"capacity":null,"phone":null,"address":null,"ele":null,"operator":null,"wikipedia":null,"wikidata":null,"description":null,"wheelchair":null,"osmType":"node","osmId":4841584921}},{"type":"Feature","geometry":{"type":"Point","coordinates":[-56.71071,-27.59376]},"properties":{"name":"Vallejos","country":"Argentina","website":null,"opening_hours":null,"capacity":null,"phone":null,"address":null,"ele":null,"operator":null,"wikipedia":null,"wikidata":null,"description":null,"wheelchair":null,"osmType":"node","osmId":5018537324}},{"type":"Feature","geometry":{"type":"Point","coordinates":[-59.22376,-29.21433]},"properties":{"name":"Casa en Country","country":"Argentina","website":null,"opening_hours":null,"capacity":null,"phone":null,"address":"Av. Los Ceibos, 3450","ele":null,"operator":null,"wikipedia":null,"wikidata":null,"description":null,"wheelchair":null,"osmType":"node","osmId":5614137821}},{"type":"Feature","geometry":{"type":"Point","coordinates":[-56.69036,-27.58615]},"properties":{"name":null,"country":"Argentina","website":null,"opening_hours":null,"capacity":null,"phone":null,"address":"Francisco López","ele":null,"operator":null,"wikipedia":null,"wikidata":null,"description":null,"wheelchair":null,"osmType":"node","osmId":5817685253}},{"type":"Feature","geometry":{"type":"Point","coordinates":[-58.72869,-27.48154]},"properties":{"name":null,"country":"Argentina","website":null,"opening_hours":null,"capacity":null,"phone":null,"address":null,"ele":null,"operator":null,"wikipedia":null,"wikidata":null,"description":null,"wheelchair":null,"osmType":"node","osmId":10734007607}},{"type":"Feature","geometry":{"type":"Point","coordinates":[-58.81633,-27.95817]},"properties":{"name":"Cabañas Irupe","country":"Argentina","website":null,"opening_hours":null,"capacity":null,"phone":"+54 379 456 3888","address":null,"ele":null,"operator":null,"wikipedia":null,"wikidata":null,"description":null,"wheelchair":null,"osmType":"node","osmId":13536954790}},{"type":"Feature","geometry":{"type":"Point","coordinates":[-69.43459,-33.31127]},"properties":{"name":"Refugio Militar Coronel Plaza","country":"Argentina","website":null,"opening_hours":null,"capacity":null,"phone":null,"address":null,"ele":null,"operator":"Ejército Argentino","wikipedia":null,"wikidata":null,"description":null,"wheelchair":null,"osmType":"way","osmId":468446931}}]}