{"type":"FeatureCollection","features":[{"type":"Feature","geometry":{"type":"Point","coordinates":[15.58813,47.79451]},"properties":{"name":"Gippelhütte","country":"Austria","website":"https://www.staegyd.at/Gippelhuette_1500_m_Seehoehe","opening_hours":null,"capacity":null,"phone":"+43 664 2120061","address":null,"ele":"1499","operator":"Hasler Anita","wikipedia":null,"wikidata":null,"description":null,"wheelchair":null,"osmType":"node","osmId":33519409,"elevation":"1499"}},{"type":"Feature","geometry":{"type":"Point","coordinates":[12.01887,47.53323]},"properties":{"name":"Almgasthof Buchacker","country":"Austria","website":"http://www.buchackeralm.at","opening_hours":"Apr-Oct 07:15+; Mo off; Apr,May,Oct \"wetterabhängig\"","capacity":null,"phone":"+4369912358598","address":null,"ele":null,"operator":null,"wikipedia":null,"wikidata":null,"description":null,"wheelchair":null,"osmType":"node","osmId":95823780}},{"type":"Feature","geometry":{"type":"Point","coordinates":[12.80923,46.86557]},"properties":{"name":"Naturfreundehütte Vinzenz Biedner","country":"Austria","website":"https://vinzenz-biednerhuette.naturfreunde.at/","opening_hours":"Jun-Oct; Dec-Easter","capacity":"19","phone":null,"address":null,"ele":"1809","operator":null,"wikipedia":null,"wikidata":null,"description":null,"wheelchair":null,"osmType":"node","osmId":206371649,"elevation":"1809"}},{"type":"Feature","geometry":{"type":"Point","coordinates":[10.76309,46.87]},"properties":{"name":"Rauhekopfhütte","country":"Austria","website":"https://www.rauhekopfhuette.at/","opening_hours":null,"capacity":null,"phone":"+43 664 206 7006","address":"253, 6524 Kaunertal, AT","ele":"2731","operator":"Alpenverein Frankfurt am Main","wikipedia":"de:Rauhekopfhütte","wikidata":"Q2133181","description":null,"wheelchair":null,"osmType":"node","osmId":250068427,"elevation":"2731"}},{"type":"Feature","geometry":{"type":"Point","coordinates":[13.07164,47.60952]},"properties":{"name":"Purtschellerhaus","country":"Austria","website":"https://www.purtschellerhaus.de/","opening_hours":null,"capacity":null,"phone":"+4986522420","address":"1 Purtschellerstraße, 83471 Berchtesgaden, DE","ele":"1692","operator":"DAV Sektion Sonneberg","wikipedia":null,"wikidata":"Q1790593","description":null,"wheelchair":null,"osmType":"node","osmId":254546886,"elevation":"1692"}},{"type":"Feature","geometry":{"type":"Point","coordinates":[13.40397,46.723]},"properties":{"name":"Techendorfer Alm","country":"Austria","website":null,"opening_hours":null,"capacity":null,"phone":null,"address":null,"ele":"1573","operator":null,"wikipedia":null,"wikidata":null,"description":null,"wheelchair":null,"osmType":"node","osmId":260133307,"elevation":"1573"}},{"type":"Feature","geometry":{"type":"Point","coordinates":[13.99159,47.83662]},"properties":{"name":"Hochberghaus","country":"Austria","website":"https://www.hochberghaus.at/","opening_hours":null,"capacity":null,"phone":null,"address":null,"ele":null,"operator":null,"wikipedia":null,"wikidata":"Q68027673","description":null,"wheelchair":null,"osmType":"node","osmId":276593145}},{"type":"Feature","geometry":{"type":"Point","coordinates":[12.87138,47.05175]},"properties":{"name":"Doris Fleißkuchl","country":"Austria","website":null,"opening_hours":null,"capacity":null,"phone":"+43 664 5078069","address":null,"ele":null,"operator":null,"wikipedia":null,"wikidata":null,"description":null,"wheelchair":null,"osmType":"node","osmId":278013256}},{"type":"Feature","geometry":{"type":"Point","coordinates":[11.46691,47.22185]},"properties":{"name":"Sistranser Alm","country":"Austria","website":"https://www.sistranseralm.at/","opening_hours":"Mo,Su,PH 09:00-18:00; We-Sa 09:00-21:00","capacity":null,"phone":"+43 699 100 18 948","address":"1 Almweg, 6073 Sistrans","ele":"1609","operator":null,"wikipedia":null,"wikidata":null,"description":null,"wheelchair":null,"osmType":"node","osmId":279584189,"elevation":"1609"}},{"type":"Feature","geometry":{"type":"Point","coordinates":[11.26724,47.33105]},"properties":{"name":"Eppzirler Alm","country":"Austria","website":"https://www.eppzirleralm.at/","opening_hours":null,"capacity":null,"phone":"+436649379033","address":null,"ele":"1455","operator":null,"wikipedia":"de:Eppzirler Alm","wikidata":"Q1347674","description":null,"wheelchair":null,"osmType":"node","osmId":280889033,"elevation":"1455"}},{"type":"Feature","geometry":{"type":"Point","coordinates":[15.54021,48.05973]},"properties":{"name":"Kaiserkogelhütte","country":"Austria","website":null,"opening_hours":null,"capacity":null,"phone":null,"address":"1 Kaiserkogel","ele":"716","operator":"Österreichischer Touristenklub","wikipedia":null,"wikidata":"Q1288601","description":null,"wheelchair":null,"osmType":"node","osmId":281022622,"elevation":"716"}},{"type":"Feature","geometry":{"type":"Point","coordinates":[11.35727,47.12539]},"properties":{"name":"Wildeben","country":"Austria","website":"https://www.wildeben.info/","opening_hours":null,"capacity":null,"phone":null,"address":null,"ele":"1780","operator":null,"wikipedia":null,"wikidata":null,"description":null,"wheelchair":null,"osmType":"node","osmId":281811874,"elevation":"1780"}},{"type":"Feature","geometry":{"type":"Point","coordinates":[10.69489,47.15706]},"properties":{"name":"Larcher Alm","country":"Austria","website":null,"opening_hours":null,"capacity":null,"phone":null,"address":null,"ele":"1814","operator":null,"wikipedia":null,"wikidata":null,"description":null,"wheelchair":null,"osmType":"node","osmId":292735628,"elevation":"1814"}},{"type":"Feature","geometry":{"type":"Point","coordinates":[10.68427,47.14912]},"properties":{"name":"Galflun Alm","country":"Austria","website":null,"opening_hours":null,"capacity":null,"phone":null,"address":null,"ele":"1960","operator":null,"wikipedia":null,"wikidata":null,"description":null,"wheelchair":null,"osmType":"node","osmId":292735632,"elevation":"1960"}},{"type":"Feature","geometry":{"type":"Point","coordinates":[11.8208,47.44512]},"properties":{"name":"Bayreuther Hütte","country":"Austria","website":"https://bayreuther-huette.de/","opening_hours":null,"capacity":null,"phone":"+43 664 3425103","address":"157, 6232 Münster","ele":"1560","operator":null,"wikipedia":"de:Bayreuther Hütte","wikidata":"Q812600","description":"Wenn die Sonne sich auf ihren Weg macht, das Inntal hinaus dem westlichen Horizont entgegen, wenn die Eisgipfel über der breiten Furche des Zillertals sich rötlich färben und hinter den ergrauten Kalkzacken des Kaisergebirges tiefblau die Nacht heraufstei","wheelchair":"no","osmType":"node","osmId":292919704,"elevation":"1560"}},{"type":"Feature","geometry":{"type":"Point","coordinates":[11.30889,47.43738]},"properties":{"name":"Dammkarhütte","country":"Austria","website":"https://www.dammkarhuette.de/","opening_hours":null,"capacity":null,"phone":"+4988233826","address":"14 Klausnerweg, 82481 Mittenwald, DE","ele":"1650","operator":null,"wikipedia":null,"wikidata":"Q98540937","description":null,"wheelchair":"no","osmType":"node","osmId":293246279,"elevation":"1650"}},{"type":"Feature","geometry":{"type":"Point","coordinates":[11.2101,47.1152]},"properties":{"name":"Seducker Hochalm","country":"Austria","website":null,"opening_hours":null,"capacity":null,"phone":null,"address":null,"ele":"2250","operator":null,"wikipedia":null,"wikidata":null,"description":null,"wheelchair":null,"osmType":"node","osmId":294758495,"elevation":"2250"}},{"type":"Feature","geometry":{"type":"Point","coordinates":[11.55957,47.15122]},"properties":{"name":"Peeralm","country":"Austria","website":null,"opening_hours":null,"capacity":null,"phone":null,"address":"174 Klammerweg, 6145 Navis, AT","ele":"1663","operator":null,"wikipedia":null,"wikidata":null,"description":null,"wheelchair":null,"osmType":"node","osmId":296010554,"elevation":"1663"}},{"type":"Feature","geometry":{"type":"Point","coordinates":[11.27856,47.4137]},"properties":{"name":"Brunnsteinhütte","country":"Austria","website":"http://www.brunnsteinhuette.de/","opening_hours":null,"capacity":null,"phone":null,"address":"82481 Mittenwald, DE","ele":"1560","operator":"DAV Sektion Mittenwald","wikipedia":"de:Brunnsteinhütte","wikidata":"Q992924","description":null,"wheelchair":null,"osmType":"node","osmId":296163774,"elevation":"1560"}},{"type":"Feature","geometry":{"type":"Point","coordinates":[12.83913,46.88189]},"properties":{"name":"Roaner Alm","country":"Austria","website":null,"opening_hours":null,"capacity":null,"phone":null,"address":null,"ele":"1900","operator":null,"wikipedia":null,"wikidata":null,"description":null,"wheelchair":null,"osmType":"node","osmId":297298270,"elevation":"1900"}},{"type":"Feature","geometry":{"type":"Point","coordinates":[12.69853,47.22053]},"properties":{"name":"Häuslalm","country":"Austria","website":null,"opening_hours":null,"capacity":null,"phone":null,"address":null,"ele":null,"operator":null,"wikipedia":null,"wikidata":null,"description":null,"wheelchair":null,"osmType":"node","osmId":298231625}},{"type":"Feature","geometry":{"type":"Point","coordinates":[12.70215,47.25287]},"properties":{"name":"Unterbergalm","country":"Austria","website":null,"opening_hours":null,"capacity":null,"phone":null,"address":null,"ele":null,"operator":null,"wikipedia":null,"wikidata":null,"description":null,"wheelchair":null,"osmType":"node","osmId":298232764}},{"type":"Feature","geometry":{"type":"Point","coordinates":[12.74655,46.93481]},"properties":{"name":"Lienzer Hütte","country":"Austria","website":null,"opening_hours":null,"capacity":"87","phone":null,"address":null,"ele":"1980","operator":null,"wikipedia":"de:Lienzer Hütte","wikidata":"Q1746967","description":null,"wheelchair":null,"osmType":"node","osmId":301000243,"elevation":"1980"}},{"type":"Feature","geometry":{"type":"Point","coordinates":[12.76042,46.97789]},"properties":{"name":"Elberfelder Hütte","country":"Austria","website":"https://elberfelderhuette.com","opening_hours":null,"capacity":"59","phone":"+43 4824 2545","address":null,"ele":"2346","operator":null,"wikipedia":"de:Elberfelder Hütte","wikidata":"Q1325231","description":null,"wheelchair":null,"osmType":"node","osmId":301262877,"elevation":"2346"}},{"type":"Feature","geometry":{"type":"Point","coordinates":[12.42407,47.64044]},"properties":{"name":"Scheibenwaldhütte","country":"Austria","website":"https://www.scheibenwald.com/","opening_hours":null,"capacity":null,"phone":"+43 5375 6053","address":"6345 Kössen, AT","ele":"1140","operator":null,"wikipedia":null,"wikidata":null,"description":null,"wheelchair":null,"osmType":"node","osmId":305860388,"elevation":"1140"}},{"type":"Feature","geometry":{"type":"Point","coordinates":[10.84493,47.34173]},"properties":{"name":"Nassereither Alm (Muthenaualm)","country":"Austria","website":"https://www.nassereither-alm.at/","opening_hours":null,"capacity":null,"phone":null,"address":null,"ele":"1734","operator":null,"wikipedia":null,"wikidata":null,"description":null,"wheelchair":null,"osmType":"node","osmId":309897705,"elevation":"1734"}},{"type":"Feature","geometry":{"type":"Point","coordinates":[13.96896,47.17067]},"properties":{"name":"Holzerhütte","country":"Austria","website":null,"opening_hours":null,"capacity":null,"phone":null,"address":null,"ele":null,"operator":null,"wikipedia":null,"wikidata":null,"description":null,"wheelchair":null,"osmType":"node","osmId":325196560}},{"type":"Feature","geometry":{"type":"Point","coordinates":[13.4147,47.40183]},"properties":{"name":"Reitlehenalm","country":"Austria","website":null,"opening_hours":null,"capacity":null,"phone":null,"address":null,"ele":null,"operator":null,"wikipedia":null,"wikidata":null,"description":null,"wheelchair":null,"osmType":"node","osmId":330068507}},{"type":"Feature","geometry":{"type":"Point","coordinates":[13.41261,47.40811]},"properties":{"name":"Unterbuchstein","country":"Austria","website":null,"opening_hours":null,"capacity":null,"phone":null,"address":null,"ele":null,"operator":null,"wikipedia":null,"wikidata":null,"description":null,"wheelchair":null,"osmType":"node","osmId":330073536}},{"type":"Feature","geometry":{"type":"Point","coordinates":[12.61992,47.41655]},"properties":{"name":"Spielberghaus","country":"Austria","website":null,"opening_hours":null,"capacity":null,"phone":null,"address":null,"ele":"1320","operator":null,"wikipedia":null,"wikidata":null,"description":null,"wheelchair":null,"osmType":"node","osmId":338818543,"elevation":"1320"}},{"type":"Feature","geometry":{"type":"Point","coordinates":[11.28237,47.43383]},"properties":{"name":"Mittenwalder Hütte","country":"Austria","website":"https://www.mittenwalderhuette.de","opening_hours":null,"capacity":null,"phone":null,"address":"82481 Mittenwald, DE","ele":"1518","operator":"DAV Sektion Mittenwald","wikipedia":null,"wikidata":"Q1552478","description":null,"wheelchair":null,"osmType":"node","osmId":340560279,"elevation":"1518"}},{"type":"Feature","geometry":{"type":"Point","coordinates":[11.04449,47.44839]},"properties":{"name":"Höllentaleingangshütte","country":"Austria","website":"http://www.hoellentalklamm.de/","opening_hours":null,"capacity":null,"phone":"+4988218895","address":null,"ele":"1045","operator":"DAV Sektion Garmisch-Partenkirchen","wikipedia":null,"wikidata":null,"description":null,"wheelchair":null,"osmType":"node","osmId":357482706,"elevation":"1045"}},{"type":"Feature","geometry":{"type":"Point","coordinates":[10.52436,46.91803]},"properties":{"name":"Labaunalm","country":"Austria","website":null,"opening_hours":"\"Nur im Sommer\"","capacity":null,"phone":null,"address":null,"ele":"1980","operator":null,"wikipedia":null,"wikidata":null,"description":"Geöffnet während der Alpzeit","wheelchair":null,"osmType":"node","osmId":389526819,"elevation":"1980"}},{"type":"Feature","geometry":{"type":"Point","coordinates":[12.78101,46.954]},"properties":{"name":"Adolf-Nossberger-Hütte","country":"Austria","website":null,"opening_hours":null,"capacity":"50","phone":null,"address":null,"ele":"2488","operator":"Sektion Wiener Lehrer","wikipedia":"de:Adolf-Noßberger-Hütte","wikidata":"Q360614","description":null,"wheelchair":null,"osmType":"node","osmId":389785661,"elevation":"2488"}},{"type":"Feature","geometry":{"type":"Point","coordinates":[14.13716,47.06615]},"properties":{"name":"Bernhard-Fest-Hütte","country":"Austria","website":null,"opening_hours":null,"capacity":null,"phone":null,"address":null,"ele":"1980","operator":"OeAV Sektion Murau","wikipedia":"de:Bernhard-Fest-Hütte","wikidata":"Q91600649","description":null,"wheelchair":null,"osmType":"node","osmId":389785715,"elevation":"1980"}},{"type":"Feature","geometry":{"type":"Point","coordinates":[13.46633,46.89011]},"properties":{"name":"Bergfriedhütte","country":"Austria","website":null,"opening_hours":null,"capacity":null,"phone":null,"address":null,"ele":"1800","operator":"Sektion Spittal an der Drau","wikipedia":null,"wikidata":"Q125258971","description":null,"wheelchair":null,"osmType":"node","osmId":389785723,"elevation":"1800"}},{"type":"Feature","geometry":{"type":"Point","coordinates":[12.42752,47.03899]},"properties":{"name":"Bonn-Matreier-Hütte","country":"Austria","website":null,"opening_hours":null,"capacity":null,"phone":null,"address":null,"ele":"2750","operator":"Sektion Matrei in Osttirol","wikipedia":"de:Bonn-Matreier Hütte","wikidata":"Q892673","description":null,"wheelchair":null,"osmType":"node","osmId":389785744,"elevation":"2750"}},{"type":"Feature","geometry":{"type":"Point","coordinates":[13.0276,46.949]},"properties":{"name":"Dr. Widder-Jugendherberge","country":"Austria","website":null,"opening_hours":null,"capacity":null,"phone":null,"address":null,"ele":"1770","operator":"Alpenverein Klagenfurt","wikipedia":null,"wikidata":null,"description":null,"wheelchair":null,"osmType":"node","osmId":389785776,"elevation":"1770"}},{"type":"Feature","geometry":{"type":"Point","coordinates":[13.15728,46.69642]},"properties":{"name":"E.T.-Compton-Hütte","country":"Austria","website":null,"opening_hours":null,"capacity":null,"phone":null,"address":null,"ele":"1585","operator":"OeAV Sektion Austria","wikipedia":"de:E.T.-Compton-Hütte","wikidata":"Q1273432","description":null,"wheelchair":null,"osmType":"node","osmId":389785790,"elevation":"1585"}},{"type":"Feature","geometry":{"type":"Point","coordinates":[14.43281,47.43914]},"properties":{"name":"Edelrautehütte","country":"Austria","website":"https://www.edelrautehütte.at/","opening_hours":null,"capacity":null,"phone":"+43 3618 21014","address":"5 Edelrautestraße, 8785 Hohentauern","ele":"1725","operator":"Sektion Austria","wikipedia":"de:Edelrautehütte","wikidata":"Q1283346","description":null,"wheelchair":null,"osmType":"node","osmId":389785804,"elevation":"1725"}},{"type":"Feature","geometry":{"type":"Point","coordinates":[13.02778,46.95093]},"properties":{"name":"Fraganter Schutzhaus","country":"Austria","website":null,"opening_hours":null,"capacity":null,"phone":null,"address":null,"ele":"1810","operator":"Alpenverein Klagenfurt","wikipedia":"de:Fraganter Schutzhaus","wikidata":"Q1440405","description":null,"wheelchair":null,"osmType":"node","osmId":389785876,"elevation":"1810"}},{"type":"Feature","geometry":{"type":"Point","coordinates":[13.88693,46.69611]},"properties":{"name":"Gerlitzenhütte","country":"Austria","website":null,"opening_hours":null,"capacity":null,"phone":null,"address":null,"ele":"1580","operator":"Sektion Villach","wikipedia":null,"wikidata":"Q102226624","description":null,"wheelchair":null,"osmType":"node","osmId":389785880,"elevation":"1580"}},{"type":"Feature","geometry":{"type":"Point","coordinates":[15.79822,47.58202]},"properties":{"name":"Karl-Lechner-Haus","country":"Austria","website":"https://www.alpenverein.at/karllechnerhaus/","opening_hours":null,"capacity":null,"phone":null,"address":null,"ele":"1450","operator":"Sektion Stuhlecker","wikipedia":null,"wikidata":null,"description":null,"wheelchair":null,"osmType":"node","osmId":389786044,"elevation":"1450"}},{"type":"Feature","geometry":{"type":"Point","coordinates":[12.87534,47.46367]},"properties":{"name":"Peter-Wiechenthaler-Hütte","country":"Austria","website":"https://wiechenthaler-huette.at","opening_hours":null,"capacity":null,"phone":"+43 6582 73489","address":"5760 Saalfelden, AT","ele":"1752","operator":"ÖAV Sektion Saalfelden","wikipedia":"de:Peter-Wiechenthaler-Hütte","wikidata":"Q2073501","description":null,"wheelchair":null,"osmType":"node","osmId":389786192,"elevation":"1752"}},{"type":"Feature","geometry":{"type":"Point","coordinates":[13.18267,46.90922]},"properties":{"name":"Polinikhütte","country":"Austria","website":null,"opening_hours":null,"capacity":null,"phone":null,"address":null,"ele":"1873","operator":"Sektion Mölltal","wikipedia":"de:Polinikhütte","wikidata":"Q69083720","description":null,"wheelchair":null,"osmType":"node","osmId":389786196,"elevation":"1873"}},{"type":"Feature","geometry":{"type":"Point","coordinates":[12.49565,47.15756]},"properties":{"name":"St. Pöltner Hütte","country":"Austria","website":"https://www.alpenverein.at/bonnmatreierhuette/","opening_hours":null,"capacity":null,"phone":"+43 6562 6265","address":null,"ele":"2481","operator":"ÖAV Sektion Sankt Pölten","wikipedia":"de:St. Pöltner Hütte","wikidata":"Q2322946","description":null,"wheelchair":null,"osmType":"node","osmId":389786350,"elevation":"2481"}},{"type":"Feature","geometry":{"type":"Point","coordinates":[15.65585,47.2703]},"properties":{"name":"Wittgruberhof, Jugendh.","country":"Austria","website":null,"opening_hours":null,"capacity":null,"phone":null,"address":null,"ele":"904","operator":"Sektion Weiz","wikipedia":null,"wikidata":null,"description":null,"wheelchair":null,"osmType":"node","osmId":389786502,"elevation":"904"}},{"type":"Feature","geometry":{"type":"Point","coordinates":[12.53922,47.4318]},"properties":{"name":"Wildseeloderhaus","country":"Austria","website":"https://www.wildseeloderhaus.at/index.php","opening_hours":null,"capacity":null,"phone":"+43 664 3400717","address":null,"ele":"1854","operator":"Sektion Fieberbrunn","wikipedia":"de:Wildseeloderhaus","wikidata":"Q2570898","description":null,"wheelchair":null,"osmType":"node","osmId":389786524,"elevation":"1854"}},{"type":"Feature","geometry":{"type":"Point","coordinates":[13.5674,47.24578]},"properties":{"name":"Wismeyerhaus","country":"Austria","website":null,"opening_hours":null,"capacity":null,"phone":null,"address":null,"ele":"1670","operator":"Alpenverein Edelweiß","wikipedia":null,"wikidata":null,"description":null,"wheelchair":null,"osmType":"node","osmId":389786536,"elevation":"1670"}},{"type":"Feature","geometry":{"type":"Point","coordinates":[12.84387,46.87762]},"properties":{"name":"Winklerner Hütte","country":"Austria","website":null,"opening_hours":null,"capacity":null,"phone":null,"address":null,"ele":"1905","operator":"Sektion Winklern","wikipedia":"de:Winklerner Hütte","wikidata":"Q2584644","description":null,"wheelchair":null,"osmType":"node","osmId":389786541,"elevation":"1905"}},{"type":"Feature","geometry":{"type":"Point","coordinates":[13.21063,46.69067]},"properties":{"name":"Weissbriacher Hütte","country":"Austria","website":null,"opening_hours":null,"capacity":null,"phone":null,"address":null,"ele":"1567","operator":"OeAV Sektion Hermagor","wikipedia":"de:Weißbriacher Hütte","wikidata":"Q77319658","description":"Fernwanderweg Südalpen-Umrundung ab April 2019, 720 km, 45.500 Hm, 270 Std. Gehzeit – Alpine Vereine: Kärnten, Slovenija und Friuli-Venezia Giulia – siehe im Internet:\nJulius-Kugy-Dreiländerweg in 30 Tagen – Berge der Freundschaft - Etappe 27\n","wheelchair":null,"osmType":"node","osmId":389786547,"elevation":"1567"}},{"type":"Feature","geometry":{"type":"Point","coordinates":[14.37867,47.2651]},"properties":{"name":"Klosterneuburgerhütte","country":"Austria","website":null,"opening_hours":null,"capacity":null,"phone":"+43 664 1008364","address":"54 Zeiringgraben, 8762 Oberzeiring","ele":"1902","operator":"Stefan Oberklammer","wikipedia":"de:Klosterneuburger Hütte","wikidata":"Q1776467","description":null,"wheelchair":null,"osmType":"node","osmId":394568194,"elevation":"1902"}},{"type":"Feature","geometry":{"type":"Point","coordinates":[12.43954,47.01933]},"properties":{"name":"Gotschaunalm","country":"Austria","website":null,"opening_hours":null,"capacity":null,"phone":null,"address":null,"ele":"1945","operator":null,"wikipedia":null,"wikidata":null,"description":null,"wheelchair":null,"osmType":"node","osmId":409768525,"elevation":"1945"}},{"type":"Feature","geometry":{"type":"Point","coordinates":[11.22131,47.16405]},"properties":{"name":"Furgges Alm","country":"Austria","website":null,"opening_hours":"\"Mitte Juni bis Mitte September\"","capacity":null,"phone":"+43 664 4703023","address":null,"ele":"1938","operator":null,"wikipedia":null,"wikidata":null,"description":null,"wheelchair":null,"osmType":"node","osmId":410315437,"elevation":"1938"}},{"type":"Feature","geometry":{"type":"Point","coordinates":[11.20233,47.16843]},"properties":{"name":"Almind-Alm","country":"Austria","website":null,"opening_hours":null,"capacity":null,"phone":null,"address":null,"ele":"1755","operator":null,"wikipedia":null,"wikidata":null,"description":null,"wheelchair":null,"osmType":"node","osmId":410575233,"elevation":"1755"}},{"type":"Feature","geometry":{"type":"Point","coordinates":[11.29857,47.19865]},"properties":{"name":"Schafalm","country":"Austria","website":null,"opening_hours":null,"capacity":null,"phone":null,"address":null,"ele":"1580","operator":null,"wikipedia":"de:Schafalm (Axamer Lizum)","wikidata":"Q20190652","description":null,"wheelchair":null,"osmType":"node","osmId":413596354,"elevation":"1580"}},{"type":"Feature","geometry":{"type":"Point","coordinates":[13.69149,47.29962]},"properties":{"name":"Fahrlechhütte","country":"Austria","website":"https://www.fahrlechhuette.at/","opening_hours":null,"capacity":null,"phone":null,"address":null,"ele":"1648","operator":null,"wikipedia":null,"wikidata":null,"description":null,"wheelchair":null,"osmType":"node","osmId":416556393,"elevation":"1648"}},{"type":"Feature","geometry":{"type":"Point","coordinates":[13.63812,47.27955]},"properties":{"name":"Giglachsee Hütte","country":"Austria","website":"https://www.giglachsee-huette.at/","opening_hours":null,"capacity":null,"phone":null,"address":null,"ele":"1955","operator":null,"wikipedia":null,"wikidata":null,"description":null,"wheelchair":null,"osmType":"node","osmId":417326835,"elevation":"1955"}},{"type":"Feature","geometry":{"type":"Point","coordinates":[13.64859,47.28484]},"properties":{"name":"Ignaz-Mattis-Hütte","country":"Austria","website":"https://www.alpenverein.at/ignazmattishuette/","opening_hours":null,"capacity":null,"phone":null,"address":null,"ele":"1986","operator":"OeAV Wien","wikipedia":"de:Ignaz-Mattis-Hütte","wikidata":"Q1657399","description":null,"wheelchair":null,"osmType":"node","osmId":417326836,"elevation":"1986"}},{"type":"Feature","geometry":{"type":"Point","coordinates":[11.19045,47.24069]},"properties":{"name":"Roßkogelhütte","country":"Austria","website":"https://www.rosskogelhuette.tirol/","opening_hours":"Mo-Su 09:00-16:30","capacity":null,"phone":"+43 5232 81419","address":"1, 6173 Oberperfuß","ele":"1778","operator":null,"wikipedia":null,"wikidata":null,"description":null,"wheelchair":"no","osmType":"node","osmId":417668849,"elevation":"1778"}},{"type":"Feature","geometry":{"type":"Point","coordinates":[13.61039,48.07807]},"properties":{"name":"Pettenfirsthütte","country":"Austria","website":"https://pettenfirsthuette.naturfreunde.at","opening_hours":null,"capacity":null,"phone":"+43 676 7601661","address":null,"ele":"710","operator":"Naturfreunde","wikipedia":null,"wikidata":null,"description":null,"wheelchair":null,"osmType":"node","osmId":426944246,"elevation":"710"}},{"type":"Feature","geometry":{"type":"Point","coordinates":[12.38322,47.17275]},"properties":{"name":"Neue Thüringer Hütte","country":"Austria","website":"https://nth-huette.de/","opening_hours":null,"capacity":null,"phone":"+43 664 4273214","address":null,"ele":"2212","operator":"Neue Thüringer Hütte Verein (Alpenvereinshütte)","wikipedia":"de:Neue Thüringer Hütte","wikidata":"Q2430794","description":null,"wheelchair":null,"osmType":"node","osmId":430122613,"elevation":"2212"}},{"type":"Feature","geometry":{"type":"Point","coordinates":[11.06883,47.22008]},"properties":{"name":"Zirmbach Alm","country":"Austria","website":null,"opening_hours":null,"capacity":null,"phone":null,"address":null,"ele":"1800","operator":null,"wikipedia":null,"wikidata":null,"description":null,"wheelchair":null,"osmType":"node","osmId":437814698,"elevation":"1800"}},{"type":"Feature","geometry":{"type":"Point","coordinates":[12.74482,47.32205]},"properties":{"name":"Breiteckalm","country":"Austria","website":null,"opening_hours":null,"capacity":null,"phone":null,"address":null,"ele":null,"operator":null,"wikipedia":null,"wikidata":null,"description":null,"wheelchair":null,"osmType":"node","osmId":440712913}},{"type":"Feature","geometry":{"type":"Point","coordinates":[9.98708,47.29549]},"properties":{"name":"Bergkristallhütte","country":"Austria","website":"https://www.bergkristallhuette.com/","opening_hours":null,"capacity":null,"phone":"+43 664 1808482","address":null,"ele":"1250","operator":"Andrea Schaller","wikipedia":null,"wikidata":null,"description":null,"wheelchair":null,"osmType":"node","osmId":455564096,"elevation":"1250"}},{"type":"Feature","geometry":{"type":"Point","coordinates":[12.33471,47.00804]},"properties":{"name":"Stockachalm","country":"Austria","website":null,"opening_hours":null,"capacity":null,"phone":null,"address":null,"ele":"1726","operator":null,"wikipedia":null,"wikidata":null,"description":null,"wheelchair":null,"osmType":"node","osmId":456199276,"elevation":"1726"}},{"type":"Feature","geometry":{"type":"Point","coordinates":[12.53913,47.5199]},"properties":{"name":"Winterstelleralm","country":"Austria","website":null,"opening_hours":null,"capacity":null,"phone":null,"address":null,"ele":"1423","operator":null,"wikipedia":null,"wikidata":null,"description":null,"wheelchair":null,"osmType":"node","osmId":456332347,"elevation":"1423"}},{"type":"Feature","geometry":{"type":"Point","coordinates":[11.26794,47.16671]},"properties":{"name":"Adolf-Pichler-Hütte","country":"Austria","website":null,"opening_hours":null,"capacity":null,"phone":"+43 720 702724","address":null,"ele":"1977","operator":null,"wikipedia":"de:Adolf-Pichler-Hütte","wikidata":"Q360611","description":null,"wheelchair":null,"osmType":"node","osmId":458799908,"elevation":"1977"}},{"type":"Feature","geometry":{"type":"Point","coordinates":[13.81325,47.3131]},"properties":{"name":"Preintalerhütte","country":"Austria","website":"http://www.preintaler.at/agp/index.php/unsere-huetten/preintalerhuette","opening_hours":"Jun-Sep","capacity":"144","phone":null,"address":"67 Untertalstraße, 8971 Schladming","ele":"1657","operator":"Alpine Gesellschaft Preintaler","wikipedia":"de:Preintalerhütte","wikidata":"Q1410481","description":null,"wheelchair":"no","osmType":"node","osmId":460355329,"elevation":"1657"}},{"type":"Feature","geometry":{"type":"Point","coordinates":[13.76939,47.28647]},"properties":{"name":"Gollinghütte","country":"Austria","website":"http://www.preintaler.at/agp/index.php/unsere-huetten/gollinghuette","opening_hours":null,"capacity":null,"phone":null,"address":null,"ele":"1642","operator":"Alpine Gesellschaft Preintaler","wikipedia":"de:Gollinghütte","wikidata":"Q1501251","description":null,"wheelchair":null,"osmType":"node","osmId":460361180,"elevation":"1642"}},{"type":"Feature","geometry":{"type":"Point","coordinates":[13.32848,46.72947]},"properties":{"name":"Alm Hinterm Brunn","country":"Austria","website":null,"opening_hours":null,"capacity":null,"phone":null,"address":null,"ele":"1275","operator":null,"wikipedia":null,"wikidata":null,"description":null,"wheelchair":null,"osmType":"node","osmId":467922266,"elevation":"1275"}},{"type":"Feature","geometry":{"type":"Point","coordinates":[10.47105,47.26569]},"properties":{"name":"Grießbachalm","country":"Austria","website":"https://www.griessbachalm-lechtal.at/","opening_hours":"10:00-17:00, Fr off","capacity":null,"phone":"+43 660 7722529","address":null,"ele":"1475","operator":null,"wikipedia":null,"wikidata":null,"description":null,"wheelchair":null,"osmType":"node","osmId":470067586,"elevation":"1475"}},{"type":"Feature","geometry":{"type":"Point","coordinates":[14.01013,47.31526]},"properties":{"name":"Kaltherberghütte","country":"Austria","website":null,"opening_hours":null,"capacity":null,"phone":null,"address":null,"ele":null,"operator":null,"wikipedia":null,"wikidata":null,"description":null,"wheelchair":null,"osmType":"node","osmId":471292287}},{"type":"Feature","geometry":{"type":"Point","coordinates":[13.52513,47.03028]},"properties":{"name":"Lasörnhütte","country":"Austria","website":null,"opening_hours":null,"capacity":null,"phone":null,"address":null,"ele":"1865","operator":null,"wikipedia":null,"wikidata":null,"description":null,"wheelchair":null,"osmType":"node","osmId":472639251,"elevation":"1865"}},{"type":"Feature","geometry":{"type":"Point","coordinates":[13.4535,47.06856]},"properties":{"name":"Lanisch-Ochsenhütte","country":"Austria","website":"https://www.bergwelten.com/h/lanisch-ochsenhuette","opening_hours":null,"capacity":null,"phone":"+43 676 460 40 43","address":null,"ele":"1948","operator":null,"wikipedia":null,"wikidata":null,"description":null,"wheelchair":null,"osmType":"node","osmId":472640322,"elevation":"1948"}},{"type":"Feature","geometry":{"type":"Point","coordinates":[13.68274,47.02167]},"properties":{"name":"Laußnitzeralm","country":"Austria","website":"https://www.laussnitzer.at/","opening_hours":"Sa-Su","capacity":null,"phone":null,"address":"20, 9863 Rennweg, AT","ele":"1836","operator":"Michael Pirker & Barbara Ilg","wikipedia":null,"wikidata":null,"description":null,"wheelchair":null,"osmType":"node","osmId":472641454,"elevation":"1836"}},{"type":"Feature","geometry":{"type":"Point","coordinates":[14.72412,46.52314]},"properties":{"name":"Wackendorfer Alm","country":"Austria","website":null,"opening_hours":null,"capacity":null,"phone":null,"address":"39, 9142 Globasnitz, AT","ele":"1576.676","operator":"private","wikipedia":null,"wikidata":null,"description":null,"wheelchair":null,"osmType":"node","osmId":474595022,"elevation":"1576.676"}},{"type":"Feature","geometry":{"type":"Point","coordinates":[12.2799,47.28885]},"properties":{"name":"Schutzhütte Rettenstein","country":"Austria","website":null,"opening_hours":null,"capacity":null,"phone":null,"address":null,"ele":"1845","operator":null,"wikipedia":null,"wikidata":null,"description":null,"wheelchair":null,"osmType":"node","osmId":475537079,"elevation":"1845"}},{"type":"Feature","geometry":{"type":"Point","coordinates":[11.01273,47.41001]},"properties":{"name":"Knorrhütte","country":"Austria","website":"http://www.knorrhuette.de/","opening_hours":null,"capacity":null,"phone":"+4988212905","address":"1 Zugspitzplatt, 82467 Garmisch-Partenkirchen, DE","ele":"2052","operator":"DAV Sektion München","wikipedia":"de:Knorrhütte","wikidata":"Q1777433","description":null,"wheelchair":null,"osmType":"node","osmId":476498599,"elevation":"2052"}},{"type":"Feature","geometry":{"type":"Point","coordinates":[12.9571,47.22028]},"properties":{"name":"Hochalm","country":"Austria","website":"https://www.der-baron.at/filialen/hochalm-rauris/","opening_hours":null,"capacity":null,"phone":"+43 664 1121359","address":"45 Gstatterweg, 5661 Rauris","ele":"1780","operator":null,"wikipedia":null,"wikidata":null,"description":null,"wheelchair":null,"osmType":"node","osmId":476680904,"elevation":"1780"}},{"type":"Feature","geometry":{"type":"Point","coordinates":[13.74952,46.87764]},"properties":{"name":"Erlacher Bockhütte","country":"Austria","website":null,"opening_hours":null,"capacity":null,"phone":null,"address":null,"ele":"1938","operator":null,"wikipedia":null,"wikidata":null,"description":null,"wheelchair":null,"osmType":"node","osmId":477249041,"elevation":"1938"}},{"type":"Feature","geometry":{"type":"Point","coordinates":[13.74871,46.869]},"properties":{"name":"Erlacherhaus","country":"Austria","website":null,"opening_hours":null,"capacity":null,"phone":null,"address":"68 Kaning, 9545 Radenthein, AT","ele":"1636","operator":null,"wikipedia":null,"wikidata":null,"description":null,"wheelchair":null,"osmType":"node","osmId":477359854,"elevation":"1636"}},{"type":"Feature","geometry":{"type":"Point","coordinates":[13.6851,47.53113]},"properties":{"name":"Olympiahütte","country":"Austria","website":null,"opening_hours":null,"capacity":null,"phone":null,"address":null,"ele":"1552","operator":null,"wikipedia":null,"wikidata":null,"description":null,"wheelchair":null,"osmType":"node","osmId":480771333,"elevation":"1552"}},{"type":"Feature","geometry":{"type":"Point","coordinates":[10.75687,47.07614]},"properties":{"name":"Falkaunsalm","country":"Austria","website":null,"opening_hours":null,"capacity":null,"phone":null,"address":null,"ele":"1963","operator":null,"wikipedia":null,"wikidata":null,"description":null,"wheelchair":null,"osmType":"node","osmId":481339299,"elevation":"1963"}},{"type":"Feature","geometry":{"type":"Point","coordinates":[10.01907,47.51037]},"properties":{"name":"Imberghaus","country":"Austria","website":"https://www.imberghaus.de/","opening_hours":null,"capacity":null,"phone":"+49 8386 8106","address":null,"ele":"1213","operator":null,"wikipedia":null,"wikidata":null,"description":null,"wheelchair":null,"osmType":"node","osmId":484881698,"elevation":"1213"}},{"type":"Feature","geometry":{"type":"Point","coordinates":[10.69882,47.01122]},"properties":{"name":"Anton-Renk-Hütte","country":"Austria","website":null,"opening_hours":null,"capacity":null,"phone":null,"address":null,"ele":"2261","operator":"DAV Sektion Aachen","wikipedia":"de:Anton-Renk-Hütte","wikidata":"Q1253367","description":null,"wheelchair":null,"osmType":"node","osmId":512618893,"elevation":"2261"}},{"type":"Feature","geometry":{"type":"Point","coordinates":[10.63478,46.902]},"properties":{"name":"Hohenzollernhaus","country":"Austria","website":"https://www.hohenzollernhaus.at/","opening_hours":null,"capacity":null,"phone":"+43 664 531 1915","address":null,"ele":"2123","operator":"DAV Sektion Hohenzollern","wikipedia":"de:Hohenzollernhaus","wikidata":"Q1408189","description":null,"wheelchair":null,"osmType":"node","osmId":512622097,"elevation":"2123"}},{"type":"Feature","geometry":{"type":"Point","coordinates":[11.73696,47.58733]},"properties":{"name":"Jausenstation Blaubergalm","country":"Austria","website":null,"opening_hours":null,"capacity":"15","phone":"+43 6642 306719","address":null,"ele":"1540","operator":null,"wikipedia":"de:Blaubergalm","wikidata":"Q40808892","description":null,"wheelchair":null,"osmType":"node","osmId":528882177,"elevation":"1540"}},{"type":"Feature","geometry":{"type":"Point","coordinates":[10.05237,47.32268]},"properties":{"name":"Neuhornbachhaus","country":"Austria","website":"https://www.neuhornbachhaus.com/","opening_hours":null,"capacity":null,"phone":"+436645367595","address":"258, 6886 Schoppernau, AT","ele":"1700","operator":"Rüf Gebhard","wikipedia":null,"wikidata":null,"description":null,"wheelchair":null,"osmType":"node","osmId":529269467,"elevation":"1700"}},{"type":"Feature","geometry":{"type":"Point","coordinates":[12.25345,47.2781]},"properties":{"name":"Steineralm","country":"Austria","website":null,"opening_hours":null,"capacity":null,"phone":null,"address":null,"ele":"1559","operator":null,"wikipedia":null,"wikidata":null,"description":null,"wheelchair":null,"osmType":"node","osmId":529491450,"elevation":"1559"}},{"type":"Feature","geometry":{"type":"Point","coordinates":[10.69897,47.17756]},"properties":{"name":"Venetalm","country":"Austria","website":"https://www.venetalm.com","opening_hours":null,"capacity":null,"phone":null,"address":null,"ele":"1980","operator":null,"wikipedia":null,"wikidata":null,"description":null,"wheelchair":null,"osmType":"node","osmId":534414045,"elevation":"1980"}},{"type":"Feature","geometry":{"type":"Point","coordinates":[12.5758,47.35633]},"properties":{"name":"Breitfußalm","country":"Austria","website":null,"opening_hours":null,"capacity":null,"phone":null,"address":"72 Schwarzacherweg, 5754 Saalbach-Hinterglemm","ele":null,"operator":null,"wikipedia":null,"wikidata":null,"description":null,"wheelchair":null,"osmType":"node","osmId":544192169}},{"type":"Feature","geometry":{"type":"Point","coordinates":[12.50791,47.36585]},"properties":{"name":"Lindlingalm","country":"Austria","website":"https://www.lindlingalm.at/","opening_hours":null,"capacity":null,"phone":"+43 6541 71900","address":"376 Talschlussweg, 5754 Hinterglemm, AT","ele":"1370","operator":null,"wikipedia":null,"wikidata":null,"description":null,"wheelchair":null,"osmType":"node","osmId":552391496,"elevation":"1370"}},{"type":"Feature","geometry":{"type":"Point","coordinates":[15.5722,47.8967]},"properties":{"name":"Gschwendt Hütte","country":"Austria","website":"https://hohenbergergschwendt.naturfreunde.at/","opening_hours":null,"capacity":null,"phone":null,"address":null,"ele":"1072","operator":"Naturfreunde","wikipedia":null,"wikidata":null,"description":null,"wheelchair":null,"osmType":"node","osmId":572653560,"elevation":"1072"}},{"type":"Feature","geometry":{"type":"Point","coordinates":[15.69328,47.51905]},"properties":{"name":"Hauereckschutzhütte","country":"Austria","website":"https://www.hauereck.at/","opening_hours":null,"capacity":null,"phone":null,"address":null,"ele":null,"operator":"Familie Lehofer","wikipedia":null,"wikidata":null,"description":null,"wheelchair":null,"osmType":"node","osmId":575025927}},{"type":"Feature","geometry":{"type":"Point","coordinates":[13.56185,47.0695]},"properties":{"name":"Wengeralm","country":"Austria","website":null,"opening_hours":null,"capacity":null,"phone":null,"address":null,"ele":"1767","operator":null,"wikipedia":null,"wikidata":null,"description":null,"wheelchair":null,"osmType":"node","osmId":603472038,"elevation":"1767"}},{"type":"Feature","geometry":{"type":"Point","coordinates":[13.56768,47.07025]},"properties":{"name":"Doktoralm","country":"Austria","website":null,"opening_hours":null,"capacity":null,"phone":null,"address":null,"ele":null,"operator":null,"wikipedia":null,"wikidata":null,"description":null,"wheelchair":null,"osmType":"node","osmId":603472082}},{"type":"Feature","geometry":{"type":"Point","coordinates":[12.78993,46.71287]},"properties":{"name":"Lackenalm","country":"Austria","website":null,"opening_hours":null,"capacity":null,"phone":null,"address":null,"ele":"1610","operator":null,"wikipedia":null,"wikidata":null,"description":null,"wheelchair":null,"osmType":"node","osmId":604981073,"elevation":"1610"}},{"type":"Feature","geometry":{"type":"Point","coordinates":[12.75535,47.34399]},"properties":{"name":"Sonnkogel Alm","country":"Austria","website":null,"opening_hours":null,"capacity":null,"phone":null,"address":null,"ele":null,"operator":null,"wikipedia":null,"wikidata":null,"description":null,"wheelchair":null,"osmType":"node","osmId":661044755}},{"type":"Feature","geometry":{"type":"Point","coordinates":[12.40839,47.46212]},"properties":{"name":"Adlerhütte","country":"Austria","website":null,"opening_hours":null,"capacity":null,"phone":null,"address":null,"ele":"1260","operator":null,"wikipedia":null,"wikidata":null,"description":null,"wheelchair":null,"osmType":"node","osmId":662483755,"elevation":"1260"}},{"type":"Feature","geometry":{"type":"Point","coordinates":[12.87124,47.0502]},"properties":{"name":"Skihütte Fleißalm","country":"Austria","website":null,"opening_hours":null,"capacity":null,"phone":"+43 4824 2532","address":null,"ele":null,"operator":null,"wikipedia":null,"wikidata":null,"description":null,"wheelchair":null,"osmType":"node","osmId":673514679}},{"type":"Feature","geometry":{"type":"Point","coordinates":[13.66122,47.6914]},"properties":{"name":"Hoisnradalm","country":"Austria","website":null,"opening_hours":null,"capacity":null,"phone":"+4369915991228","address":"35 Perneck, 4820 Bad Ischl","ele":"969","operator":"Hans Reiter","wikipedia":null,"wikidata":null,"description":null,"wheelchair":null,"osmType":"node","osmId":734536909,"elevation":"969"}},{"type":"Feature","geometry":{"type":"Point","coordinates":[15.92979,47.53771]},"properties":{"name":"Marienseer Schwaig 1478 m","country":"Austria","website":null,"opening_hours":null,"capacity":null,"phone":null,"address":null,"ele":null,"operator":null,"wikipedia":null,"wikidata":null,"description":null,"wheelchair":null,"osmType":"node","osmId":747148944}},{"type":"Feature","geometry":{"type":"Point","coordinates":[10.69473,47.04382]},"properties":{"name":"Sattelklause","country":"Austria","website":null,"opening_hours":null,"capacity":null,"phone":null,"address":null,"ele":"1874","operator":null,"wikipedia":null,"wikidata":null,"description":null,"wheelchair":null,"osmType":"node","osmId":753197970,"elevation":"1874"}},{"type":"Feature","geometry":{"type":"Point","coordinates":[10.67944,47.01529]},"properties":{"name":"Stalanzer Alm","country":"Austria","website":null,"opening_hours":null,"capacity":null,"phone":null,"address":null,"ele":"1880","operator":null,"wikipedia":null,"wikidata":null,"description":null,"wheelchair":null,"osmType":"node","osmId":755780513,"elevation":"1880"}},{"type":"Feature","geometry":{"type":"Point","coordinates":[13.88191,47.54481]},"properties":{"name":"Steinitzenalm","country":"Austria","website":"https://www.salzkammergut.at/startseite/oesterreich/gastronomie/100815/steinitzenalm.html","opening_hours":"May-Oct: \"Sommer\"","capacity":"6","phone":null,"address":"8983 Bad Mitterndorf","ele":null,"operator":null,"wikipedia":null,"wikidata":null,"description":null,"wheelchair":null,"osmType":"node","osmId":769315324}},{"type":"Feature","geometry":{"type":"Point","coordinates":[13.62667,47.65273]},"properties":{"name":"Rathlucken Hütte","country":"Austria","website":"http://www.rathlucka-huette.at/","opening_hours":"self-service drinks 24/7","capacity":null,"phone":"+49 6135 6293","address":null,"ele":null,"operator":null,"wikipedia":null,"wikidata":null,"description":null,"wheelchair":null,"osmType":"node","osmId":778081399}},{"type":"Feature","geometry":{"type":"Point","coordinates":[13.00528,47.07731]},"properties":{"name":"Filzenalm","country":"Austria","website":null,"opening_hours":null,"capacity":null,"phone":"+43 664 9460016","address":"5661 Rauris","ele":"1784","operator":null,"wikipedia":null,"wikidata":null,"description":null,"wheelchair":null,"osmType":"node","osmId":801934572,"elevation":"1784"}},{"type":"Feature","geometry":{"type":"Point","coordinates":[14.00749,47.12972]},"properties":{"name":"Jogaushütte","country":"Austria","website":null,"opening_hours":null,"capacity":null,"phone":null,"address":null,"ele":"1755","operator":null,"wikipedia":null,"wikidata":null,"description":null,"wheelchair":null,"osmType":"node","osmId":807115509,"elevation":"1755"}},{"type":"Feature","geometry":{"type":"Point","coordinates":[11.67344,47.14466]},"properties":{"name":"Stoankasern","country":"Austria","website":null,"opening_hours":null,"capacity":null,"phone":null,"address":null,"ele":"1980","operator":"Fam. Silvia & Ali Erler","wikipedia":null,"wikidata":null,"description":null,"wheelchair":null,"osmType":"node","osmId":822581994,"elevation":"1980"}},{"type":"Feature","geometry":{"type":"Point","coordinates":[11.67912,47.11883]},"properties":{"name":"Bichlalm","country":"Austria","website":null,"opening_hours":null,"capacity":null,"phone":null,"address":null,"ele":"1700","operator":null,"wikipedia":null,"wikidata":null,"description":null,"wheelchair":null,"osmType":"node","osmId":829910023,"elevation":"1700"}},{"type":"Feature","geometry":{"type":"Point","coordinates":[13.99203,46.87089]},"properties":{"name":"Stoicharthütte","country":"Austria","website":"https://www.stoichart-huette.at","opening_hours":null,"capacity":null,"phone":"+43 4279 7361","address":"1 Stoichartweg, 9571","ele":"1578","operator":null,"wikipedia":null,"wikidata":null,"description":null,"wheelchair":null,"osmType":"node","osmId":834394753,"elevation":"1578"}},{"type":"Feature","geometry":{"type":"Point","coordinates":[13.30029,46.85302]},"properties":{"name":"Poldis Jausenstation","country":"Austria","website":null,"opening_hours":null,"capacity":null,"phone":null,"address":null,"ele":"1489","operator":null,"wikipedia":null,"wikidata":null,"description":"Buchungen und Anfragen unter +43 (0)664 / 73 55 95 10 bzw. +43 (0)4783 / 25 36 oder per E-Mail info@poldis-jausenstation.at \nhttp://www.poldis-jausenstation.at/","wheelchair":null,"osmType":"node","osmId":837805909,"elevation":"1489"}},{"type":"Feature","geometry":{"type":"Point","coordinates":[13.30342,46.84681]},"properties":{"name":"Klinghütte","country":"Austria","website":null,"opening_hours":null,"capacity":null,"phone":null,"address":null,"ele":null,"operator":null,"wikipedia":null,"wikidata":null,"description":null,"wheelchair":null,"osmType":"node","osmId":837805915}},{"type":"Feature","geometry":{"type":"Point","coordinates":[13.81691,47.36089]},"properties":{"name":"Hans-Wödl Hütte","country":"Austria","website":null,"opening_hours":null,"capacity":null,"phone":null,"address":null,"ele":"1533","operator":null,"wikipedia":"de:Hans-Wödl-Hütte","wikidata":"Q15056543","description":null,"wheelchair":"no","osmType":"node","osmId":843873440,"elevation":"1533"}},{"type":"Feature","geometry":{"type":"Point","coordinates":[13.81369,47.313]},"properties":{"name":"Waldhornalm","country":"Austria","website":null,"opening_hours":null,"capacity":null,"phone":"+43 664 5952205","address":null,"ele":null,"operator":null,"wikipedia":null,"wikidata":null,"description":null,"wheelchair":"no","osmType":"node","osmId":843873464}},{"type":"Feature","geometry":{"type":"Point","coordinates":[13.73275,46.75694]},"properties":{"name":"Melzerhütte","country":"Austria","website":null,"opening_hours":null,"capacity":null,"phone":null,"address":null,"ele":"1600","operator":null,"wikipedia":null,"wikidata":null,"description":null,"wheelchair":null,"osmType":"node","osmId":849780915,"elevation":"1600"}},{"type":"Feature","geometry":{"type":"Point","coordinates":[13.70742,46.76921]},"properties":{"name":"Hochalmhütte","country":"Austria","website":null,"opening_hours":null,"capacity":null,"phone":null,"address":null,"ele":"1795","operator":null,"wikipedia":null,"wikidata":null,"description":null,"wheelchair":null,"osmType":"node","osmId":849781015,"elevation":"1795"}},{"type":"Feature","geometry":{"type":"Point","coordinates":[10.69578,47.39791]},"properties":{"name":"Ehenbichler Alm","country":"Austria","website":"https://www.ehenbichler-alm.com/","opening_hours":null,"capacity":null,"phone":null,"address":"6600","ele":"1690","operator":null,"wikipedia":null,"wikidata":null,"description":null,"wheelchair":null,"osmType":"node","osmId":858377222,"elevation":"1690"}},{"type":"Feature","geometry":{"type":"Point","coordinates":[13.53094,47.44668]},"properties":{"name":"Rettensteinhütte","country":"Austria","website":null,"opening_hours":null,"capacity":null,"phone":null,"address":null,"ele":null,"operator":null,"wikipedia":null,"wikidata":null,"description":null,"wheelchair":null,"osmType":"node","osmId":879788827}},{"type":"Feature","geometry":{"type":"Point","coordinates":[15.95686,47.51142]},"properties":{"name":"Vorauer Schwaig","country":"Austria","website":null,"opening_hours":null,"capacity":null,"phone":null,"address":null,"ele":null,"operator":null,"wikipedia":null,"wikidata":null,"description":null,"wheelchair":null,"osmType":"node","osmId":886688657}},{"type":"Feature","geometry":{"type":"Point","coordinates":[13.79746,46.87086]},"properties":{"name":"Steinalmhütte","country":"Austria","website":null,"opening_hours":null,"capacity":null,"phone":null,"address":null,"ele":null,"operator":null,"wikipedia":null,"wikidata":null,"description":null,"wheelchair":null,"osmType":"node","osmId":895663517}},{"type":"Feature","geometry":{"type":"Point","coordinates":[15.54191,47.7838]},"properties":{"name":"Kohlröserl-Hütte (Hofalm)","country":"Austria","website":null,"opening_hours":null,"capacity":null,"phone":null,"address":null,"ele":"1483","operator":null,"wikipedia":null,"wikidata":null,"description":null,"wheelchair":null,"osmType":"node","osmId":898073192,"elevation":"1483"}},{"type":"Feature","geometry":{"type":"Point","coordinates":[12.67858,47.2929]},"properties":{"name":"Neue Bubenreuther Hütte","country":"Austria","website":"https://www.dav-bubenreuth.de/H%C3%BCtten/Neue%20Bubenreuther%20H%C3%BCtte.html","opening_hours":null,"capacity":null,"phone":"+43 6549 7855","address":"151 Rohrerberg, 5721 Piesendorf / Walchen, AT","ele":"950","operator":"DAV Sektion Eger und Egerland","wikipedia":null,"wikidata":null,"description":null,"wheelchair":null,"osmType":"node","osmId":901547089,"elevation":"950"}},{"type":"Feature","geometry":{"type":"Point","coordinates":[12.98126,47.22988]},"properties":{"name":"Kreuzboden-Hütte","country":"Austria","website":"https://www.kreuzbodenhuette.at/","opening_hours":null,"capacity":null,"phone":"+43 6544 6496","address":"5661 Rauris","ele":"1272","operator":null,"wikipedia":null,"wikidata":null,"description":null,"wheelchair":null,"osmType":"node","osmId":917753307,"elevation":"1272"}},{"type":"Feature","geometry":{"type":"Point","coordinates":[13.3014,47.47371]},"properties":{"name":"Moosalm","country":"Austria","website":null,"opening_hours":null,"capacity":null,"phone":null,"address":null,"ele":"1640","operator":null,"wikipedia":null,"wikidata":null,"description":null,"wheelchair":null,"osmType":"node","osmId":918808570,"elevation":"1640"}},{"type":"Feature","geometry":{"type":"Point","coordinates":[15.12597,47.53845]},"properties":{"name":"Lengger Alm","country":"Austria","website":null,"opening_hours":null,"capacity":null,"phone":null,"address":null,"ele":null,"operator":null,"wikipedia":null,"wikidata":null,"description":null,"wheelchair":null,"osmType":"node","osmId":921225376}},{"type":"Feature","geometry":{"type":"Point","coordinates":[10.02851,47.25765]},"properties":{"name":"Biberacher Hütte","country":"Austria","website":"https://www.dav-biberach.de/biberacher-huette","opening_hours":null,"capacity":null,"phone":"+43 5519 257","address":"27 Schmitte, Schröcken, AT","ele":"1846","operator":"DAV Sektion Biberach","wikipedia":"de:Biberacher Hütte","wikidata":"Q856154","description":null,"wheelchair":"no","osmType":"node","osmId":925572227,"elevation":"1846"}},{"type":"Feature","geometry":{"type":"Point","coordinates":[10.725,47.19316]},"properties":{"name":"Hochasteralm","country":"Austria","website":"https://www.pitztal.com/de/arzl-im-pitztal/info/hochaster-alm-1756-m.html","opening_hours":null,"capacity":null,"phone":null,"address":null,"ele":"1756","operator":null,"wikipedia":null,"wikidata":null,"description":null,"wheelchair":null,"osmType":"node","osmId":936300145,"elevation":"1756"}},{"type":"Feature","geometry":{"type":"Point","coordinates":[15.57197,47.88152]},"properties":{"name":"Grabenalm Hütte","country":"Austria","website":null,"opening_hours":null,"capacity":null,"phone":null,"address":null,"ele":"1100","operator":null,"wikipedia":null,"wikidata":null,"description":null,"wheelchair":null,"osmType":"node","osmId":937157802,"elevation":"1100"}},{"type":"Feature","geometry":{"type":"Point","coordinates":[14.59348,47.60502]},"properties":{"name":"Buchsteinhaus","country":"Austria","website":"https://buchsteinhaus.naturfreunde.at/","opening_hours":null,"capacity":null,"phone":null,"address":null,"ele":"1571","operator":null,"wikipedia":"de:Buchsteinhaus","wikidata":"Q998850","description":null,"wheelchair":"no","osmType":"node","osmId":946045507,"elevation":"1571"}},{"type":"Feature","geometry":{"type":"Point","coordinates":[14.47886,47.42149]},"properties":{"name":"Winter Bergbuffet","country":"Austria","website":null,"opening_hours":null,"capacity":null,"phone":null,"address":null,"ele":null,"operator":null,"wikipedia":null,"wikidata":null,"description":null,"wheelchair":null,"osmType":"node","osmId":946946379}},{"type":"Feature","geometry":{"type":"Point","coordinates":[13.69312,47.27462]},"properties":{"name":"Keinprechthütte","country":"Austria","website":"https://www.xn--keinprechthtte-qsb.at/","opening_hours":null,"capacity":null,"phone":"+43 664 43 303 46","address":"44 Obertalstraße, 8971 Schladming","ele":"1872","operator":"Alpenverein Wien","wikipedia":"de:Keinprechthütte","wikidata":null,"description":null,"wheelchair":null,"osmType":"node","osmId":960531683,"elevation":"1872"}},{"type":"Feature","geometry":{"type":"Point","coordinates":[14.39107,47.2643]},"properties":{"name":"Haingartner Hütte","country":"Austria","website":null,"opening_hours":null,"capacity":null,"phone":null,"address":null,"ele":null,"operator":null,"wikipedia":null,"wikidata":null,"description":null,"wheelchair":null,"osmType":"node","osmId":1069150055}},{"type":"Feature","geometry":{"type":"Point","coordinates":[10.73505,46.89628]},"properties":{"name":"Gepatsch Alm","country":"Austria","website":null,"opening_hours":null,"capacity":null,"phone":null,"address":null,"ele":"1903","operator":null,"wikipedia":null,"wikidata":null,"description":null,"wheelchair":null,"osmType":"node","osmId":1103447018,"elevation":"1903"}},{"type":"Feature","geometry":{"type":"Point","coordinates":[10.72979,46.93054]},"properties":{"name":"Nassereiner Alm","country":"Austria","website":null,"opening_hours":null,"capacity":null,"phone":null,"address":null,"ele":"2040","operator":null,"wikipedia":null,"wikidata":null,"description":null,"wheelchair":null,"osmType":"node","osmId":1103476189,"elevation":"2040"}},{"type":"Feature","geometry":{"type":"Point","coordinates":[12.88223,47.05283]},"properties":{"name":null,"country":"Austria","website":null,"opening_hours":null,"capacity":null,"phone":null,"address":null,"ele":null,"operator":null,"wikipedia":null,"wikidata":null,"description":null,"wheelchair":null,"osmType":"node","osmId":1123122832}},{"type":"Feature","geometry":{"type":"Point","coordinates":[12.85005,47.05956]},"properties":{"name":"Spatzl Alm","country":"Austria","website":"https://www.facebook.com/spatzlalm/","opening_hours":null,"capacity":null,"phone":"+43 664 2132513","address":null,"ele":null,"operator":null,"wikipedia":null,"wikidata":null,"description":null,"wheelchair":null,"osmType":"node","osmId":1123125641}},{"type":"Feature","geometry":{"type":"Point","coordinates":[15.37206,47.71923]},"properties":{"name":"Tonionhütte","country":"Austria","website":null,"opening_hours":null,"capacity":null,"phone":null,"address":null,"ele":null,"operator":"Naturfreunde Gußwerk","wikipedia":null,"wikidata":null,"description":null,"wheelchair":null,"osmType":"node","osmId":1144448944}},{"type":"Feature","geometry":{"type":"Point","coordinates":[12.3288,47.62381]},"properties":{"name":"Gwirchtalm","country":"Austria","website":null,"opening_hours":null,"capacity":null,"phone":null,"address":"6344 Walchsee","ele":null,"operator":null,"wikipedia":null,"wikidata":null,"description":null,"wheelchair":null,"osmType":"node","osmId":1150610526}},{"type":"Feature","geometry":{"type":"Point","coordinates":[12.97565,47.2227]},"properties":{"name":"Heimalm","country":"Austria","website":"http://www.heimalm-rauris.at","opening_hours":null,"capacity":null,"phone":null,"address":"5661 Rauris","ele":"1480","operator":null,"wikipedia":null,"wikidata":null,"description":null,"wheelchair":null,"osmType":"node","osmId":1154378824,"elevation":"1480"}},{"type":"Feature","geometry":{"type":"Point","coordinates":[12.79339,46.86682]},"properties":{"name":"AV Jugendheim","country":"Austria","website":null,"opening_hours":null,"capacity":null,"phone":null,"address":null,"ele":"1899","operator":null,"wikipedia":null,"wikidata":null,"description":null,"wheelchair":null,"osmType":"node","osmId":1189766694,"elevation":"1899"}},{"type":"Feature","geometry":{"type":"Point","coordinates":[10.66925,47.18309]},"properties":{"name":"Langesbergalm","country":"Austria","website":null,"opening_hours":null,"capacity":null,"phone":null,"address":null,"ele":"1540","operator":null,"wikipedia":null,"wikidata":null,"description":null,"wheelchair":null,"osmType":"node","osmId":1208640448,"elevation":"1540"}},{"type":"Feature","geometry":{"type":"Point","coordinates":[12.71488,47.25826]},"properties":{"name":"Saulochalm","country":"Austria","website":"https://www.saulochalm.at/","opening_hours":null,"capacity":null,"phone":null,"address":null,"ele":null,"operator":null,"wikipedia":null,"wikidata":null,"description":null,"wheelchair":null,"osmType":"node","osmId":1209817466}},{"type":"Feature","geometry":{"type":"Point","coordinates":[14.34606,47.74355]},"properties":{"name":"Schürhütte","country":"Austria","website":null,"opening_hours":null,"capacity":null,"phone":null,"address":null,"ele":null,"operator":null,"wikipedia":null,"wikidata":null,"description":null,"wheelchair":null,"osmType":"node","osmId":1286795477}},{"type":"Feature","geometry":{"type":"Point","coordinates":[10.5483,47.41434]},"properties":{"name":"Krottenwaldhütte","country":"Austria","website":null,"opening_hours":null,"capacity":null,"phone":null,"address":null,"ele":"1140","operator":null,"wikipedia":null,"wikidata":null,"description":null,"wheelchair":null,"osmType":"node","osmId":1313054448,"elevation":"1140"}},{"type":"Feature","geometry":{"type":"Point","coordinates":[10.58886,47.43189]},"properties":{"name":"Stuibenhütte","country":"Austria","website":null,"opening_hours":null,"capacity":null,"phone":null,"address":null,"ele":"920","operator":null,"wikipedia":null,"wikidata":null,"description":null,"wheelchair":null,"osmType":"node","osmId":1313054687,"elevation":"920"}},{"type":"Feature","geometry":{"type":"Point","coordinates":[14.51023,46.50164]},"properties":{"name":"Eisenkappler Hütte / Kapelska koča","country":"Austria","website":null,"opening_hours":null,"capacity":null,"phone":null,"address":null,"ele":"1555","operator":null,"wikipedia":"de:Eisenkappler Hütte","wikidata":"Q1313032","description":null,"wheelchair":null,"osmType":"node","osmId":1321748923,"elevation":"1555"}},{"type":"Feature","geometry":{"type":"Point","coordinates":[13.29824,47.45484]},"properties":{"name":"Bischlingalm","country":"Austria","website":null,"opening_hours":null,"capacity":null,"phone":null,"address":null,"ele":"1565","operator":null,"wikipedia":null,"wikidata":null,"description":null,"wheelchair":null,"osmType":"node","osmId":1331424460,"elevation":"1565"}},{"type":"Feature","geometry":{"type":"Point","coordinates":[14.5394,47.6358]},"properties":{"name":"Lahnalm","country":"Austria","website":null,"opening_hours":null,"capacity":null,"phone":null,"address":"104, 8913 Admont, AT","ele":null,"operator":null,"wikipedia":null,"wikidata":null,"description":null,"wheelchair":null,"osmType":"node","osmId":1339441796}},{"type":"Feature","geometry":{"type":"Point","coordinates":[10.72525,47.39998]},"properties":{"name":"Kögelehütte","country":"Austria","website":null,"opening_hours":null,"capacity":null,"phone":null,"address":null,"ele":"1510","operator":null,"wikipedia":null,"wikidata":null,"description":null,"wheelchair":null,"osmType":"node","osmId":1348444866,"elevation":"1510"}},{"type":"Feature","geometry":{"type":"Point","coordinates":[15.37943,47.6927]},"properties":{"name":"Weißalm","country":"Austria","website":null,"opening_hours":null,"capacity":null,"phone":null,"address":null,"ele":null,"operator":null,"wikipedia":null,"wikidata":null,"description":null,"wheelchair":null,"osmType":"node","osmId":1351497872}},{"type":"Feature","geometry":{"type":"Point","coordinates":[15.40339,47.70003]},"properties":{"name":"Herrenboden","country":"Austria","website":null,"opening_hours":null,"capacity":null,"phone":null,"address":null,"ele":"1402","operator":null,"wikipedia":null,"wikidata":null,"description":null,"wheelchair":null,"osmType":"node","osmId":1351497873,"elevation":"1402"}},{"type":"Feature","geometry":{"type":"Point","coordinates":[13.77168,46.88923]},"properties":{"name":"Wolitzen Alm","country":"Austria","website":"https://www.nockalmstrasse.at/de/die-nockalmstrasse/gastronomie-uebernachtung?page=2#gastro-3","opening_hours":null,"capacity":null,"phone":"+43 6649236874","address":null,"ele":"1777","operator":null,"wikipedia":null,"wikidata":null,"description":null,"wheelchair":null,"osmType":"node","osmId":1401212410,"elevation":"1777"}},{"type":"Feature","geometry":{"type":"Point","coordinates":[10.47378,46.98323]},"properties":{"name":"Ochsenberg-Alm","country":"Austria","website":null,"opening_hours":null,"capacity":null,"phone":null,"address":null,"ele":"2021","operator":null,"wikipedia":null,"wikidata":null,"description":null,"wheelchair":null,"osmType":"node","osmId":1407686251,"elevation":"2021"}},{"type":"Feature","geometry":{"type":"Point","coordinates":[13.69185,47.30014]},"properties":{"name":"Duisitzkarseehütte","country":"Austria","website":"https://www.duisitzkar.at/","opening_hours":null,"capacity":null,"phone":null,"address":null,"ele":"1660","operator":null,"wikipedia":null,"wikidata":null,"description":null,"wheelchair":null,"osmType":"node","osmId":1419889047,"elevation":"1660"}},{"type":"Feature","geometry":{"type":"Point","coordinates":[10.17567,46.92398]},"properties":{"name":"Scheiben Alm","country":"Austria","website":"https://scheiben-alm.edan.io/","opening_hours":null,"capacity":null,"phone":"+43 664 9244508","address":null,"ele":"1850","operator":null,"wikipedia":null,"wikidata":null,"description":null,"wheelchair":null,"osmType":"node","osmId":1496710565,"elevation":"1850"}},{"type":"Feature","geometry":{"type":"Point","coordinates":[12.09132,47.56705]},"properties":{"name":"Kala Alm","country":"Austria","website":"https://www.kala-alm.at","opening_hours":null,"capacity":"30","phone":"+43 664 3944284","address":null,"ele":"1360","operator":null,"wikipedia":null,"wikidata":null,"description":null,"wheelchair":null,"osmType":"node","osmId":1522699773,"elevation":"1360"}},{"type":"Feature","geometry":{"type":"Point","coordinates":[12.70021,46.8215]},"properties":{"name":"Hochsteinhütte","country":"Austria","website":null,"opening_hours":null,"capacity":null,"phone":null,"address":null,"ele":"2025","operator":null,"wikipedia":"de:Hochsteinhütte","wikidata":"Q1622351","description":null,"wheelchair":null,"osmType":"node","osmId":1537321603,"elevation":"2025"}},{"type":"Feature","geometry":{"type":"Point","coordinates":[12.03842,47.61354]},"properties":{"name":"Mariandlalm","country":"Austria","website":"http://www.mariandlalm.at/","opening_hours":"Nov-Apr: We,Fr-Su,PH 10:00-17:00; May-Oct: Tu-Su,PH 10:00-17:00","capacity":null,"phone":"+43 664 3504417","address":null,"ele":"1250","operator":null,"wikipedia":null,"wikidata":null,"description":null,"wheelchair":null,"osmType":"node","osmId":1559102082,"elevation":"1250"}},{"type":"Feature","geometry":{"type":"Point","coordinates":[12.57627,47.04937]},"properties":{"name":"Sudetendeutsche Hütte","country":"Austria","website":null,"opening_hours":null,"capacity":null,"phone":null,"address":null,"ele":"2650","operator":null,"wikipedia":"de:Sudetendeutsche Hütte","wikidata":"Q2363199","description":null,"wheelchair":null,"osmType":"node","osmId":1567490026,"elevation":"2650"}},{"type":"Feature","geometry":{"type":"Point","coordinates":[11.59611,47.15108]},"properties":{"name":"Klammalm","country":"Austria","website":null,"opening_hours":null,"capacity":null,"phone":null,"address":"185 Klammerweg, 6145 Navis, AT","ele":"1947","operator":null,"wikipedia":null,"wikidata":null,"description":null,"wheelchair":null,"osmType":"node","osmId":1607527933,"elevation":"1947"}},{"type":"Feature","geometry":{"type":"Point","coordinates":[11.72418,47.16447]},"properties":{"name":"Lattenalm","country":"Austria","website":"https://m.christler-tux.at/de/lattenalm/","opening_hours":null,"capacity":null,"phone":null,"address":"256, 6293 Tux, AT","ele":"1680","operator":null,"wikipedia":null,"wikidata":null,"description":null,"wheelchair":null,"osmType":"node","osmId":1620496977,"elevation":"1680"}},{"type":"Feature","geometry":{"type":"Point","coordinates":[11.31873,47.44974]},"properties":{"name":"Hochlandhütte","country":"Austria","website":"https://www.hochlandhuette.de/","opening_hours":null,"capacity":null,"phone":"+49 174 9897863","address":null,"ele":"1630","operator":"DAV Sektion Hochland","wikipedia":null,"wikidata":"Q1620056","description":null,"wheelchair":null,"osmType":"node","osmId":1621410739,"elevation":"1630"}},{"type":"Feature","geometry":{"type":"Point","coordinates":[10.94443,47.04089]},"properties":{"name":"Breitlehnalm","country":"Austria","website":null,"opening_hours":null,"capacity":null,"phone":null,"address":null,"ele":"1874","operator":null,"wikipedia":null,"wikidata":null,"description":null,"wheelchair":null,"osmType":"node","osmId":1632744583,"elevation":"1874"}},{"type":"Feature","geometry":{"type":"Point","coordinates":[12.32534,46.94366]},"properties":{"name":"Jausenstation Trojer Alm","country":"Austria","website":null,"opening_hours":null,"capacity":null,"phone":null,"address":"48, 9963 St. Jakob in Defereggen, AT","ele":"1810","operator":null,"wikipedia":null,"wikidata":null,"description":null,"wheelchair":null,"osmType":"node","osmId":1634923290,"elevation":"1810"}},{"type":"Feature","geometry":{"type":"Point","coordinates":[12.43892,46.86914]},"properties":{"name":"Volkzeiner Hütte","country":"Austria","website":"https://www.volkzeinerhütte.at","opening_hours":"We-Mo","capacity":null,"phone":"+43 4843 20031","address":null,"ele":"1884","operator":null,"wikipedia":null,"wikidata":"Q98102770","description":null,"wheelchair":null,"osmType":"node","osmId":1635114705,"elevation":"1884"}},{"type":"Feature","geometry":{"type":"Point","coordinates":[11.49327,47.02039]},"properties":{"name":"Sattelbergalm","country":"Austria","website":"https://www.sattelbergalm.at","opening_hours":null,"capacity":null,"phone":"+43527487717","address":"311 Neder, Gries am Brenner, AT","ele":"1633","operator":null,"wikipedia":"de:Sattelbergalm","wikidata":"Q1537451","description":null,"wheelchair":null,"osmType":"node","osmId":1636573842,"elevation":"1633"}},{"type":"Feature","geometry":{"type":"Point","coordinates":[11.37942,47.14549]},"properties":{"name":"Alpengasthof Sonnenstein","country":"Austria","website":"https://www.alpengasthof-sonnenstein.at","opening_hours":"Mo-Su 10:00-18:00","capacity":null,"phone":"+43 664 12 645","address":"101 Tolersteig, 6142 Mieders","ele":"1400","operator":"Fam. Gleinser","wikipedia":null,"wikidata":null,"description":"Genuss & Tiroler Herzlichkeit\nAuf unserer sonnigen Terrasse oder in den gemütlichen Stuben könnt ihr hausgemachte Tiroler Spezialitäten und zünftige Almjause genießen – alles frisch zubereitet und mit einem hervorragenden Preis-Leistungs-Verhältnis.","wheelchair":null,"osmType":"node","osmId":1641317945,"elevation":"1400"}},{"type":"Feature","geometry":{"type":"Point","coordinates":[11.43172,47.06765]},"properties":{"name":"Gerichtsherrenalm","country":"Austria","website":null,"opening_hours":null,"capacity":null,"phone":null,"address":null,"ele":"1680","operator":null,"wikipedia":null,"wikidata":null,"description":null,"wheelchair":null,"osmType":"node","osmId":1642945247,"elevation":"1680"}},{"type":"Feature","geometry":{"type":"Point","coordinates":[11.46459,47.04994]},"properties":{"name":"Nösslachhütte","country":"Austria","website":null,"opening_hours":null,"capacity":null,"phone":null,"address":null,"ele":"1600","operator":null,"wikipedia":null,"wikidata":null,"description":null,"wheelchair":null,"osmType":"node","osmId":1648619778,"elevation":"1600"}},{"type":"Feature","geometry":{"type":"Point","coordinates":[12.46467,47.38655]},"properties":{"name":"Kelchalm Bochumer Hütte","country":"Austria","website":"https://bochumer-huette.jimdofree.com/","opening_hours":null,"capacity":null,"phone":"+43 5356 20299","address":null,"ele":"1420","operator":"DAV Sektion Bochum","wikipedia":"de:Bochumer Hütte","wikidata":"Q889089","description":null,"wheelchair":null,"osmType":"node","osmId":1692552899,"elevation":"1420"}},{"type":"Feature","geometry":{"type":"Point","coordinates":[12.55496,47.51672]},"properties":{"name":"Lindtalalm","country":"Austria","website":"https://www.bergfex.at/sommer/tirol/touren/wanderung/4379,lindtalalm-winterstelleralm/","opening_hours":null,"capacity":null,"phone":null,"address":"St. Ulrich, AT","ele":"1090","operator":null,"wikipedia":null,"wikidata":null,"description":null,"wheelchair":null,"osmType":"node","osmId":1693267583,"elevation":"1090"}},{"type":"Feature","geometry":{"type":"Point","coordinates":[12.61363,46.79852]},"properties":{"name":"Skihütte Compedal","country":"Austria","website":null,"opening_hours":null,"capacity":null,"phone":null,"address":null,"ele":"1920","operator":null,"wikipedia":null,"wikidata":null,"description":null,"wheelchair":null,"osmType":"node","osmId":1726564778,"elevation":"1920"}},{"type":"Feature","geometry":{"type":"Point","coordinates":[15.4347,47.7113]},"properties":{"name":"Königsalm","country":"Austria","website":null,"opening_hours":null,"capacity":null,"phone":null,"address":null,"ele":null,"operator":null,"wikipedia":null,"wikidata":null,"description":null,"wheelchair":null,"osmType":"node","osmId":1785972339}},{"type":"Feature","geometry":{"type":"Point","coordinates":[15.42085,47.71165]},"properties":{"name":"Dürrieglalm","country":"Austria","website":null,"opening_hours":null,"capacity":null,"phone":null,"address":null,"ele":null,"operator":null,"wikipedia":null,"wikidata":null,"description":null,"wheelchair":null,"osmType":"node","osmId":1785972343}},{"type":"Feature","geometry":{"type":"Point","coordinates":[13.78416,46.92011]},"properties":{"name":"Stangalm","country":"Austria","website":null,"opening_hours":null,"capacity":null,"phone":null,"address":null,"ele":"1690","operator":null,"wikipedia":null,"wikidata":null,"description":null,"wheelchair":null,"osmType":"node","osmId":1809101111,"elevation":"1690"}},{"type":"Feature","geometry":{"type":"Point","coordinates":[13.77907,46.9205]},"properties":{"name":"Tangernerhütte","country":"Austria","website":null,"opening_hours":null,"capacity":null,"phone":null,"address":null,"ele":"1715","operator":null,"wikipedia":null,"wikidata":null,"description":null,"wheelchair":null,"osmType":"node","osmId":1809101112,"elevation":"1715"}},{"type":"Feature","geometry":{"type":"Point","coordinates":[12.99316,47.07362]},"properties":{"name":"Gainschniggalm","country":"Austria","website":"https://www.gainschniggalm.at/","opening_hours":null,"capacity":null,"phone":"+43 664 433 52 36","address":"5661 Rauris","ele":"1750","operator":null,"wikipedia":null,"wikidata":null,"description":null,"wheelchair":null,"osmType":"node","osmId":1818302634,"elevation":"1750"}},{"type":"Feature","geometry":{"type":"Point","coordinates":[11.33584,47.17635]},"properties":{"name":"Pfarrachalm","country":"Austria","website":null,"opening_hours":null,"capacity":null,"phone":null,"address":"6165 Telfes im Stubai, AT","ele":"1740","operator":null,"wikipedia":"de:Pfarrachalm","wikidata":"Q15058714","description":null,"wheelchair":null,"osmType":"node","osmId":1836518335,"elevation":"1740"}},{"type":"Feature","geometry":{"type":"Point","coordinates":[12.77339,47.43163]},"properties":{"name":"Sinnlehen Alm","country":"Austria","website":"http://www.sinnlehen.at/sinnlehenalm","opening_hours":null,"capacity":null,"phone":"+43 664 5278927","address":null,"ele":null,"operator":null,"wikipedia":null,"wikidata":null,"description":null,"wheelchair":null,"osmType":"node","osmId":1839842096}},{"type":"Feature","geometry":{"type":"Point","coordinates":[12.67967,47.42528]},"properties":{"name":"Knappenstube","country":"Austria","website":null,"opening_hours":null,"capacity":null,"phone":null,"address":null,"ele":null,"operator":null,"wikipedia":null,"wikidata":null,"description":null,"wheelchair":null,"osmType":"node","osmId":1839849831}},{"type":"Feature","geometry":{"type":"Point","coordinates":[13.12043,46.77191]},"properties":{"name":"Tristenhaus","country":"Austria","website":null,"opening_hours":null,"capacity":null,"phone":null,"address":null,"ele":null,"operator":null,"wikipedia":null,"wikidata":null,"description":null,"wheelchair":null,"osmType":"node","osmId":1865613709}},{"type":"Feature","geometry":{"type":"Point","coordinates":[13.81669,46.78683]},"properties":{"name":"Rossalmhütte","country":"Austria","website":null,"opening_hours":null,"capacity":null,"phone":null,"address":null,"ele":"1915","operator":null,"wikipedia":null,"wikidata":null,"description":null,"wheelchair":null,"osmType":"node","osmId":1871503422,"elevation":"1915"}},{"type":"Feature","geometry":{"type":"Point","coordinates":[13.01987,46.79065]},"properties":{"name":"Unteralm","country":"Austria","website":null,"opening_hours":null,"capacity":null,"phone":null,"address":"50 Weneberg, 9773 Irschen","ele":null,"operator":"Privat","wikipedia":null,"wikidata":null,"description":null,"wheelchair":null,"osmType":"node","osmId":1873005261}},{"type":"Feature","geometry":{"type":"Point","coordinates":[13.31429,46.91839]},"properties":{"name":"Zandlacher Hütte","country":"Austria","website":"https://www.facebook.com/people/Zandlacher-H%C3%BCtte/100070427610308/","opening_hours":"May-Sep","capacity":null,"phone":"+43 650 9779816","address":null,"ele":null,"operator":null,"wikipedia":null,"wikidata":null,"description":null,"wheelchair":null,"osmType":"node","osmId":1927243833}},{"type":"Feature","geometry":{"type":"Point","coordinates":[10.64597,46.96859]},"properties":{"name":"Platzeralm","country":"Austria","website":null,"opening_hours":null,"capacity":null,"phone":null,"address":null,"ele":"2180","operator":null,"wikipedia":null,"wikidata":null,"description":null,"wheelchair":null,"osmType":"node","osmId":1932329012,"elevation":"2180"}},{"type":"Feature","geometry":{"type":"Point","coordinates":[10.69939,47.01094]},"properties":{"name":null,"country":"Austria","website":null,"opening_hours":null,"capacity":null,"phone":null,"address":null,"ele":"2260","operator":null,"wikipedia":null,"wikidata":null,"description":null,"wheelchair":null,"osmType":"node","osmId":1943456368,"elevation":"2260"}},{"type":"Feature","geometry":{"type":"Point","coordinates":[15.96307,47.48407]},"properties":{"name":"Glatzl Trahütten","country":"Austria","website":null,"opening_hours":"Jun-sep 10:00-20:00","capacity":null,"phone":null,"address":null,"ele":null,"operator":null,"wikipedia":null,"wikidata":null,"description":null,"wheelchair":null,"osmType":"node","osmId":2085795791}},{"type":"Feature","geometry":{"type":"Point","coordinates":[10.94903,47.0327]},"properties":{"name":"Polltalalm","country":"Austria","website":null,"opening_hours":null,"capacity":null,"phone":null,"address":"242 Huben, 6444 Längenfeld, AT","ele":"1840","operator":null,"wikipedia":null,"wikidata":null,"description":null,"wheelchair":null,"osmType":"node","osmId":2150565802,"elevation":"1840"}},{"type":"Feature","geometry":{"type":"Point","coordinates":[13.98552,46.8679]},"properties":{"name":"Hiaslalm","country":"Austria","website":"www.biohiasl.at","opening_hours":null,"capacity":null,"phone":"+43 664 4032556","address":"10 Zirbenweg, 9571 Hochrindl","ele":"1676","operator":null,"wikipedia":null,"wikidata":null,"description":null,"wheelchair":null,"osmType":"node","osmId":2325711984,"elevation":"1676"}},{"type":"Feature","geometry":{"type":"Point","coordinates":[13.96844,46.85752]},"properties":{"name":"Wugganighütte","country":"Austria","website":null,"opening_hours":null,"capacity":null,"phone":null,"address":null,"ele":null,"operator":null,"wikipedia":null,"wikidata":null,"description":null,"wheelchair":null,"osmType":"node","osmId":2325719711}},{"type":"Feature","geometry":{"type":"Point","coordinates":[13.04031,46.69693]},"properties":{"name":"Ploneralm","country":"Austria","website":null,"opening_hours":null,"capacity":null,"phone":null,"address":null,"ele":"1625","operator":null,"wikipedia":null,"wikidata":null,"description":null,"wheelchair":null,"osmType":"node","osmId":2327488827,"elevation":"1625"}},{"type":"Feature","geometry":{"type":"Point","coordinates":[12.20102,47.3086]},"properties":{"name":"Rotwand-Alm","country":"Austria","website":null,"opening_hours":null,"capacity":null,"phone":null,"address":"109 Hinterwindau, 6363 Westendorf, AT","ele":"1600","operator":null,"wikipedia":null,"wikidata":null,"description":null,"wheelchair":null,"osmType":"node","osmId":2368392910,"elevation":"1600"}},{"type":"Feature","geometry":{"type":"Point","coordinates":[14.44586,47.46231]},"properties":{"name":"Hölleralm","country":"Austria","website":null,"opening_hours":null,"capacity":null,"phone":null,"address":null,"ele":null,"operator":null,"wikipedia":null,"wikidata":null,"description":null,"wheelchair":null,"osmType":"node","osmId":2378274100}},{"type":"Feature","geometry":{"type":"Point","coordinates":[12.43672,46.95757]},"properties":{"name":"Zupalseehütte","country":"Austria","website":"http://www.alm-ferienhaus.com/zupalseehuette/","opening_hours":null,"capacity":null,"phone":"+43 4874 5227","address":null,"ele":"2350","operator":"Familie Tschoner","wikipedia":"de:Zupalseehütte","wikidata":"Q230219","description":null,"wheelchair":null,"osmType":"node","osmId":2382631604,"elevation":"2350"}},{"type":"Feature","geometry":{"type":"Point","coordinates":[12.19635,47.57426]},"properties":{"name":"Berghaus Aschenbrenner","country":"Austria","website":"http://www.berghaus-aschenbrenner.com/","opening_hours":"Tu-Su 09:00-18:00","capacity":null,"phone":"+43 5372 62220","address":"14 Stadtberg, 6330 Kufstein, AT","ele":"1135","operator":"Alois Taxauer","wikipedia":null,"wikidata":null,"description":null,"wheelchair":null,"osmType":"node","osmId":2415975822,"elevation":"1135"}},{"type":"Feature","geometry":{"type":"Point","coordinates":[12.20957,47.5778]},"properties":{"name":"Weinbergerhaus","country":"Austria","website":"http://www.weinbergerhaus.at/","opening_hours":"May-Oct PH,Mo-Su 10:00+","capacity":null,"phone":"+43 5372 65148","address":"8 Stadtberg, 6330 Kufstein, AT","ele":"1272","operator":null,"wikipedia":"de:Weinbergerhaus","wikidata":"Q1772467","description":null,"wheelchair":"no","osmType":"node","osmId":2415975826,"elevation":"1272"}},{"type":"Feature","geometry":{"type":"Point","coordinates":[12.90457,47.04541]},"properties":{"name":"Alpengasthof \"Alter Pocher\"","country":"Austria","website":"http://www.alterpocher.at","opening_hours":null,"capacity":null,"phone":null,"address":"10, 9844 Heiligenblut am Großglockner, AT","ele":"1807","operator":null,"wikipedia":null,"wikidata":null,"description":null,"wheelchair":null,"osmType":"node","osmId":2429255620,"elevation":"1807"}},{"type":"Feature","geometry":{"type":"Point","coordinates":[13.83385,46.77655]},"properties":{"name":"Walderhütte","country":"Austria","website":"https://www.walderhuette.at/","opening_hours":"Mo-Su 10:00-18:00","capacity":null,"phone":"+43 4247 30510","address":"18 Oberwöllan, 9543 Arriach","ele":"1960","operator":"privat","wikipedia":null,"wikidata":null,"description":"Privates Bergrestaurant mit Übernachtungsmöglichkeit (nach Anmeldung). Zufahrt über Mautstraße möglich.","wheelchair":null,"osmType":"node","osmId":2432652089,"elevation":"1960"}},{"type":"Feature","geometry":{"type":"Point","coordinates":[13.81256,46.77035]},"properties":{"name":"Trangonihütte","country":"Austria","website":null,"opening_hours":"\"Juni bis Mitte November\"","capacity":"40","phone":null,"address":"Tassach, 9542 Afritz","ele":"1667","operator":"TVN","wikipedia":null,"wikidata":null,"description":null,"wheelchair":null,"osmType":"node","osmId":2432690397,"elevation":"1667"}},{"type":"Feature","geometry":{"type":"Point","coordinates":[14.43496,47.43959]},"properties":{"name":"Scheibelalm","country":"Austria","website":null,"opening_hours":null,"capacity":null,"phone":null,"address":"4 Edelrautestraße, 8785 Hohentauern","ele":null,"operator":"Familie Rössel","wikipedia":"de:Scheibelalm","wikidata":null,"description":null,"wheelchair":null,"osmType":"node","osmId":2432850115}},{"type":"Feature","geometry":{"type":"Point","coordinates":[13.7362,46.84415]},"properties":{"name":"Winklerhütte","country":"Austria","website":null,"opening_hours":null,"capacity":null,"phone":null,"address":null,"ele":null,"operator":null,"wikipedia":null,"wikidata":null,"description":null,"wheelchair":null,"osmType":"node","osmId":2447536598}},{"type":"Feature","geometry":{"type":"Point","coordinates":[13.72805,46.8509]},"properties":{"name":"Veidlhütte","country":"Austria","website":null,"opening_hours":null,"capacity":null,"phone":null,"address":null,"ele":null,"operator":null,"wikipedia":null,"wikidata":null,"description":null,"wheelchair":null,"osmType":"node","osmId":2447543431}},{"type":"Feature","geometry":{"type":"Point","coordinates":[15.1319,47.20652]},"properties":{"name":"Walzkogelhütte","country":"Austria","website":null,"opening_hours":"May-Oct","capacity":null,"phone":null,"address":null,"ele":null,"operator":null,"wikipedia":null,"wikidata":null,"description":null,"wheelchair":null,"osmType":"node","osmId":2495609781}},{"type":"Feature","geometry":{"type":"Point","coordinates":[13.54656,46.9684]},"properties":{"name":"Wölflbauerhütte","country":"Austria","website":null,"opening_hours":null,"capacity":null,"phone":null,"address":null,"ele":"1700","operator":null,"wikipedia":null,"wikidata":null,"description":null,"wheelchair":null,"osmType":"node","osmId":2537772970,"elevation":"1700"}},{"type":"Feature","geometry":{"type":"Point","coordinates":[10.58088,47.52403]},"properties":{"name":"Sebenalpe","country":"Austria","website":null,"opening_hours":null,"capacity":null,"phone":null,"address":null,"ele":"1640","operator":null,"wikipedia":null,"wikidata":null,"description":null,"wheelchair":null,"osmType":"node","osmId":2661066008,"elevation":"1640"}},{"type":"Feature","geometry":{"type":"Point","coordinates":[11.0288,46.75713]},"properties":{"name":"Stettiner Hütte - Rifugio Petrarca","country":"Austria","website":"https://www.stettinerhuette.com/","opening_hours":"2024 Jul-Sep","capacity":"60","phone":"+39 0473 424244","address":"39013 Moos in Passeier - Moso in Passiria, IT","ele":"2875","operator":"Familie Fontana","wikipedia":"de:Stettiner Hütte","wikidata":"Q2346323","description":null,"wheelchair":null,"osmType":"node","osmId":2755886030,"elevation":"2875"}},{"type":"Feature","geometry":{"type":"Point","coordinates":[15.2122,47.2105]},"properties":{"name":"Taschlerhütte","country":"Austria","website":null,"opening_hours":null,"capacity":null,"phone":null,"address":null,"ele":null,"operator":null,"wikipedia":null,"wikidata":null,"description":null,"wheelchair":null,"osmType":"node","osmId":2870159370}},{"type":"Feature","geometry":{"type":"Point","coordinates":[12.00859,47.40713]},"properties":{"name":"Hohlriederalm","country":"Austria","website":null,"opening_hours":null,"capacity":null,"phone":null,"address":"140 Hohlriedweg, 6313 Wildschönau, AT","ele":"1300","operator":null,"wikipedia":null,"wikidata":null,"description":null,"wheelchair":null,"osmType":"node","osmId":2952466275,"elevation":"1300"}},{"type":"Feature","geometry":{"type":"Point","coordinates":[13.5161,47.08162]},"properties":{"name":"Maierhofalm","country":"Austria","website":null,"opening_hours":null,"capacity":null,"phone":null,"address":null,"ele":"1808","operator":null,"wikipedia":null,"wikidata":null,"description":null,"wheelchair":null,"osmType":"node","osmId":2987728768,"elevation":"1808"}},{"type":"Feature","geometry":{"type":"Point","coordinates":[13.7867,46.78621]},"properties":{"name":"Sonnige Rieserhütte","country":"Austria","website":null,"opening_hours":null,"capacity":null,"phone":null,"address":null,"ele":null,"operator":null,"wikipedia":null,"wikidata":null,"description":null,"wheelchair":null,"osmType":"node","osmId":2989698725}},{"type":"Feature","geometry":{"type":"Point","coordinates":[13.73185,48.51813]},"properties":{"name":"Öttl-Hütte","country":"Austria","website":null,"opening_hours":null,"capacity":null,"phone":null,"address":null,"ele":null,"operator":null,"wikipedia":null,"wikidata":null,"description":null,"wheelchair":null,"osmType":"node","osmId":3014349312}},{"type":"Feature","geometry":{"type":"Point","coordinates":[12.12328,47.22796]},"properties":{"name":"Gletscherblickalm","country":"Austria","website":"https://www.gletscherblickalm.at/","opening_hours":null,"capacity":null,"phone":null,"address":null,"ele":null,"operator":null,"wikipedia":null,"wikidata":null,"description":null,"wheelchair":null,"osmType":"node","osmId":3038776470}},{"type":"Feature","geometry":{"type":"Point","coordinates":[13.54177,46.96122]},"properties":{"name":"Frido-Kordon-Hütte","country":"Austria","website":null,"opening_hours":null,"capacity":null,"phone":null,"address":null,"ele":"1649","operator":"OeAV Sektion Gmünd","wikipedia":null,"wikidata":null,"description":null,"wheelchair":null,"osmType":"node","osmId":3063751728,"elevation":"1649"}},{"type":"Feature","geometry":{"type":"Point","coordinates":[12.11213,47.57286]},"properties":{"name":"Pendlinghaus","country":"Austria","website":"https://www.pendlinghaus.at","opening_hours":null,"capacity":"70","phone":"+43 5376 5374","address":"1 Pendling, 6336 Langkampfen, AT","ele":"1537","operator":null,"wikipedia":"de:Pendlinghaus","wikidata":"Q23689394","description":null,"wheelchair":null,"osmType":"node","osmId":3075534776,"elevation":"1537"}},{"type":"Feature","geometry":{"type":"Point","coordinates":[14.61957,47.41913]},"properties":{"name":"Beisteiner Alm","country":"Austria","website":null,"opening_hours":null,"capacity":null,"phone":null,"address":null,"ele":"1628","operator":"Heinz Jansenberger","wikipedia":null,"wikidata":null,"description":null,"wheelchair":null,"osmType":"node","osmId":3147442321,"elevation":"1628"}},{"type":"Feature","geometry":{"type":"Point","coordinates":[12.79651,47.1229]},"properties":{"name":"Trauneralm","country":"Austria","website":null,"opening_hours":null,"capacity":null,"phone":null,"address":null,"ele":"1522","operator":null,"wikipedia":null,"wikidata":null,"description":null,"wheelchair":null,"osmType":"node","osmId":3333016626,"elevation":"1522"}},{"type":"Feature","geometry":{"type":"Point","coordinates":[13.79497,46.781]},"properties":{"name":"Klamerhütte Sennerei","country":"Austria","website":null,"opening_hours":null,"capacity":null,"phone":null,"address":null,"ele":null,"operator":null,"wikipedia":null,"wikidata":null,"description":null,"wheelchair":null,"osmType":"node","osmId":3381662522}},{"type":"Feature","geometry":{"type":"Point","coordinates":[15.23313,47.17624]},"properties":{"name":"Kleinschupfer","country":"Austria","website":null,"opening_hours":null,"capacity":null,"phone":null,"address":null,"ele":null,"operator":null,"wikipedia":null,"wikidata":null,"description":null,"wheelchair":null,"osmType":"node","osmId":3438677247}},{"type":"Feature","geometry":{"type":"Point","coordinates":[15.17354,47.20384]},"properties":{"name":"Bockstaller Hütte (zum Holter Fritz)","country":"Austria","website":null,"opening_hours":null,"capacity":null,"phone":null,"address":"32, 8153 Gratwein-Straßengel, AT","ele":null,"operator":null,"wikipedia":null,"wikidata":null,"description":null,"wheelchair":null,"osmType":"node","osmId":3610743864}},{"type":"Feature","geometry":{"type":"Point","coordinates":[14.17387,47.23223]},"properties":{"name":"Greimhütte","country":"Austria","website":"https://www.greimhuette.at/","opening_hours":"We-Su 10:00-18:00","capacity":null,"phone":"+43 676 3514844","address":null,"ele":null,"operator":"Anna Wolf","wikipedia":null,"wikidata":null,"description":null,"wheelchair":"limited","osmType":"node","osmId":3740357364}},{"type":"Feature","geometry":{"type":"Point","coordinates":[14.91521,47.40274]},"properties":{"name":null,"country":"Austria","website":null,"opening_hours":null,"capacity":null,"phone":null,"address":null,"ele":null,"operator":null,"wikipedia":null,"wikidata":null,"description":null,"wheelchair":null,"osmType":"node","osmId":4185378200}},{"type":"Feature","geometry":{"type":"Point","coordinates":[13.98599,47.81033]},"properties":{"name":"Sepp Huber Hütte","country":"Austria","website":null,"opening_hours":null,"capacity":null,"phone":null,"address":null,"ele":"1506","operator":"Österreichischer Alpenverein","wikipedia":null,"wikidata":"Q116925718","description":null,"wheelchair":null,"osmType":"node","osmId":4225407626,"elevation":"1506"}},{"type":"Feature","geometry":{"type":"Point","coordinates":[12.17757,47.45041]},"properties":{"name":"Sunnseithütte","country":"Austria","website":"http://www.sunnseit.com/","opening_hours":null,"capacity":null,"phone":"+43 664 9197709","address":null,"ele":null,"operator":null,"wikipedia":null,"wikidata":null,"description":null,"wheelchair":null,"osmType":"node","osmId":4314551310}},{"type":"Feature","geometry":{"type":"Point","coordinates":[14.17893,47.41184]},"properties":{"name":"Schrabachalm","country":"Austria","website":"https://www.schrabachalm.at/","opening_hours":null,"capacity":null,"phone":"+436643889150","address":null,"ele":null,"operator":"Birgit und Johann Ilsinger","wikipedia":null,"wikidata":null,"description":null,"wheelchair":null,"osmType":"node","osmId":4328123206}},{"type":"Feature","geometry":{"type":"Point","coordinates":[12.51896,46.97304]},"properties":{"name":"Zunigalm","country":"Austria","website":"https://www.hinterbichl.at/lodges/zunigalm.php","opening_hours":null,"capacity":null,"phone":"+43 664 9059063","address":null,"ele":"1848","operator":null,"wikipedia":null,"wikidata":null,"description":null,"wheelchair":null,"osmType":"node","osmId":4397709992,"elevation":"1848"}},{"type":"Feature","geometry":{"type":"Point","coordinates":[14.71267,47.48291]},"properties":{"name":"Jagdhütte Zeiritz 1599m","country":"Austria","website":null,"opening_hours":null,"capacity":null,"phone":null,"address":null,"ele":null,"operator":null,"wikipedia":null,"wikidata":null,"description":null,"wheelchair":null,"osmType":"node","osmId":4420347989}},{"type":"Feature","geometry":{"type":"Point","coordinates":[13.36969,47.01807]},"properties":{"name":"Villacher Hütte","country":"Austria","website":"https://www.alpenverein.at/villacherhuette/","opening_hours":null,"capacity":null,"phone":"+43 4242 28 95 84","address":null,"ele":"2194","operator":"Österreichischer Alpenverein, Sektion Villach","wikipedia":null,"wikidata":null,"description":null,"wheelchair":null,"osmType":"node","osmId":4659946341,"elevation":"2194"}},{"type":"Feature","geometry":{"type":"Point","coordinates":[12.73036,47.32711]},"properties":{"name":"Ederhütte","country":"Austria","website":null,"opening_hours":null,"capacity":null,"phone":null,"address":null,"ele":null,"operator":null,"wikipedia":null,"wikidata":null,"description":null,"wheelchair":null,"osmType":"node","osmId":4687022700}},{"type":"Feature","geometry":{"type":"Point","coordinates":[11.05504,46.80181]},"properties":{"name":"Zwickauer Hütte - Rifugio Plan","country":"Austria","website":"https://13h.de/zwickauer/","opening_hours":"2024 Jul-Sep","capacity":"60","phone":"+39 0473 868188","address":null,"ele":"2989","operator":"Heinz Leitner","wikipedia":null,"wikidata":"Q244540","description":"Zwickauer Hütte wusste zum Zeitpunkt des Katalogdruckes noch nicht, ob Pächter wieder hochgehen darf. Pächter ist weiterhin Herr Leitner","wheelchair":null,"osmType":"node","osmId":4778542622,"elevation":"2989"}},{"type":"Feature","geometry":{"type":"Point","coordinates":[11.22746,46.95547]},"properties":{"name":"Teplitzerhütte - Rifugio Vedretta Pendente","country":"Austria","website":null,"opening_hours":"Jul 01-Sep 30","capacity":null,"phone":"+39 338 1358371","address":null,"ele":"2586","operator":null,"wikipedia":"de:Teplitzer Hütte","wikidata":"Q1393881","description":null,"wheelchair":null,"osmType":"node","osmId":4809608699,"elevation":"2586"}},{"type":"Feature","geometry":{"type":"Point","coordinates":[12.09003,47.47691]},"properties":{"name":"Almgasthof Möslalm","country":"Austria","website":null,"opening_hours":"We-Su 09:00-18:00","capacity":null,"phone":"+436648906000","address":"30, 6300 Wörgl, AT","ele":"960","operator":null,"wikipedia":null,"wikidata":null,"description":null,"wheelchair":"no","osmType":"node","osmId":4853837636,"elevation":"960"}},{"type":"Feature","geometry":{"type":"Point","coordinates":[15.32139,47.59825]},"properties":{"name":"Kobenkogelhütte","country":"Austria","website":null,"opening_hours":null,"capacity":null,"phone":null,"address":null,"ele":null,"operator":null,"wikipedia":null,"wikidata":null,"description":null,"wheelchair":null,"osmType":"node","osmId":4855927662}},{"type":"Feature","geometry":{"type":"Point","coordinates":[12.54021,47.45692]},"properties":{"name":"Streuböden","country":"Austria","website":null,"opening_hours":null,"capacity":null,"phone":null,"address":"56 Almen, 6391 Fieberbrunn, AT","ele":"1200","operator":null,"wikipedia":null,"wikidata":null,"description":null,"wheelchair":null,"osmType":"node","osmId":4858362723,"elevation":"1200"}},{"type":"Feature","geometry":{"type":"Point","coordinates":[13.74359,46.74655]},"properties":{"name":"Sauhauthütte","country":"Austria","website":null,"opening_hours":null,"capacity":null,"phone":null,"address":null,"ele":null,"operator":null,"wikipedia":null,"wikidata":null,"description":null,"wheelchair":null,"osmType":"node","osmId":4934699600}},{"type":"Feature","geometry":{"type":"Point","coordinates":[13.59848,47.13296]},"properties":{"name":"Müllnerhütte","country":"Austria","website":null,"opening_hours":null,"capacity":null,"phone":"+43 650 5090763","address":"476 Fichtengasse, 5583 Sankt Michael im Lungau","ele":null,"operator":"Hans Gruber","wikipedia":null,"wikidata":null,"description":null,"wheelchair":null,"osmType":"node","osmId":4994988821}},{"type":"Feature","geometry":{"type":"Point","coordinates":[13.12335,47.40623]},"properties":{"name":"Mitterbergalm","country":"Austria","website":"https://www.mitterbergalm.at/","opening_hours":null,"capacity":null,"phone":null,"address":"106 Mandlwandstraße, 5505 Mühlbach am Hochkönig, AT","ele":null,"operator":null,"wikipedia":null,"wikidata":null,"description":null,"wheelchair":null,"osmType":"node","osmId":5018714223}},{"type":"Feature","geometry":{"type":"Point","coordinates":[10.0099,47.51536]},"properties":{"name":"Alpe Hohenegg","country":"Austria","website":null,"opening_hours":null,"capacity":null,"phone":null,"address":null,"ele":null,"operator":null,"wikipedia":null,"wikidata":null,"description":null,"wheelchair":null,"osmType":"node","osmId":5358691298}},{"type":"Feature","geometry":{"type":"Point","coordinates":[12.59698,47.391]},"properties":{"name":"Hasenaualm – Selbstversorgerhütte Saalbach","country":"Austria","website":"https://www.hasenau.at/hasenaualm/","opening_hours":null,"capacity":null,"phone":"+43 6541 8931","address":"52 Hasenbachweg, 5754 Saalbach-Hinterglemm, AT","ele":"1562","operator":"Feriengut Hasenau GmbH","wikipedia":null,"wikidata":null,"description":"Urlaub in der Selbstversorgerhütte Hasenaualm in Saalbach Hinterglemm.","wheelchair":null,"osmType":"node","osmId":5483708979,"elevation":"1562"}},{"type":"Feature","geometry":{"type":"Point","coordinates":[13.15842,47.16102]},"properties":{"name":"Gamskarkogelhütte","country":"Austria","website":"http://www.gamskarkogelhuette.at/","opening_hours":null,"capacity":null,"phone":"+43 664 9203679","address":"26, 5630 Bad Hofgastein, AT","ele":"2465","operator":"Sektion Bad Gastein","wikipedia":"de:Gamskarkogelhütte","wikidata":"Q17574822","description":null,"wheelchair":null,"osmType":"node","osmId":5643719069,"elevation":"2465"}},{"type":"Feature","geometry":{"type":"Point","coordinates":[13.50261,46.69063]},"properties":{"name":"Gasser Alm","country":"Austria","website":null,"opening_hours":null,"capacity":null,"phone":null,"address":null,"ele":null,"operator":null,"wikipedia":null,"wikidata":null,"description":null,"wheelchair":null,"osmType":"node","osmId":5822380454}},{"type":"Feature","geometry":{"type":"Point","coordinates":[12.35456,47.19458]},"properties":{"name":"Mohaalm","country":"Austria","website":null,"opening_hours":null,"capacity":null,"phone":null,"address":null,"ele":"1410","operator":null,"wikipedia":null,"wikidata":null,"description":null,"wheelchair":null,"osmType":"node","osmId":5824024153,"elevation":"1410"}},{"type":"Feature","geometry":{"type":"Point","coordinates":[13.78105,47.65619]},"properties":{"name":"Loserhütte","country":"Austria","website":null,"opening_hours":null,"capacity":null,"phone":null,"address":"81, 8992 Altaussee, AT","ele":"1498","operator":"OeAV Sektion Ausseerland","wikipedia":"de:Loserhütte","wikidata":"Q15118843","description":"Schutzhütte des Alpenvereins mit Schlafmöglichkeiten und Restaurant","wheelchair":null,"osmType":"node","osmId":5849855316,"elevation":"1498"}},{"type":"Feature","geometry":{"type":"Point","coordinates":[13.24998,47.16856]},"properties":{"name":null,"country":"Austria","website":null,"opening_hours":null,"capacity":null,"phone":null,"address":"184 Hüttschlag, 5612","ele":null,"operator":null,"wikipedia":null,"wikidata":null,"description":null,"wheelchair":null,"osmType":"node","osmId":5865738785}},{"type":"Feature","geometry":{"type":"Point","coordinates":[11.83655,47.21998]},