{"type":"FeatureCollection","features":[{"type":"Feature","geometry":{"type":"Point","coordinates":[-123.0395,55.41636]},"properties":{"name":null,"country":"Canada","website":null,"opening_hours":null,"capacity":null,"phone":null,"address":null,"ele":null,"operator":null,"wikipedia":null,"wikidata":null,"description":null,"wheelchair":null,"osmType":"node","osmId":1660272035}},{"type":"Feature","geometry":{"type":"Point","coordinates":[-122.99599,55.4323]},"properties":{"name":null,"country":"Canada","website":null,"opening_hours":null,"capacity":null,"phone":null,"address":null,"ele":null,"operator":null,"wikipedia":null,"wikidata":null,"description":null,"wheelchair":null,"osmType":"node","osmId":1660272036}},{"type":"Feature","geometry":{"type":"Point","coordinates":[-123.05933,55.31487]},"properties":{"name":"Kirby's Villa","country":"Canada","website":null,"opening_hours":null,"capacity":null,"phone":null,"address":null,"ele":null,"operator":null,"wikipedia":null,"wikidata":null,"description":null,"wheelchair":null,"osmType":"node","osmId":1660287181}},{"type":"Feature","geometry":{"type":"Point","coordinates":[-123.03494,55.31979]},"properties":{"name":"Alpine 1","country":"Canada","website":null,"opening_hours":null,"capacity":null,"phone":null,"address":null,"ele":null,"operator":null,"wikipedia":null,"wikidata":null,"description":null,"wheelchair":null,"osmType":"node","osmId":1660287184}},{"type":"Feature","geometry":{"type":"Point","coordinates":[-123.02622,55.30365]},"properties":{"name":"Alpine 2","country":"Canada","website":null,"opening_hours":null,"capacity":null,"phone":null,"address":null,"ele":null,"operator":null,"wikipedia":null,"wikidata":null,"description":null,"wheelchair":null,"osmType":"node","osmId":1660306979}},{"type":"Feature","geometry":{"type":"Point","coordinates":[-122.71383,55.33486]},"properties":{"name":"snowmobile hut","country":"Canada","website":null,"opening_hours":null,"capacity":null,"phone":null,"address":null,"ele":null,"operator":null,"wikipedia":null,"wikidata":null,"description":null,"wheelchair":null,"osmType":"node","osmId":1946610482}},{"type":"Feature","geometry":{"type":"Point","coordinates":[-120.40023,50.41548]},"properties":{"name":"Old Cabin/Shelter","country":"Canada","website":null,"opening_hours":null,"capacity":null,"phone":null,"address":null,"ele":null,"operator":null,"wikipedia":null,"wikidata":null,"description":null,"wheelchair":null,"osmType":"node","osmId":2073149718}},{"type":"Feature","geometry":{"type":"Point","coordinates":[-124.13796,48.52412]},"properties":{"name":"Blueberry Cabin","country":"Canada","website":"https://www.kludahk.com/huts/","opening_hours":null,"capacity":null,"phone":null,"address":null,"ele":null,"operator":"Kludahk Outdoor Club","wikipedia":null,"wikidata":null,"description":null,"wheelchair":null,"osmType":"node","osmId":2409159841}},{"type":"Feature","geometry":{"type":"Point","coordinates":[-124.04471,48.52717]},"properties":{"name":"Meadow Cabin","country":"Canada","website":"https://www.kludahk.com/huts/","opening_hours":null,"capacity":null,"phone":null,"address":null,"ele":null,"operator":"Kludahk Outdoor Club","wikipedia":null,"wikidata":null,"description":null,"wheelchair":null,"osmType":"node","osmId":2409159842}},{"type":"Feature","geometry":{"type":"Point","coordinates":[-124.20483,48.54003]},"properties":{"name":"Noyse Lake Cabin","country":"Canada","website":"https://www.kludahk.com/huts/","opening_hours":null,"capacity":null,"phone":null,"address":null,"ele":null,"operator":"Kludahk Outdoor Club","wikipedia":null,"wikidata":null,"description":null,"wheelchair":null,"osmType":"node","osmId":2409159843}},{"type":"Feature","geometry":{"type":"Point","coordinates":[-124.27355,48.54834]},"properties":{"name":"Tent Lake Cabin","country":"Canada","website":"https://www.kludahk.com/huts/","opening_hours":null,"capacity":null,"phone":null,"address":null,"ele":null,"operator":"Kludahk Outdoor Club","wikipedia":null,"wikidata":null,"description":null,"wheelchair":null,"osmType":"node","osmId":2409159845}},{"type":"Feature","geometry":{"type":"Point","coordinates":[-124.08277,48.52988]},"properties":{"name":"Tower Cabin","country":"Canada","website":"https://www.kludahk.com/huts/","opening_hours":null,"capacity":null,"phone":null,"address":null,"ele":null,"operator":"Kludahk Outdoor Club","wikipedia":null,"wikidata":null,"description":null,"wheelchair":null,"osmType":"node","osmId":2409159846}},{"type":"Feature","geometry":{"type":"Point","coordinates":[-124.11668,48.52433]},"properties":{"name":"The Tea Hut","country":"Canada","website":"https://www.kludahk.com/huts/","opening_hours":null,"capacity":null,"phone":null,"address":null,"ele":null,"operator":"Kludahk Outdoor Club","wikipedia":null,"wikidata":null,"description":null,"wheelchair":null,"osmType":"node","osmId":3102729926}},{"type":"Feature","geometry":{"type":"Point","coordinates":[-124.44173,50.00172]},"properties":{"name":null,"country":"Canada","website":null,"opening_hours":null,"capacity":null,"phone":null,"address":null,"ele":null,"operator":null,"wikipedia":null,"wikidata":null,"description":null,"wheelchair":null,"osmType":"node","osmId":5686370521}},{"type":"Feature","geometry":{"type":"Point","coordinates":[-124.17659,49.93592]},"properties":{"name":"Vic Cole Lodge","country":"Canada","website":null,"opening_hours":null,"capacity":null,"phone":null,"address":null,"ele":null,"operator":null,"wikipedia":null,"wikidata":null,"description":null,"wheelchair":null,"osmType":"node","osmId":6355191703}},{"type":"Feature","geometry":{"type":"Point","coordinates":[-124.82772,58.42611]},"properties":{"name":"BC Parks Emergency Hut","country":"Canada","website":null,"opening_hours":null,"capacity":null,"phone":null,"address":null,"ele":null,"operator":null,"wikipedia":null,"wikidata":null,"description":null,"wheelchair":null,"osmType":"node","osmId":6670829587}},{"type":"Feature","geometry":{"type":"Point","coordinates":[-125.55741,49.78757]},"properties":{"name":null,"country":"Canada","website":null,"opening_hours":null,"capacity":null,"phone":null,"address":null,"ele":null,"operator":null,"wikipedia":null,"wikidata":null,"description":null,"wheelchair":null,"osmType":"node","osmId":8266668616}},{"type":"Feature","geometry":{"type":"Point","coordinates":[-124.9943,52.02166]},"properties":{"name":"Terra Nostra Guest Ranch","country":"Canada","website":"http://www.terranostra-guestranch.com","opening_hours":null,"capacity":null,"phone":null,"address":null,"ele":null,"operator":null,"wikipedia":null,"wikidata":null,"description":null,"wheelchair":null,"osmType":"node","osmId":10012559820}},{"type":"Feature","geometry":{"type":"Point","coordinates":[-125.5494,52.03797]},"properties":{"name":"Nuk Tessli Lodge","country":"Canada","website":"https://www.nuktessli.com/","opening_hours":null,"capacity":null,"phone":null,"address":"P.O. Box 143, Nimpo Lake, BC, V0L 1R0","ele":null,"operator":null,"wikipedia":null,"wikidata":null,"description":null,"wheelchair":null,"osmType":"node","osmId":10992505409}},{"type":"Feature","geometry":{"type":"Point","coordinates":[-125.14627,50.21047]},"properties":{"name":"Surge Narrows Lodge / Discovery Islands Lodge","country":"Canada","website":"https://www.coastmountainexpeditions.com/discovery-lodge-bb/discovery-lodge-location/","opening_hours":null,"capacity":null,"phone":null,"address":null,"ele":null,"operator":null,"wikipedia":null,"wikidata":null,"description":null,"wheelchair":null,"osmType":"node","osmId":13052450301}},{"type":"Feature","geometry":{"type":"Point","coordinates":[-123.51889,51.1128]},"properties":{"name":"Tyax Sky Cabin & Camp","country":"Canada","website":"https://www.tyaxadventures.com/skycamp","opening_hours":null,"capacity":null,"phone":null,"address":null,"ele":null,"operator":"Tyax","wikipedia":null,"wikidata":null,"description":null,"wheelchair":null,"osmType":"node","osmId":13443718559}},{"type":"Feature","geometry":{"type":"Point","coordinates":[-120.52129,51.00627]},"properties":{"name":"Luc's Cabin","country":"Canada","website":null,"opening_hours":null,"capacity":null,"phone":null,"address":null,"ele":null,"operator":"Kamloops Snowmobile Association","wikipedia":null,"wikidata":null,"description":null,"wheelchair":null,"osmType":"node","osmId":13571458356}},{"type":"Feature","geometry":{"type":"Point","coordinates":[-123.07041,49.83631]},"properties":{"name":"Brohm Ridge Chalet","country":"Canada","website":null,"opening_hours":null,"capacity":null,"phone":null,"address":null,"ele":null,"operator":"Black Tusk Snowmobile Club","wikipedia":null,"wikidata":null,"description":null,"wheelchair":null,"osmType":"way","osmId":112427760}},{"type":"Feature","geometry":{"type":"Point","coordinates":[-120.13829,50.72364]},"properties":{"name":"Lodge","country":"Canada","website":null,"opening_hours":null,"capacity":null,"phone":null,"address":null,"ele":null,"operator":null,"wikipedia":null,"wikidata":null,"description":null,"wheelchair":null,"osmType":"way","osmId":134726496}},{"type":"Feature","geometry":{"type":"Point","coordinates":[-123.03951,55.41636]},"properties":{"name":null,"country":"Canada","website":null,"opening_hours":null,"capacity":null,"phone":null,"address":null,"ele":null,"operator":null,"wikipedia":null,"wikidata":null,"description":null,"wheelchair":null,"osmType":"way","osmId":153317426}},{"type":"Feature","geometry":{"type":"Point","coordinates":[-120.32979,53.11822]},"properties":{"name":"Eagle Valley Cabin","country":"Canada","website":"https://ozalenkaalpineclub.ca/eagle-glacier-cabin-trail/","opening_hours":null,"capacity":null,"phone":null,"address":null,"ele":null,"operator":"Ozalenka Alpine Club","wikipedia":null,"wikidata":null,"description":null,"wheelchair":null,"osmType":"way","osmId":220141334}},{"type":"Feature","geometry":{"type":"Point","coordinates":[-123.08647,49.61298]},"properties":{"name":"Mountain Lake Hut","country":"Canada","website":null,"opening_hours":null,"capacity":null,"phone":null,"address":null,"ele":null,"operator":"BCMC","wikipedia":null,"wikidata":null,"description":null,"wheelchair":null,"osmType":"way","osmId":289989112}},{"type":"Feature","geometry":{"type":"Point","coordinates":[-126.35245,50.21842]},"properties":{"name":null,"country":"Canada","website":null,"opening_hours":null,"capacity":null,"phone":null,"address":null,"ele":null,"operator":null,"wikipedia":null,"wikidata":null,"description":null,"wheelchair":null,"osmType":"way","osmId":310114541}},{"type":"Feature","geometry":{"type":"Point","coordinates":[-126.35217,50.21867]},"properties":{"name":"Kapitany Lodge","country":"Canada","website":null,"opening_hours":null,"capacity":null,"phone":null,"address":null,"ele":null,"operator":null,"wikipedia":null,"wikidata":null,"description":null,"wheelchair":null,"osmType":"way","osmId":310114542}},{"type":"Feature","geometry":{"type":"Point","coordinates":[-125.63051,49.69452]},"properties":{"name":"Wheaton Hut","country":"Canada","website":null,"opening_hours":null,"capacity":null,"phone":null,"address":null,"ele":null,"operator":"Shawnigan Lake School/BC Parks","wikipedia":null,"wikidata":null,"description":null,"wheelchair":null,"osmType":"way","osmId":551754700}},{"type":"Feature","geometry":{"type":"Point","coordinates":[-122.87232,50.02235]},"properties":{"name":"Kees and Claire Hut","country":"Canada","website":"https://spearheadhuts.org/","opening_hours":null,"capacity":"38","phone":null,"address":null,"ele":null,"operator":null,"wikipedia":null,"wikidata":null,"description":null,"wheelchair":null,"osmType":"way","osmId":954714025}},{"type":"Feature","geometry":{"type":"Point","coordinates":[-121.40327,49.0435]},"properties":{"name":"Lodge","country":"Canada","website":"http://chilliwacklakecamp.ca/","opening_hours":null,"capacity":null,"phone":"+1-604-521-6775","address":null,"ele":null,"operator":"Foursquare Gospel Church of Canada","wikipedia":null,"wikidata":null,"description":null,"wheelchair":null,"osmType":"way","osmId":1089533297}},{"type":"Feature","geometry":{"type":"Point","coordinates":[-122.57408,50.67787]},"properties":{"name":"McGillivray Pass Lodge","country":"Canada","website":null,"opening_hours":null,"capacity":null,"phone":null,"address":null,"ele":"1860","operator":"Whitecap Alpine Adventures Inc.","wikipedia":null,"wikidata":null,"description":null,"wheelchair":null,"osmType":"way","osmId":1125314037,"elevation":"1860"}},{"type":"Feature","geometry":{"type":"Point","coordinates":[-122.57377,50.67755]},"properties":{"name":"Woodhall Sleeping Lodge","country":"Canada","website":null,"opening_hours":null,"capacity":null,"phone":null,"address":null,"ele":"1860","operator":"Whitecap Alpine Adventures Inc.","wikipedia":null,"wikidata":null,"description":null,"wheelchair":null,"osmType":"way","osmId":1125314042,"elevation":"1860"}},{"type":"Feature","geometry":{"type":"Point","coordinates":[-122.57366,50.67777]},"properties":{"name":null,"country":"Canada","website":null,"opening_hours":null,"capacity":null,"phone":null,"address":null,"ele":"1860","operator":"Whitecap Alpine Adventures Inc.","wikipedia":null,"wikidata":null,"description":null,"wheelchair":null,"osmType":"way","osmId":1125314043,"elevation":"1860"}},{"type":"Feature","geometry":{"type":"Point","coordinates":[-127.66107,54.44262]},"properties":{"name":"Burnie Glacier Chalet","country":"Canada","website":"https://bearmountaineering.ca/","opening_hours":null,"capacity":"10","phone":null,"address":null,"ele":null,"operator":"Bear Mountaineering","wikipedia":null,"wikidata":null,"description":null,"wheelchair":null,"osmType":"way","osmId":1128324008}},{"type":"Feature","geometry":{"type":"Point","coordinates":[-122.63028,49.59618]},"properties":{"name":"Pitt River Lodge","country":"Canada","website":"https://www.pittriverlodge.com/","opening_hours":null,"capacity":null,"phone":"+18006656206","address":null,"ele":null,"operator":null,"wikipedia":null,"wikidata":null,"description":null,"wheelchair":null,"osmType":"way","osmId":1152825201}},{"type":"Feature","geometry":{"type":"Point","coordinates":[-124.1731,49.89837]},"properties":{"name":"Chateau Rotary Cabin","country":"Canada","website":null,"opening_hours":null,"capacity":null,"phone":null,"address":null,"ele":null,"operator":null,"wikipedia":null,"wikidata":null,"description":"Insulated cabin No pellet stove as of March 2018","wheelchair":null,"osmType":"way","osmId":1280090944}},{"type":"Feature","geometry":{"type":"Point","coordinates":[-125.28722,49.18916]},"properties":{"name":"Hišimy̓awiƛ (5040 Alpine Hut)","country":"Canada","website":"https://www.alpineclubofcanada.ca/web/ACCMember/Huts/5040_Peak_Hut.aspx","opening_hours":null,"capacity":null,"phone":null,"address":null,"ele":null,"operator":"Alpine Club of Canada Vancouver Island Chapter","wikipedia":null,"wikidata":null,"description":null,"wheelchair":null,"osmType":"way","osmId":1289218518}},{"type":"Feature","geometry":{"type":"Point","coordinates":[-124.51626,49.90292]},"properties":{"name":"Powell Lake Outdoor Learning Center","country":"Canada","website":null,"opening_hours":null,"capacity":null,"phone":null,"address":null,"ele":null,"operator":null,"wikipedia":null,"wikidata":null,"description":null,"wheelchair":null,"osmType":"way","osmId":1310780429}},{"type":"Feature","geometry":{"type":"Point","coordinates":[-121.18278,54.19092]},"properties":{"name":"Dezaiko Lodge","country":"Canada","website":"www.dezaikolodge.com","opening_hours":null,"capacity":"8","phone":null,"address":null,"ele":null,"operator":"Dezaiko Lodge","wikipedia":null,"wikidata":null,"description":null,"wheelchair":null,"osmType":"way","osmId":1316269297}},{"type":"Feature","geometry":{"type":"Point","coordinates":[-127.28283,55.48931]},"properties":{"name":"Skeena Base Camp","country":"Canada","website":"https://skeenacatskiing.ca/","opening_hours":null,"capacity":null,"phone":null,"address":null,"ele":null,"operator":"Skeena Cat Skiing","wikipedia":null,"wikidata":null,"description":null,"wheelchair":null,"osmType":"way","osmId":1317791111}},{"type":"Feature","geometry":{"type":"Point","coordinates":[-125.77806,49.36514]},"properties":{"name":"Clayoquat Wilderness Lodge","country":"Canada","website":"https://clayoquotwildernesslodge.com/","opening_hours":null,"capacity":null,"phone":null,"address":null,"ele":null,"operator":null,"wikipedia":null,"wikidata":null,"description":null,"wheelchair":null,"osmType":"way","osmId":1318029049}},{"type":"Feature","geometry":{"type":"Point","coordinates":[-125.1343,50.39054]},"properties":{"name":null,"country":"Canada","website":null,"opening_hours":null,"capacity":null,"phone":null,"address":null,"ele":null,"operator":null,"wikipedia":null,"wikidata":null,"description":null,"wheelchair":null,"osmType":"way","osmId":1346303330}},{"type":"Feature","geometry":{"type":"Point","coordinates":[-120.46415,53.29767]},"properties":{"name":"Ozalenka Valley Cabin","country":"Canada","website":"https://ozalenkaalpineclub.ca/ozalenka-valley-cabin-trail/","opening_hours":null,"capacity":null,"phone":null,"address":null,"ele":null,"operator":"Ozalenka Alpine Club","wikipedia":null,"wikidata":null,"description":null,"wheelchair":null,"osmType":"way","osmId":1491545762}},{"type":"Feature","geometry":{"type":"Point","coordinates":[-118.03253,49.22532]},"properties":{"name":"Ben Shaw Shelter","country":"Canada","website":null,"opening_hours":null,"capacity":null,"phone":null,"address":null,"ele":null,"operator":"Castlegar Nordic","wikipedia":null,"wikidata":null,"description":null,"wheelchair":null,"osmType":"node","osmId":600646429,"elevation":"1258"}},{"type":"Feature","geometry":{"type":"Point","coordinates":[-117.99995,49.24271]},"properties":{"name":"Viking Centre","country":"Canada","website":null,"opening_hours":null,"capacity":null,"phone":null,"address":null,"ele":null,"operator":"Castlegar Nordic Ski Club","wikipedia":null,"wikidata":null,"description":null,"wheelchair":null,"osmType":"node","osmId":600647025}},{"type":"Feature","geometry":{"type":"Point","coordinates":[-117.96145,49.22802]},"properties":{"name":"Nordic Shelter","country":"Canada","website":null,"opening_hours":null,"capacity":null,"phone":null,"address":null,"ele":"1468","operator":"Castlegar Nordic","wikipedia":null,"wikidata":null,"description":null,"wheelchair":null,"osmType":"node","osmId":601770891,"elevation":"1468"}},{"type":"Feature","geometry":{"type":"Point","coordinates":[-117.98199,49.20773]},"properties":{"name":"Glenmerry Shelter","country":"Canada","website":null,"opening_hours":null,"capacity":null,"phone":null,"address":null,"ele":"1453","operator":"Castlegar Nordic","wikipedia":null,"wikidata":null,"description":null,"wheelchair":null,"osmType":"node","osmId":1557974406,"elevation":"1453"}},{"type":"Feature","geometry":{"type":"Point","coordinates":[-115.59338,51.336]},"properties":{"name":"Stoney Creek Wardens Cabin","country":"Canada","website":null,"opening_hours":null,"capacity":null,"phone":null,"address":null,"ele":null,"operator":null,"wikipedia":null,"wikidata":null,"description":null,"wheelchair":null,"osmType":"node","osmId":1965597744}},{"type":"Feature","geometry":{"type":"Point","coordinates":[-117.9034,49.21369]},"properties":{"name":"Red Dog","country":"Canada","website":null,"opening_hours":null,"capacity":null,"phone":null,"address":null,"ele":null,"operator":"Friends of Rossland Range Society","wikipedia":null,"wikidata":null,"description":null,"wheelchair":null,"osmType":"node","osmId":3871469416}},{"type":"Feature","geometry":{"type":"Point","coordinates":[-117.90196,49.23784]},"properties":{"name":"Viewpoint","country":"Canada","website":null,"opening_hours":null,"capacity":null,"phone":null,"address":null,"ele":null,"operator":"Friends of Rossland Range Society","wikipedia":null,"wikidata":null,"description":null,"wheelchair":null,"osmType":"node","osmId":3871469418}},{"type":"Feature","geometry":{"type":"Point","coordinates":[-115.89797,51.10836]},"properties":{"name":"Egypt Lake Shelter","country":"Canada","website":"https://www.pc.gc.ca/eng/pn-np/ab/banff/activ/randonee-backpacking/egypt.aspx","opening_hours":null,"capacity":"12","phone":null,"address":null,"ele":null,"operator":"Parks Canada","wikipedia":null,"wikidata":null,"description":null,"wheelchair":null,"osmType":"node","osmId":3916900518}},{"type":"Feature","geometry":{"type":"Point","coordinates":[-115.58321,50.99117]},"properties":{"name":"Halfway Lodge","country":"Canada","website":null,"opening_hours":null,"capacity":null,"phone":null,"address":null,"ele":null,"operator":null,"wikipedia":null,"wikidata":null,"description":null,"wheelchair":null,"osmType":"node","osmId":3938909481}},{"type":"Feature","geometry":{"type":"Point","coordinates":[-115.94677,51.16818]},"properties":{"name":"Shadow Lake Lodge","country":"Canada","website":"https://shadowlakelodge.com/","opening_hours":null,"capacity":null,"phone":null,"address":null,"ele":null,"operator":null,"wikipedia":null,"wikidata":null,"description":null,"wheelchair":null,"osmType":"node","osmId":5947818829}},{"type":"Feature","geometry":{"type":"Point","coordinates":[-118.19446,50.44926]},"properties":{"name":"Sol Mountain Lodge","country":"Canada","website":"https://www.solmountain.com/","opening_hours":null,"capacity":null,"phone":null,"address":null,"ele":null,"operator":null,"wikipedia":null,"wikidata":null,"description":null,"wheelchair":null,"osmType":"node","osmId":6095078504}},{"type":"Feature","geometry":{"type":"Point","coordinates":[-117.89086,49.20062]},"properties":{"name":"Booty's Cabin","country":"Canada","website":null,"opening_hours":null,"capacity":null,"phone":null,"address":null,"ele":null,"operator":"Friends of Rossland Range Society","wikipedia":null,"wikidata":null,"description":null,"wheelchair":null,"osmType":"node","osmId":6187429016}},{"type":"Feature","geometry":{"type":"Point","coordinates":[-117.91454,49.21527]},"properties":{"name":"Chimo","country":"Canada","website":null,"opening_hours":null,"capacity":null,"phone":null,"address":null,"ele":null,"operator":"Friends of Rossland Range Society","wikipedia":null,"wikidata":null,"description":null,"wheelchair":null,"osmType":"node","osmId":6194323109}},{"type":"Feature","geometry":{"type":"Point","coordinates":[-117.13079,51.87356]},"properties":{"name":"Icefall Lodge","country":"Canada","website":"https://icefall.ca/","opening_hours":null,"capacity":null,"phone":null,"address":null,"ele":"1900","operator":"Icefall Lodge","wikipedia":null,"wikidata":null,"description":null,"wheelchair":null,"osmType":"node","osmId":6370657041,"elevation":"1900"}},{"type":"Feature","geometry":{"type":"Point","coordinates":[-117.99581,49.23404]},"properties":{"name":"Strawberry Shelter","country":"Canada","website":null,"opening_hours":null,"capacity":null,"phone":null,"address":null,"ele":null,"operator":"Castlegar Nordic","wikipedia":null,"wikidata":null,"description":null,"wheelchair":null,"osmType":"node","osmId":7557127297}},{"type":"Feature","geometry":{"type":"Point","coordinates":[-115.61698,50.90692]},"properties":{"name":"Wonder Lodge Cook Shelter","country":"Canada","website":null,"opening_hours":null,"capacity":null,"phone":null,"address":null,"ele":null,"operator":null,"wikipedia":null,"wikidata":null,"description":null,"wheelchair":null,"osmType":"node","osmId":9002667717}},{"type":"Feature","geometry":{"type":"Point","coordinates":[-117.88357,49.22056]},"properties":{"name":"Crowe's Nest","country":"Canada","website":null,"opening_hours":null,"capacity":null,"phone":null,"address":null,"ele":null,"operator":"Friends of Rossland Range Society","wikipedia":null,"wikidata":null,"description":null,"wheelchair":null,"osmType":"node","osmId":9342558460}},{"type":"Feature","geometry":{"type":"Point","coordinates":[-117.16454,51.93668]},"properties":{"name":"Alexandra Cabin","country":"Canada","website":"https://www.icefall.ca/accommodation/alexandra-cabin","opening_hours":null,"capacity":null,"phone":null,"address":null,"ele":null,"operator":"Icefall Lodge","wikipedia":null,"wikidata":null,"description":null,"wheelchair":null,"osmType":"node","osmId":10580663628}},{"type":"Feature","geometry":{"type":"Point","coordinates":[-117.88972,49.80471]},"properties":{"name":"LQ Outpost","country":"Canada","website":"https://valkyradventures.com/lodge/the-outpost-mount-lequereux/","opening_hours":null,"capacity":"12","phone":null,"address":null,"ele":null,"operator":"Valkyr Adventures","wikipedia":null,"wikidata":null,"description":null,"wheelchair":null,"osmType":"node","osmId":10609574478}},{"type":"Feature","geometry":{"type":"Point","coordinates":[-93.10136,50.45627]},"properties":{"name":"Fishermans Cove Camp","country":"Canada","website":null,"opening_hours":null,"capacity":null,"phone":null,"address":null,"ele":null,"operator":null,"wikipedia":null,"wikidata":null,"description":null,"wheelchair":null,"osmType":"node","osmId":10895788711}},{"type":"Feature","geometry":{"type":"Point","coordinates":[-91.66996,57.1227]},"properties":{"name":"Nanuk Polar Bear Lodge","country":"Canada","website":null,"opening_hours":null,"capacity":null,"phone":null,"address":null,"ele":null,"operator":"Churchill Wild","wikipedia":null,"wikidata":null,"description":null,"wheelchair":null,"osmType":"node","osmId":11108227279}},{"type":"Feature","geometry":{"type":"Point","coordinates":[-117.0746,51.87715]},"properties":{"name":"Kirwan Hut","country":"Canada","website":"https://www.icefall.ca/accommodation/satellite-huts","opening_hours":null,"capacity":"12","phone":null,"address":null,"ele":null,"operator":"Icefall Lodge","wikipedia":null,"wikidata":null,"description":null,"wheelchair":null,"osmType":"node","osmId":11152196659}},{"type":"Feature","geometry":{"type":"Point","coordinates":[-117.14358,51.84877]},"properties":{"name":"Rostrum Cabin","country":"Canada","website":"https://www.icefall.ca/accommodation/satellite-huts","opening_hours":null,"capacity":"12","phone":null,"address":null,"ele":null,"operator":"Icefall Lodge","wikipedia":null,"wikidata":null,"description":null,"wheelchair":null,"osmType":"node","osmId":11152196660}},{"type":"Feature","geometry":{"type":"Point","coordinates":[-119.71491,49.86305]},"properties":{"name":"Telemark Nordic Club","country":"Canada","website":"https://telemarknordic.com/","opening_hours":null,"capacity":null,"phone":"+1-250-707-5925","address":null,"ele":null,"operator":null,"wikipedia":null,"wikidata":null,"description":null,"wheelchair":null,"osmType":"node","osmId":12601774501}},{"type":"Feature","geometry":{"type":"Point","coordinates":[-119.90021,50.95153]},"properties":{"name":"Cahilty Lodge","country":"Canada","website":null,"opening_hours":null,"capacity":null,"phone":null,"address":null,"ele":null,"operator":"Kamloops Snowmobile Association","wikipedia":null,"wikidata":null,"description":null,"wheelchair":null,"osmType":"node","osmId":13568837195}},{"type":"Feature","geometry":{"type":"Point","coordinates":[-115.76413,51.11504]},"properties":{"name":"Creekside Lodge","country":"Canada","website":null,"opening_hours":null,"capacity":null,"phone":null,"address":null,"ele":null,"operator":null,"wikipedia":null,"wikidata":null,"description":null,"wheelchair":null,"osmType":"way","osmId":51863595}},{"type":"Feature","geometry":{"type":"Point","coordinates":[-115.34245,50.83607]},"properties":{"name":"Mount Engadine Lodge","country":"Canada","website":null,"opening_hours":null,"capacity":null,"phone":null,"address":null,"ele":null,"operator":null,"wikipedia":null,"wikidata":null,"description":null,"wheelchair":null,"osmType":"way","osmId":171784187}},{"type":"Feature","geometry":{"type":"Point","coordinates":[-117.31554,51.26077]},"properties":{"name":"Purcell Mountain Lodge","country":"Canada","website":"https://www.purcellmountainlodge.com/","opening_hours":null,"capacity":null,"phone":"+1 888-767-8989","address":"V0A 1L0 Columbia-Shuswap","ele":null,"operator":null,"wikipedia":null,"wikidata":null,"description":null,"wheelchair":null,"osmType":"way","osmId":178584746}},{"type":"Feature","geometry":{"type":"Point","coordinates":[-115.19796,50.82295]},"properties":{"name":"KPOW Lounge","country":"Canada","website":null,"opening_hours":null,"capacity":null,"phone":null,"address":null,"ele":null,"operator":null,"wikipedia":null,"wikidata":null,"description":null,"wheelchair":null,"osmType":"way","osmId":262156366}},{"type":"Feature","geometry":{"type":"Point","coordinates":[-115.11386,50.69715]},"properties":{"name":"Pocaterra Hut","country":"Canada","website":null,"opening_hours":null,"capacity":null,"phone":null,"address":null,"ele":null,"operator":null,"wikipedia":null,"wikidata":null,"description":null,"wheelchair":null,"osmType":"way","osmId":262483107}},{"type":"Feature","geometry":{"type":"Point","coordinates":[-116.34432,51.35545]},"properties":{"name":"Elizabeth Parker Hut","country":"Canada","website":null,"opening_hours":null,"capacity":null,"phone":null,"address":null,"ele":"2040","operator":"Alpine Club of Canada","wikipedia":"en:Elizabeth Parker hut","wikidata":"Q5363320","description":null,"wheelchair":null,"osmType":"way","osmId":304740250,"elevation":"2040"}},{"type":"Feature","geometry":{"type":"Point","coordinates":[-115.61996,50.91011]},"properties":{"name":"Assiniboine Lodge","country":"Canada","website":null,"opening_hours":null,"capacity":null,"phone":null,"address":null,"ele":null,"operator":null,"wikipedia":null,"wikidata":null,"description":null,"wheelchair":null,"osmType":"way","osmId":316900956}},{"type":"Feature","geometry":{"type":"Point","coordinates":[-115.51903,50.89828]},"properties":{"name":"Bryant Creek Shelter","country":"Canada","website":null,"opening_hours":null,"capacity":null,"phone":null,"address":null,"ele":null,"operator":null,"wikipedia":null,"wikidata":null,"description":null,"wheelchair":null,"osmType":"way","osmId":316900981}},{"type":"Feature","geometry":{"type":"Point","coordinates":[-116.18786,51.298]},"properties":{"name":"Neil Colgan Hut","country":"Canada","website":null,"opening_hours":null,"capacity":null,"phone":null,"address":null,"ele":null,"operator":null,"wikipedia":"en:Neil Colgan Hut","wikidata":"Q14874715","description":null,"wheelchair":null,"osmType":"way","osmId":317597563}},{"type":"Feature","geometry":{"type":"Point","coordinates":[-116.76646,50.73766]},"properties":{"name":"Conrad Kain Hut","country":"Canada","website":null,"opening_hours":null,"capacity":null,"phone":null,"address":null,"ele":"2230","operator":"Alpine Club of Canada","wikipedia":null,"wikidata":"Q5162549","description":"https://www.alpineclubofcanada.ca/web/ACCMember/Huts/Conrad_Kain_Hut.aspx Elevation 2230 metres","wheelchair":null,"osmType":"way","osmId":359368823,"elevation":"2230"}},{"type":"Feature","geometry":{"type":"Point","coordinates":[-115.38551,51.09025]},"properties":{"name":"Canmore Nordic Centre Day Lodge","country":"Canada","website":null,"opening_hours":"Mo-Su 10:00-17:00","capacity":null,"phone":null,"address":"1988 Olympic Way, T1W 2T6 Canmore","ele":null,"operator":"Cornerstone Cafe","wikipedia":null,"wikidata":null,"description":"The Daylodge is open 9am-5:30pm daily. The Daylodge has a Cafe (Open 10am-5pm), showers (Open 9am-4:30pm), Cross Country Skiing museum and information desk for any questions or pass sales (Open 9am-5pm)","wheelchair":null,"osmType":"way","osmId":360559335}},{"type":"Feature","geometry":{"type":"Point","coordinates":[-117.75043,53.41891]},"properties":{"name":"Hinton Nordic Centre","country":"Canada","website":"https://hintonnordic.ca/","opening_hours":null,"capacity":null,"phone":null,"address":"Box 1465, T7V 1X7 Hinton","ele":null,"operator":"Hinton Nordic  Skiers","wikipedia":null,"wikidata":null,"description":null,"wheelchair":null,"osmType":"way","osmId":364035235}},{"type":"Feature","geometry":{"type":"Point","coordinates":[-118.83198,50.78831]},"properties":{"name":"Owlhead Chalet","country":"Canada","website":null,"opening_hours":null,"capacity":null,"phone":null,"address":null,"ele":null,"operator":null,"wikipedia":null,"wikidata":null,"description":null,"wheelchair":null,"osmType":"way","osmId":388333015}},{"type":"Feature","geometry":{"type":"Point","coordinates":[-116.07746,51.52305]},"properties":{"name":"Skoki Lodge","country":"Canada","website":"https://www.skoki.com/","opening_hours":null,"capacity":null,"phone":null,"address":null,"ele":null,"operator":null,"wikipedia":"en:Skoki Ski Lodge","wikidata":"Q7536163","description":null,"wheelchair":null,"osmType":"way","osmId":392355341}},{"type":"Feature","geometry":{"type":"Point","coordinates":[-115.49147,50.72236]},"properties":{"name":"Talus Lodge","country":"Canada","website":"https://www.taluslodge.com/","opening_hours":null,"capacity":null,"phone":null,"address":null,"ele":null,"operator":null,"wikipedia":null,"wikidata":null,"description":null,"wheelchair":null,"osmType":"way","osmId":554551091}},{"type":"Feature","geometry":{"type":"Point","coordinates":[-116.30294,50.47259]},"properties":{"name":"Paradise Cabin","country":"Canada","website":null,"opening_hours":null,"capacity":null,"phone":null,"address":null,"ele":null,"operator":null,"wikipedia":null,"wikidata":null,"description":null,"wheelchair":null,"osmType":"way","osmId":614569362}},{"type":"Feature","geometry":{"type":"Point","coordinates":[-117.14,49.92408]},"properties":{"name":"Mt. Carlyle Backcountry Lodge","country":"Canada","website":"https://www.skihikebc.com/the-lodge/","opening_hours":null,"capacity":"12","phone":null,"address":null,"ele":null,"operator":null,"wikipedia":null,"wikidata":null,"description":null,"wheelchair":null,"osmType":"way","osmId":715149369}},{"type":"Feature","geometry":{"type":"Point","coordinates":[-116.67347,49.90366]},"properties":{"name":"Powder Creek Lodge","country":"Canada","website":"https://www.powdercreeklodge.com/","opening_hours":null,"capacity":null,"phone":null,"address":null,"ele":null,"operator":null,"wikipedia":null,"wikidata":null,"description":null,"wheelchair":null,"osmType":"way","osmId":738644684}},{"type":"Feature","geometry":{"type":"Point","coordinates":[-117.70228,51.44809]},"properties":{"name":"Sorcerer Lodge","country":"Canada","website":"https://www.sorcererlodge.com/","opening_hours":null,"capacity":null,"phone":null,"address":null,"ele":null,"operator":null,"wikipedia":null,"wikidata":null,"description":null,"wheelchair":null,"osmType":"way","osmId":754352050}},{"type":"Feature","geometry":{"type":"Point","coordinates":[-117.55033,51.54977]},"properties":{"name":"Sunrise Lodge","country":"Canada","website":"https://www.gah.ca/","opening_hours":null,"capacity":null,"phone":null,"address":null,"ele":null,"operator":"Golden Alpine Holidays","wikipedia":null,"wikidata":null,"description":null,"wheelchair":null,"osmType":"way","osmId":754352053}},{"type":"Feature","geometry":{"type":"Point","coordinates":[-117.59485,51.59068]},"properties":{"name":"Vista Lodge","country":"Canada","website":"https://www.gah.ca/","opening_hours":null,"capacity":null,"phone":null,"address":null,"ele":null,"operator":"Golden Alpine Holidays","wikipedia":null,"wikidata":null,"description":null,"wheelchair":null,"osmType":"way","osmId":754352056}},{"type":"Feature","geometry":{"type":"Point","coordinates":[-117.58149,51.57158]},"properties":{"name":"Meadow Lodge","country":"Canada","website":"https://www.gah.ca/","opening_hours":null,"capacity":null,"phone":null,"address":null,"ele":null,"operator":"Golden Alpine Holidays","wikipedia":null,"wikidata":null,"description":null,"wheelchair":null,"osmType":"way","osmId":754352057}},{"type":"Feature","geometry":{"type":"Point","coordinates":[-117.6174,51.63512]},"properties":{"name":"Sentry Lodge","country":"Canada","website":"https://www.gah.ca/","opening_hours":null,"capacity":null,"phone":null,"address":null,"ele":null,"operator":"Golden Alpine Holidays","wikipedia":null,"wikidata":null,"description":null,"wheelchair":null,"osmType":"way","osmId":754352058}},{"type":"Feature","geometry":{"type":"Point","coordinates":[-117.00202,51.69877]},"properties":{"name":"Campbell Icefield Chalet","country":"Canada","website":"https://skigolden.com","opening_hours":null,"capacity":null,"phone":null,"address":null,"ele":null,"operator":"Campbell Icefield Chalet","wikipedia":null,"wikidata":null,"description":null,"wheelchair":null,"osmType":"way","osmId":754363502}},{"type":"Feature","geometry":{"type":"Point","coordinates":[-116.48985,51.6346]},"properties":{"name":"Bow Hut","country":"Canada","website":"https://www.alpineclubofcanada.ca/web/ACCMember/Huts/Bow_Hut.aspx","opening_hours":null,"capacity":null,"phone":null,"address":null,"ele":"2350","operator":"Alpine Club of Canada","wikipedia":null,"wikidata":"Q4950640","description":null,"wheelchair":null,"osmType":"way","osmId":754366571,"elevation":"2350"}},{"type":"Feature","geometry":{"type":"Point","coordinates":[-118.25531,52.66265]},"properties":{"name":"Wates-Gibson Hut","country":"Canada","website":"https://www.alpineclubofcanada.ca/web/ACCMember/Huts/Wates_Gibson_Hut.aspx","opening_hours":null,"capacity":null,"phone":null,"address":null,"ele":null,"operator":"Alpine Club of Canada","wikipedia":null,"wikidata":null,"description":null,"wheelchair":null,"osmType":"way","osmId":754437865}},{"type":"Feature","geometry":{"type":"Point","coordinates":[-116.67057,51.61799]},"properties":{"name":"Amiskwi Lodge","country":"Canada","website":"https://amiskwi.com/","opening_hours":null,"capacity":null,"phone":null,"address":null,"ele":null,"operator":null,"wikipedia":null,"wikidata":null,"description":null,"wheelchair":null,"osmType":"way","osmId":754723034}},{"type":"Feature","geometry":{"type":"Point","coordinates":[-116.63527,51.69962]},"properties":{"name":"Mistaya Lodge","country":"Canada","website":"https://mistayalodge.com/","opening_hours":null,"capacity":null,"phone":null,"address":null,"ele":null,"operator":null,"wikipedia":null,"wikidata":null,"description":null,"wheelchair":null,"osmType":"way","osmId":754723037}},{"type":"Feature","geometry":{"type":"Point","coordinates":[-117.60125,51.85876]},"properties":{"name":"Chatter Creek Lodge","country":"Canada","website":"https://chattercreek.ca/","opening_hours":null,"capacity":null,"phone":null,"address":null,"ele":null,"operator":null,"wikipedia":null,"wikidata":null,"description":null,"wheelchair":null,"osmType":"way","osmId":755052133}},{"type":"Feature","geometry":{"type":"Point","coordinates":[-117.91294,51.30519]},"properties":{"name":"Moloch Chalet","country":"Canada","website":"https://selkirkexperience.com/powd_chalets.html","opening_hours":null,"capacity":null,"phone":null,"address":null,"ele":null,"operator":"Selkirk Mountain Experience","wikipedia":null,"wikidata":null,"description":null,"wheelchair":null,"osmType":"way","osmId":758283730}},{"type":"Feature","geometry":{"type":"Point","coordinates":[-117.98036,51.26805]},"properties":{"name":"Durrand Glacier Chalet","country":"Canada","website":"https://selkirkexperience.com/powd_chalets.html","opening_hours":null,"capacity":null,"phone":null,"address":null,"ele":null,"operator":"Selkirk Mountain Experience","wikipedia":null,"wikidata":null,"description":null,"wheelchair":null,"osmType":"way","osmId":758283735}},{"type":"Feature","geometry":{"type":"Point","coordinates":[-116.235,50.8976]},"properties":{"name":"Diana Lake Lodge","country":"Canada","website":"https://dianalake.ca/","opening_hours":null,"capacity":null,"phone":null,"address":null,"ele":null,"operator":null,"wikipedia":null,"wikidata":null,"description":null,"wheelchair":null,"osmType":"way","osmId":759655651}},{"type":"Feature","geometry":{"type":"Point","coordinates":[-117.92056,51.27513]},"properties":{"name":"Empire Lake Chalet","country":"Canada","website":"https://selkirkexperience.com/hike_chalets_empire.html","opening_hours":null,"capacity":null,"phone":null,"address":null,"ele":null,"operator":"Selkirk Mountain Experience","wikipedia":null,"wikidata":null,"description":null,"wheelchair":null,"osmType":"way","osmId":759907786}},{"type":"Feature","geometry":{"type":"Point","coordinates":[-115.08114,51.39886]},"properties":{"name":"The Lodge","country":"Canada","website":null,"opening_hours":null,"capacity":null,"phone":null,"address":null,"ele":null,"operator":null,"wikipedia":null,"wikidata":null,"description":null,"wheelchair":null,"osmType":"way","osmId":878352916}},{"type":"Feature","geometry":{"type":"Point","coordinates":[-119.29004,49.10572]},"properties":{"name":null,"country":"Canada","website":null,"opening_hours":null,"capacity":null,"phone":null,"address":null,"ele":null,"operator":null,"wikipedia":null,"wikidata":null,"description":null,"wheelchair":null,"osmType":"way","osmId":917874261}},{"type":"Feature","geometry":{"type":"Point","coordinates":[-118.26005,52.47115]},"properties":{"name":"Mallard Mountain Lodge","country":"Canada","website":"https://canadianadventurecompany.com/","opening_hours":null,"capacity":null,"phone":"+1-250-835-4516","address":"V0E 2Z0 Valemount","ele":null,"operator":null,"wikipedia":null,"wikidata":null,"description":null,"wheelchair":null,"osmType":"way","osmId":966782844}},{"type":"Feature","geometry":{"type":"Point","coordinates":[-117.34301,50.98006]},"properties":{"name":"Battle Abbey","country":"Canada","website":"https://www.battleabbey.ca/","opening_hours":null,"capacity":null,"phone":null,"address":null,"ele":null,"operator":null,"wikipedia":null,"wikidata":null,"description":null,"wheelchair":null,"osmType":"way","osmId":967086429}},{"type":"Feature","geometry":{"type":"Point","coordinates":[-114.04439,49.02292]},"properties":{"name":"Cameron Lake Cabin","country":"Canada","website":"https://www.alpineclubofcanada.ca/web/ACCMember/Huts/Cameron_Lake_Cabin.aspx","opening_hours":null,"capacity":null,"phone":null,"address":null,"ele":null,"operator":"Alpine Club of Canada","wikipedia":null,"wikidata":null,"description":null,"wheelchair":null,"osmType":"way","osmId":1059661361}},{"type":"Feature","geometry":{"type":"Point","coordinates":[-101.8533,54.7548]},"properties":{"name":"Chalet","country":"Canada","website":null,"opening_hours":null,"capacity":null,"phone":null,"address":null,"ele":null,"operator":null,"wikipedia":null,"wikidata":null,"description":null,"wheelchair":null,"osmType":"way","osmId":1071171105}},{"type":"Feature","geometry":{"type":"Point","coordinates":[-118.24797,50.79813]},"properties":{"name":"Blanket Glacier Chalet","country":"Canada","website":"http://www.blanketglacierchalet.com/","opening_hours":null,"capacity":null,"phone":null,"address":null,"ele":null,"operator":null,"wikipedia":null,"wikidata":null,"description":null,"wheelchair":null,"osmType":"way","osmId":1134668261}},{"type":"Feature","geometry":{"type":"Point","coordinates":[-117.72671,51.04464]},"properties":{"name":"Selkirk Lodge","country":"Canada","website":"https://www.selkirklodge.ca/","opening_hours":null,"capacity":null,"phone":null,"address":null,"ele":null,"operator":null,"wikipedia":null,"wikidata":null,"description":null,"wheelchair":null,"osmType":"way","osmId":1134671683}},{"type":"Feature","geometry":{"type":"Point","coordinates":[-117.55318,50.97437]},"properties":{"name":"Snowfall Lodge","country":"Canada","website":null,"opening_hours":null,"capacity":null,"phone":null,"address":null,"ele":null,"operator":"Icefall Lodge","wikipedia":null,"wikidata":null,"description":null,"wheelchair":null,"osmType":"way","osmId":1134719474}},{"type":"Feature","geometry":{"type":"Point","coordinates":[-117.46963,51.21431]},"properties":{"name":"Asulkan Cabin","country":"Canada","website":"https://www.alpineclubofcanada.ca/web/ACCMember/Huts/Asulkan_Cabin.aspx","opening_hours":null,"capacity":null,"phone":null,"address":null,"ele":null,"operator":"Alpine Club of Canada","wikipedia":null,"wikidata":null,"description":null,"wheelchair":null,"osmType":"way","osmId":1136517403}},{"type":"Feature","geometry":{"type":"Point","coordinates":[-117.58996,50.09157]},"properties":{"name":"Valhalla Mountain Touring Lodge","country":"Canada","website":"https://www.vmt.ca/","opening_hours":null,"capacity":"14","phone":null,"address":null,"ele":null,"operator":"Valhalla Mountain Touring","wikipedia":null,"wikidata":null,"description":null,"wheelchair":null,"osmType":"way","osmId":1137973037}},{"type":"Feature","geometry":{"type":"Point","coordinates":[-117.96842,49.87471]},"properties":{"name":"Valkyr Lodge","country":"Canada","website":"https://valkyradventures.com/lodge/valkyr-lodge-naumulten-mountain/","opening_hours":null,"capacity":"12","phone":null,"address":null,"ele":null,"operator":"Valkyr Adventures","wikipedia":null,"wikidata":null,"description":null,"wheelchair":null,"osmType":"way","osmId":1138195676}},{"type":"Feature","geometry":{"type":"Point","coordinates":[-117.19377,49.77064]},"properties":{"name":"Kokanee Glacier Cabin","country":"Canada","website":"https://www.alpineclubofcanada.ca/web/ACCMember/Huts/Kokanee_Glacier_Cabin.aspx","opening_hours":null,"capacity":"13","phone":null,"address":null,"ele":null,"operator":"Alpine Club of Canada","wikipedia":null,"wikidata":null,"description":null,"wheelchair":null,"osmType":"way","osmId":1138197645}},{"type":"Feature","geometry":{"type":"Point","coordinates":[-117.92533,49.81895]},"properties":{"name":"Hilda Hut","country":"Canada","website":"https://valkyradventures.com/lodge/hilda-hut-mount-hilda/","opening_hours":null,"capacity":"12","phone":null,"address":null,"ele":null,"operator":"Valkyr Adventures","wikipedia":null,"wikidata":null,"description":null,"wheelchair":null,"osmType":"way","osmId":1138197646}},{"type":"Feature","geometry":{"type":"Point","coordinates":[-117.04355,51.88363]},"properties":{"name":"Mons Hut","country":"Canada","website":"https://www.icefall.ca/accommodation/satellite-huts","opening_hours":null,"capacity":"12","phone":null,"address":null,"ele":null,"operator":"Icefall Lodge","wikipedia":null,"wikidata":null,"description":null,"wheelchair":null,"osmType":"way","osmId":1203021998}},{"type":"Feature","geometry":{"type":"Point","coordinates":[-115.24624,51.02997]},"properties":{"name":null,"country":"Canada","website":null,"opening_hours":null,"capacity":null,"phone":null,"address":null,"ele":null,"operator":null,"wikipedia":null,"wikidata":null,"description":null,"wheelchair":null,"osmType":"way","osmId":1211351326}},{"type":"Feature","geometry":{"type":"Point","coordinates":[-117.10694,49.39707]},"properties":{"name":"Ymir Backcountry Lodge","country":"Canada","website":null,"opening_hours":null,"capacity":"16","phone":null,"address":null,"ele":null,"operator":null,"wikipedia":null,"wikidata":null,"description":null,"wheelchair":null,"osmType":"way","osmId":1212886409}},{"type":"Feature","geometry":{"type":"Point","coordinates":[-117.72215,49.87728]},"properties":{"name":"Ice Creek Lodge","country":"Canada","website":"https://www.icecreeklodge.com/","opening_hours":null,"capacity":"12","phone":null,"address":null,"ele":null,"operator":null,"wikipedia":null,"wikidata":null,"description":null,"wheelchair":null,"osmType":"way","osmId":1230903804}},{"type":"Feature","geometry":{"type":"Point","coordinates":[-118.74517,51.05306]},"properties":{"name":"K3 Lodge","country":"Canada","website":"https://www.k3catski.com/default.htm","opening_hours":null,"capacity":null,"phone":null,"address":null,"ele":null,"operator":"K3 Cat Ski","wikipedia":null,"wikidata":null,"description":null,"wheelchair":null,"osmType":"way","osmId":1230964133}},{"type":"Feature","geometry":{"type":"Point","coordinates":[-114.73733,51.52667]},"properties":{"name":"Sunseeker Cabin","country":"Canada","website":null,"opening_hours":null,"capacity":null,"phone":null,"address":null,"ele":null,"operator":null,"wikipedia":null,"wikidata":null,"description":null,"wheelchair":null,"osmType":"way","osmId":1267613665}},{"type":"Feature","geometry":{"type":"Point","coordinates":[-117.49182,51.26383]},"properties":{"name":"Arthur O. Wheeler Hut","country":"Canada","website":null,"opening_hours":null,"capacity":null,"phone":null,"address":null,"ele":"1250","operator":"Alpine Club of Canada","wikipedia":"en:Arthur O. Wheeler hut","wikidata":"Q3423104","description":null,"wheelchair":null,"osmType":"way","osmId":1297406423,"elevation":"1250"}},{"type":"Feature","geometry":{"type":"Point","coordinates":[-118.71473,51.17478]},"properties":{"name":"Mustang Powder Lodge","country":"Canada","website":"https://www.mustangpowder.com/","opening_hours":null,"capacity":null,"phone":null,"address":null,"ele":null,"operator":"Mustang Powder Cat Skiing","wikipedia":null,"wikidata":null,"description":null,"wheelchair":null,"osmType":"way","osmId":1316461159}},{"type":"Feature","geometry":{"type":"Point","coordinates":[-117.8948,49.21934]},"properties":{"name":"Mosquito Cabin","country":"Canada","website":null,"opening_hours":null,"capacity":null,"phone":null,"address":null,"ele":null,"operator":"Friends of Rossland Range Society","wikipedia":null,"wikidata":null,"description":null,"wheelchair":null,"osmType":"way","osmId":1359528295}},{"type":"Feature","geometry":{"type":"Point","coordinates":[-115.07309,51.62921]},"properties":{"name":null,"country":"Canada","website":null,"opening_hours":null,"capacity":null,"phone":null,"address":null,"ele":null,"operator":null,"wikipedia":null,"wikidata":null,"description":null,"wheelchair":null,"osmType":"way","osmId":1390847800}},{"type":"Feature","geometry":{"type":"Point","coordinates":[-115.22878,51.64494]},"properties":{"name":null,"country":"Canada","website":null,"opening_hours":null,"capacity":null,"phone":null,"address":null,"ele":null,"operator":null,"wikipedia":null,"wikidata":null,"description":null,"wheelchair":null,"osmType":"way","osmId":1390854688}},{"type":"Feature","geometry":{"type":"Point","coordinates":[-119.21146,53.10904]},"properties":{"name":"Cabin","country":"Canada","website":null,"opening_hours":null,"capacity":null,"phone":null,"address":null,"ele":null,"operator":null,"wikipedia":null,"wikidata":null,"description":null,"wheelchair":null,"osmType":"way","osmId":1395092472}},{"type":"Feature","geometry":{"type":"Point","coordinates":[-115.91927,49.59487]},"properties":{"name":"17/18","country":"Canada","website":null,"opening_hours":null,"capacity":null,"phone":null,"address":null,"ele":null,"operator":"3 bars ranch","wikipedia":null,"wikidata":null,"description":null,"wheelchair":null,"osmType":"way","osmId":1425619546}},{"type":"Feature","geometry":{"type":"Point","coordinates":[-115.91905,49.59479]},"properties":{"name":"19/20","country":"Canada","website":null,"opening_hours":null,"capacity":null,"phone":null,"address":null,"ele":null,"operator":"3 Bars Ranch","wikipedia":null,"wikidata":null,"description":null,"wheelchair":null,"osmType":"way","osmId":1426346846}},{"type":"Feature","geometry":{"type":"Point","coordinates":[-115.91944,49.59497]},"properties":{"name":"15/16","country":"Canada","website":null,"opening_hours":null,"capacity":null,"phone":null,"address":null,"ele":null,"operator":null,"wikipedia":null,"wikidata":null,"description":null,"wheelchair":null,"osmType":"way","osmId":1426346847}},{"type":"Feature","geometry":{"type":"Point","coordinates":[-115.9196,49.59508]},"properties":{"name":"13/14","country":"Canada","website":null,"opening_hours":null,"capacity":null,"phone":null,"address":null,"ele":null,"operator":null,"wikipedia":null,"wikidata":null,"description":null,"wheelchair":null,"osmType":"way","osmId":1426346848}},{"type":"Feature","geometry":{"type":"Point","coordinates":[-115.91972,49.59527]},"properties":{"name":"11/12","country":"Canada","website":null,"opening_hours":null,"capacity":null,"phone":null,"address":null,"ele":null,"operator":null,"wikipedia":null,"wikidata":null,"description":null,"wheelchair":null,"osmType":"way","osmId":1426346849}},{"type":"Feature","geometry":{"type":"Point","coordinates":[-115.91957,49.59544]},"properties":{"name":"9/10","country":"Canada","website":null,"opening_hours":null,"capacity":null,"phone":null,"address":null,"ele":null,"operator":null,"wikipedia":null,"wikidata":null,"description":null,"wheelchair":null,"osmType":"way","osmId":1426346850}},{"type":"Feature","geometry":{"type":"Point","coordinates":[-115.91941,49.5956]},"properties":{"name":"7/8","country":"Canada","website":null,"opening_hours":null,"capacity":null,"phone":null,"address":null,"ele":null,"operator":null,"wikipedia":null,"wikidata":null,"description":null,"wheelchair":null,"osmType":"way","osmId":1426346851}},{"type":"Feature","geometry":{"type":"Point","coordinates":[-115.91903,49.59581]},"properties":{"name":"5/6","country":"Canada","website":null,"opening_hours":null,"capacity":null,"phone":null,"address":null,"ele":null,"operator":null,"wikipedia":null,"wikidata":null,"description":null,"wheelchair":null,"osmType":"way","osmId":1426346852}},{"type":"Feature","geometry":{"type":"Point","coordinates":[-115.91886,49.59574]},"properties":{"name":"3/4","country":"Canada","website":null,"opening_hours":null,"capacity":null,"phone":null,"address":null,"ele":null,"operator":null,"wikipedia":null,"wikidata":null,"description":null,"wheelchair":null,"osmType":"way","osmId":1426346853}},{"type":"Feature","geometry":{"type":"Point","coordinates":[-115.9187,49.59568]},"properties":{"name":"1/2","country":"Canada","website":null,"opening_hours":null,"capacity":null,"phone":null,"address":null,"ele":null,"operator":null,"wikipedia":null,"wikidata":null,"description":null,"wheelchair":null,"osmType":"way","osmId":1426346854}},{"type":"Feature","geometry":{"type":"Point","coordinates":[-117.98078,50.98907]},"properties":{"name":"Hemlock Hut","country":"Canada","website":"https://www.revelstokeguides.com/2026-hemlock-hut","opening_hours":null,"capacity":null,"phone":null,"address":null,"ele":null,"operator":"Revelstoke Backcountry Guides","wikipedia":null,"wikidata":null,"description":null,"wheelchair":null,"osmType":"way","osmId":1434990996}},{"type":"Feature","geometry":{"type":"Point","coordinates":[-116.10819,52.49856]},"properties":{"name":null,"country":"Canada","website":null,"opening_hours":null,"capacity":null,"phone":null,"address":null,"ele":null,"operator":null,"wikipedia":null,"wikidata":null,"description":null,"wheelchair":null,"osmType":"way","osmId":1453261988}},{"type":"Feature","geometry":{"type":"Point","coordinates":[-116.10757,52.49838]},"properties":{"name":null,"country":"Canada","website":null,"opening_hours":null,"capacity":null,"phone":null,"address":null,"ele":null,"operator":null,"wikipedia":null,"wikidata":null,"description":null,"wheelchair":null,"osmType":"way","osmId":1453261989}},{"type":"Feature","geometry":{"type":"Point","coordinates":[-116.10723,52.49833]},"properties":{"name":null,"country":"Canada","website":null,"opening_hours":null,"capacity":null,"phone":null,"address":null,"ele":null,"operator":null,"wikipedia":null,"wikidata":null,"description":null,"wheelchair":null,"osmType":"way","osmId":1453261990}},{"type":"Feature","geometry":{"type":"Point","coordinates":[-116.10813,52.498]},"properties":{"name":null,"country":"Canada","website":null,"opening_hours":null,"capacity":null,"phone":null,"address":null,"ele":null,"operator":null,"wikipedia":null,"wikidata":null,"description":null,"wheelchair":null,"osmType":"way","osmId":1453261991}},{"type":"Feature","geometry":{"type":"Point","coordinates":[-116.10743,52.49796]},"properties":{"name":"Coliseum Mountain Resort","country":"Canada","website":"https://coliseummountainresort.com/","opening_hours":null,"capacity":null,"phone":"+1 403-598-3370","address":"309 Shunda Creek Road, Nordegg","ele":null,"operator":null,"wikipedia":null,"wikidata":null,"description":null,"wheelchair":null,"osmType":"way","osmId":1453261992}},{"type":"Feature","geometry":{"type":"Point","coordinates":[-116.10659,52.49794]},"properties":{"name":null,"country":"Canada","website":null,"opening_hours":null,"capacity":null,"phone":null,"address":null,"ele":null,"operator":null,"wikipedia":null,"wikidata":null,"description":null,"wheelchair":null,"osmType":"way","osmId":1453261993}},{"type":"Feature","geometry":{"type":"Point","coordinates":[-67.18581,47.20687]},"properties":{"name":"Loose Moose Lodge","country":"Canada","website":"https://loosemooselodge.ca/","opening_hours":null,"capacity":null,"phone":null,"address":"3826 Route 385, Lorne","ele":null,"operator":null,"wikipedia":null,"wikidata":null,"description":null,"wheelchair":null,"osmType":"node","osmId":3669308064}},{"type":"Feature","geometry":{"type":"Point","coordinates":[-72.99322,46.64798]},"properties":{"name":null,"country":"Canada","website":null,"opening_hours":null,"capacity":null,"phone":null,"address":null,"ele":null,"operator":null,"wikipedia":null,"wikidata":null,"description":null,"wheelchair":null,"osmType":"node","osmId":3778183685}},{"type":"Feature","geometry":{"type":"Point","coordinates":[-73.16044,46.66228]},"properties":{"name":"Refuge Huppé","country":"Canada","website":null,"opening_hours":null,"capacity":null,"phone":null,"address":null,"ele":null,"operator":null,"wikipedia":null,"wikidata":null,"description":null,"wheelchair":null,"osmType":"node","osmId":3792666501}},{"type":"Feature","geometry":{"type":"Point","coordinates":[-75.54984,46.69035]},"properties":{"name":"Abri de la Paroi de l'aube","country":"Canada","website":null,"opening_hours":null,"capacity":null,"phone":null,"address":null,"ele":null,"operator":null,"wikipedia":null,"wikidata":null,"description":null,"wheelchair":null,"osmType":"node","osmId":4030815512}},{"type":"Feature","geometry":{"type":"Point","coordinates":[-75.62905,46.71504]},"properties":{"name":"Abri du Vent","country":"Canada","website":null,"opening_hours":null,"capacity":null,"phone":null,"address":null,"ele":null,"operator":null,"wikipedia":null,"wikidata":null,"description":null,"wheelchair":null,"osmType":"node","osmId":4030815516}},{"type":"Feature","geometry":{"type":"Point","coordinates":[-74.43666,46.19604]},"properties":{"name":"Chalet Érablière","country":"Canada","website":null,"opening_hours":null,"capacity":null,"phone":null,"address":null,"ele":null,"operator":"Centre d'Accès à la Nature de l'UQAM","wikipedia":null,"wikidata":null,"description":null,"wheelchair":null,"osmType":"node","osmId":4563423838}},{"type":"Feature","geometry":{"type":"Point","coordinates":[-74.4364,46.19233]},"properties":{"name":"Chez Pierre","country":"Canada","website":null,"opening_hours":null,"capacity":null,"phone":null,"address":null,"ele":null,"operator":null,"wikipedia":null,"wikidata":null,"description":null,"wheelchair":null,"osmType":"node","osmId":4563515654}},{"type":"Feature","geometry":{"type":"Point","coordinates":[-74.43723,46.19196]},"properties":{"name":null,"country":"Canada","website":null,"opening_hours":null,"capacity":null,"phone":null,"address":null,"ele":null,"operator":"Chez André","wikipedia":null,"wikidata":null,"description":null,"wheelchair":null,"osmType":"node","osmId":4563515656}},{"type":"Feature","geometry":{"type":"Point","coordinates":[-73.96857,46.2492]},"properties":{"name":"Refuge des Capucines","country":"Canada","website":null,"opening_hours":null,"capacity":null,"phone":null,"address":null,"ele":null,"operator":null,"wikipedia":null,"wikidata":null,"description":null,"wheelchair":null,"osmType":"node","osmId":4612618678}},{"type":"Feature","geometry":{"type":"Point","coordinates":[-79.32185,47.97465]},"properties":{"name":"Refuge du castor","country":"Canada","website":null,"opening_hours":null,"capacity":null,"phone":null,"address":null,"ele":null,"operator":null,"wikipedia":null,"wikidata":null,"description":null,"wheelchair":null,"osmType":"node","osmId":5130848715}},{"type":"Feature","geometry":{"type":"Point","coordinates":[-79.31553,47.98188]},"properties":{"name":"Refuge de la cascade","country":"Canada","website":null,"opening_hours":null,"capacity":null,"phone":null,"address":null,"ele":null,"operator":null,"wikipedia":null,"wikidata":null,"description":null,"wheelchair":null,"osmType":"node","osmId":5130853134}},{"type":"Feature","geometry":{"type":"Point","coordinates":[-74.81717,46.41367]},"properties":{"name":"Chez Guy","country":"Canada","website":null,"opening_hours":null,"capacity":null,"phone":null,"address":null,"ele":null,"operator":null,"wikipedia":null,"wikidata":null,"description":null,"wheelchair":null,"osmType":"node","osmId":5695062169}},{"type":"Feature","geometry":{"type":"Point","coordinates":[-73.60167,46.04771]},"properties":{"name":"Les aventures","country":"Canada","website":null,"opening_hours":null,"capacity":null,"phone":null,"address":null,"ele":null,"operator":null,"wikipedia":null,"wikidata":null,"description":null,"wheelchair":null,"osmType":"node","osmId":7197546390}},{"type":"Feature","geometry":{"type":"Point","coordinates":[-66.19197,48.16106]},"properties":{"name":"Deuxième refuge","country":"Canada","website":null,"opening_hours":null,"capacity":null,"phone":null,"address":null,"ele":null,"operator":null,"wikipedia":null,"wikidata":null,"description":null,"wheelchair":null,"osmType":"node","osmId":7221087367}},{"type":"Feature","geometry":{"type":"Point","coordinates":[-66.20358,48.15033]},"properties":{"name":"Premier refuge","country":"Canada","website":null,"opening_hours":null,"capacity":null,"phone":null,"address":null,"ele":null,"operator":null,"wikipedia":null,"wikidata":null,"description":null,"wheelchair":null,"osmType":"node","osmId":8047640339}},{"type":"Feature","geometry":{"type":"Point","coordinates":[-66.24134,48.18696]},"properties":{"name":"Refuge Le Samuel","country":"Canada","website":null,"opening_hours":null,"capacity":null,"phone":null,"address":null,"ele":null,"operator":null,"wikipedia":null,"wikidata":null,"description":null,"wheelchair":null,"osmType":"node","osmId":8400984622}},{"type":"Feature","geometry":{"type":"Point","coordinates":[-66.92332,52.99917]},"properties":{"name":"Colins Dream","country":"Canada","website":null,"opening_hours":null,"capacity":null,"phone":null,"address":null,"ele":null,"operator":"MENIHEK NORDIC SKI CLUB","wikipedia":null,"wikidata":null,"description":null,"wheelchair":null,"osmType":"node","osmId":8630413864}},{"type":"Feature","geometry":{"type":"Point","coordinates":[-74.34055,45.97164]},"properties":{"name":"Attitude Montagne","country":"Canada","website":null,"opening_hours":null,"capacity":null,"phone":null,"address":"Chemin de l'Avalanche","ele":null,"operator":null,"wikipedia":null,"wikidata":null,"description":null,"wheelchair":null,"osmType":"node","osmId":12230311002}},{"type":"Feature","geometry":{"type":"Point","coordinates":[-82.34324,47.44287]},"properties":{"name":null,"country":"Canada","website":null,"opening_hours":null,"capacity":null,"phone":null,"address":null,"ele":null,"operator":null,"wikipedia":null,"wikidata":null,"description":null,"wheelchair":null,"osmType":"node","osmId":12846873036}},{"type":"Feature","geometry":{"type":"Point","coordinates":[-82.34146,47.44323]},"properties":{"name":null,"country":"Canada","website":null,"opening_hours":null,"capacity":null,"phone":null,"address":null,"ele":null,"operator":null,"wikipedia":null,"wikidata":null,"description":null,"wheelchair":null,"osmType":"node","osmId":12846873037}},{"type":"Feature","geometry":{"type":"Point","coordinates":[-82.33973,47.44366]},"properties":{"name":null,"country":"Canada","website":null,"opening_hours":null,"capacity":null,"phone":null,"address":null,"ele":null,"operator":null,"wikipedia":null,"wikidata":null,"description":null,"wheelchair":null,"osmType":"node","osmId":12846873038}},{"type":"Feature","geometry":{"type":"Point","coordinates":[-65.73944,44.12893]},"properties":{"name":"Trout Point Lodge","country":"Canada","website":null,"opening_hours":null,"capacity":null,"phone":null,"address":null,"ele":null,"operator":null,"wikipedia":null,"wikidata":null,"description":null,"wheelchair":null,"osmType":"node","osmId":13087711801}},{"type":"Feature","geometry":{"type":"Point","coordinates":[-70.98157,45.71333]},"properties":{"name":"Cécile Lodges","country":"Canada","website":"https://www.facebook.com/p/C%C3%A9cile-Lodges-61551394165194/","opening_hours":null,"capacity":null,"phone":null,"address":null,"ele":null,"operator":null,"wikipedia":null,"wikidata":null,"description":null,"wheelchair":null,"osmType":"node","osmId":13477828584}},{"type":"Feature","geometry":{"type":"Point","coordinates":[-70.61616,47.30305]},"properties":{"name":"Refuge La Grande-Vue","country":"Canada","website":null,"opening_hours":null,"capacity":null,"phone":null,"address":null,"ele":null,"operator":"Sentier Des Caps de Charlevoix","wikipedia":null,"wikidata":null,"description":null,"wheelchair":null,"osmType":"node","osmId":13631009482}},{"type":"Feature","geometry":{"type":"Point","coordinates":[-66.70758,48.8388]},"properties":{"name":"Auberge de montagne des Chic-Chocs","country":"Canada","website":"https://www.sepaq.com/ct/amc/index.dot","opening_hours":null,"capacity":null,"phone":"+1-800-665-3091","address":null,"ele":"600","operator":"SÉPAQ","wikipedia":null,"wikidata":null,"description":"Refuge de montagne de grand luxe","wheelchair":null,"osmType":"way","osmId":294753300,"elevation":"600"}},{"type":"Feature","geometry":{"type":"Point","coordinates":[-63.54655,45.60555]},"properties":{"name":"Frieda Wales Hut","country":"Canada","website":null,"opening_hours":null,"capacity":null,"phone":null,"address":null,"ele":null,"operator":null,"wikipedia":null,"wikidata":null,"description":null,"wheelchair":null,"osmType":"way","osmId":320110028}},{"type":"Feature","geometry":{"type":"Point","coordinates":[-75.59275,46.68201]},"properties":{"name":"Refuge du Versant Sud","country":"Canada","website":"https://www.parcmontagnedudiable.com/versant-sud","opening_hours":null,"capacity":null,"phone":"+1-877-587-3882","address":null,"ele":null,"operator":"Parc Montagne du Diable","wikipedia":null,"wikidata":null,"description":null,"wheelchair":null,"osmType":"way","osmId":479765089}},{"type":"Feature","geometry":{"type":"Point","coordinates":[-75.59688,46.69411]},"properties":{"name":"Refuge Versant Ouest","country":"Canada","website":"https://www.parcmontagnedudiable.com/versant-ouest","opening_hours":null,"capacity":null,"phone":"+1-877-587-3882","address":null,"ele":null,"operator":"Parc Montagne du Diable","wikipedia":null,"wikidata":null,"description":null,"wheelchair":null,"osmType":"way","osmId":479765094}},{"type":"Feature","geometry":{"type":"Point","coordinates":[-66.53197,48.80611]},"properties":{"name":"Pavillon Grand-Camp","country":"Canada","website":null,"opening_hours":null,"capacity":null,"phone":null,"address":"10796 Chemin de Faribault","ele":null,"operator":null,"wikipedia":null,"wikidata":null,"description":null,"wheelchair":null,"osmType":"way","osmId":506314722}},{"type":"Feature","geometry":{"type":"Point","coordinates":[-66.01253,49.00111]},"properties":{"name":"Refuge des Mines-Madeleine","country":"Canada","website":null,"opening_hours":null,"capacity":null,"phone":null,"address":null,"ele":"840","operator":"SÉPAQ","wikipedia":null,"wikidata":null,"description":null,"wheelchair":null,"osmType":"way","osmId":539436298,"elevation":"840"}},{"type":"Feature","geometry":{"type":"Point","coordinates":[-74.56459,46.2411]},"properties":{"name":null,"country":"Canada","website":null,"opening_hours":null,"capacity":null,"phone":null,"address":null,"ele":null,"operator":null,"wikipedia":null,"wikidata":null,"description":null,"wheelchair":null,"osmType":"way","osmId":998669086}},{"type":"Feature","geometry":{"type":"Point","coordinates":[-71.23163,47.0233]},"properties":{"name":"Refuge Thomassin","country":"Canada","website":null,"opening_hours":null,"capacity":null,"phone":null,"address":null,"ele":null,"operator":"SentiersduMoulin","wikipedia":null,"wikidata":null,"description":null,"wheelchair":null,"osmType":"way","osmId":1128369245}},{"type":"Feature","geometry":{"type":"Point","coordinates":[-71.22689,47.01109]},"properties":{"name":"Refuge Berryman","country":"Canada","website":null,"opening_hours":null,"capacity":null,"phone":null,"address":null,"ele":null,"operator":"SentiersduMoulin","wikipedia":null,"wikidata":null,"description":null,"wheelchair":null,"osmType":"way","osmId":1128382909}},{"type":"Feature","geometry":{"type":"Point","coordinates":[-71.48351,46.91748]},"properties":{"name":null,"country":"Canada","website":null,"opening_hours":null,"capacity":null,"phone":null,"address":null,"ele":null,"operator":null,"wikipedia":null,"wikidata":null,"description":null,"wheelchair":null,"osmType":"way","osmId":1265410599}},{"type":"Feature","geometry":{"type":"Point","coordinates":[-72.8626,45.61854]},"properties":{"name":"Cabane du chasseur","country":"Canada","website":null,"opening_hours":null,"capacity":null,"phone":null,"address":null,"ele":null,"operator":null,"wikipedia":null,"wikidata":null,"description":null,"wheelchair":null,"osmType":"way","osmId":1464441877}},{"type":"Feature","geometry":{"type":"Point","coordinates":[-54.09196,48.15028]},"properties":{"name":"Trollhaugen Hytte","country":"Canada","website":null,"opening_hours":null,"capacity":null,"phone":null,"address":null,"ele":null,"operator":null,"wikipedia":null,"wikidata":null,"description":null,"wheelchair":null,"osmType":"node","osmId":4687611277}},{"type":"Feature","geometry":{"type":"Point","coordinates":[-54.05897,48.15234]},"properties":{"name":"Lindo's Lookout","country":"Canada","website":null,"opening_hours":null,"capacity":null,"phone":null,"address":null,"ele":null,"operator":null,"wikipedia":null,"wikidata":null,"description":null,"wheelchair":null,"osmType":"node","osmId":4687614894}},{"type":"Feature","geometry":{"type":"Point","coordinates":[-54.05402,48.13594]},"properties":{"name":"Bear Pond Hut","country":"Canada","website":null,"opening_hours":null,"capacity":null,"phone":null,"address":null,"ele":null,"operator":null,"wikipedia":null,"wikidata":null,"description":null,"wheelchair":null,"osmType":"node","osmId":4687615303}},{"type":"Feature","geometry":{"type":"Point","coordinates":[-56.8727,51.46233]},"properties":{"name":"Air BB Cabins","country":"Canada","website":null,"opening_hours":null,"capacity":null,"phone":null,"address":null,"ele":null,"operator":null,"wikipedia":null,"wikidata":null,"description":null,"wheelchair":null,"osmType":"node","osmId":11150562969}},{"type":"Feature","geometry":{"type":"Point","coordinates":[-56.8727,51.46219]},"properties":{"name":"Air BB Cabins","country":"Canada","website":null,"opening_hours":null,"capacity":null,"phone":null,"address":null,"ele":null,"operator":null,"wikipedia":null,"wikidata":null,"description":null,"wheelchair":null,"osmType":"node","osmId":13125208576}},{"type":"Feature","geometry":{"type":"Point","coordinates":[-56.87262,51.46208]},"properties":{"name":"Air BB Cabins","country":"Canada","website":null,"opening_hours":null,"capacity":null,"phone":null,"address":null,"ele":null,"operator":null,"wikipedia":null,"wikidata":null,"description":null,"wheelchair":null,"osmType":"node","osmId":13125208577}},{"type":"Feature","geometry":{"type":"Point","coordinates":[-137.66961,60.79507]},"properties":{"name":"Lodge Mont Logan","country":"Canada","website":null,"opening_hours":null,"capacity":null,"phone":null,"address":null,"ele":null,"operator":null,"wikipedia":null,"wikidata":null,"description":null,"wheelchair":null,"osmType":"node","osmId":8202908817}},{"type":"Feature","geometry":{"type":"Point","coordinates":[-135.06297,60.60452]},"properties":{"name":null,"country":"Canada","website":null,"opening_hours":null,"capacity":null,"phone":null,"address":null,"ele":null,"operator":null,"wikipedia":null,"wikidata":null,"description":null,"wheelchair":null,"osmType":"way","osmId":325821077}},{"type":"Feature","geometry":{"type":"Point","coordinates":[-124.65161,66.02642]},"properties":{"name":"Trophy Lodge","country":"Canada","website":"https://www.plummerslodges.com/lodges/trophy-lodge/","opening_hours":null,"capacity":null,"phone":null,"address":null,"ele":null,"operator":null,"wikipedia":null,"wikidata":null,"description":null,"wheelchair":null,"osmType":"way","osmId":1171109789}},{"type":"Feature","geometry":{"type":"Point","coordinates":[-114.17907,64.19131]},"properties":{"name":"Snare Lake Lodge","country":"Canada","website":null,"opening_hours":null,"capacity":null,"phone":null,"address":"X0E 0W0 Wekweètì","ele":null,"operator":null,"wikipedia":null,"wikidata":null,"description":null,"wheelchair":null,"osmType":"way","osmId":504067653}},{"type":"Feature","geometry":{"type":"Point","coordinates":[-119.54021,73.23071]},"properties":{"name":"Green Cabin","country":"Canada","website":null,"opening_hours":null,"capacity":null,"phone":null,"address":null,"ele":null,"operator":"Aulavik National Park","wikipedia":null,"wikidata":null,"description":null,"wheelchair":null,"osmType":"way","osmId":647872555}},{"type":"Feature","geometry":{"type":"Point","coordinates":[-117.77594,66.33785]},"properties":{"name":"Arctic Circle Lodge","country":"Canada","website":"https://www.plummerslodges.com/lodges/bransons-outpost-arctic-circle-lodge/","opening_hours":null,"capacity":null,"phone":"+1-800-665-0240","address":null,"ele":null,"operator":"Plummer's Lodge","wikipedia":null,"wikidata":null,"description":null,"wheelchair":null,"osmType":"way","osmId":1005680006}},{"type":"Feature","geometry":{"type":"Point","coordinates":[-119.13087,53.16586]},"properties":{"name":"Robson Pass Hut","country":"Canada","website":"https://alpineclubofcanada.ca/hut/robson-pass-hut/","opening_hours":null,"capacity":null,"phone":null,"address":null,"ele":null,"operator":"Alpine Club of Canada","wikipedia":null,"wikidata":null,"description":null,"wheelchair":null,"osmType":"node","osmId":13951285277}},{"type":"Feature","geometry":{"type":"Point","coordinates":[-115.78564,52.47384]},"properties":{"name":"Camp Alexo","country":"Canada","website":"https://youthhq.ca/campalexo","opening_hours":null,"capacity":null,"phone":"+1 403 342 6500","address":"13197 Highway 11, Clear Water County","ele":null,"operator":"Youth HQ","wikipedia":null,"wikidata":null,"description":null,"wheelchair":null,"osmType":"way","osmId":1125276616}},{"type":"Feature","geometry":{"type":"Point","coordinates":[-115.78792,52.47366]},"properties":{"name":null,"country":"Canada","website":null,"opening_hours":null,"capacity":null,"phone":null,"address":null,"ele":null,"operator":null,"wikipedia":null,"wikidata":null,"description":null,"wheelchair":null,"osmType":"way","osmId":1527932293}},{"type":"Feature","geometry":{"type":"Point","coordinates":[-115.78815,52.47344]},"properties":{"name":null,"country":"Canada","website":null,"opening_hours":null,"capacity":null,"phone":null,"address":null,"ele":null,"operator":null,"wikipedia":null,"wikidata":null,"description":null,"wheelchair":null,"osmType":"way","osmId":1527932294}},{"type":"Feature","geometry":{"type":"Point","coordinates":[-115.78803,52.47327]},"properties":{"name":null,"country":"Canada","website":null,"opening_hours":null,"capacity":null,"phone":null,"address":null,"ele":null,"operator":null,"wikipedia":null,"wikidata":null,"description":null,"wheelchair":null,"osmType":"way","osmId":1527932295}},{"type":"Feature","geometry":{"type":"Point","coordinates":[-115.78452,52.47425]},"properties":{"name":null,"country":"Canada","website":null,"opening_hours":null,"capacity":null,"phone":null,"address":null,"ele":null,"operator":null,"wikipedia":null,"wikidata":null,"description":null,"wheelchair":null,"osmType":"way","osmId":1527932296}},{"type":"Feature","geometry":{"type":"Point","coordinates":[-80.28092,44.46194]},"properties":{"name":"Osler Bluff Ski Club","country":"Canada","website":"https://www.oslerbluff.com/","opening_hours":null,"capacity":null,"phone":"+17054454507","address":"795534 The Blue Mountains Clearview Townline, L9Y 0R7 The Blue Mountains","ele":null,"operator":null,"wikipedia":null,"wikidata":null,"description":null,"wheelchair":null,"osmType":"way","osmId":60217026}}]}