{"type":"FeatureCollection","features":[{"type":"Feature","geometry":{"type":"Point","coordinates":[-53.05368,5.06036]},"properties":{"name":"Carbet EDF","country":"France","website":null,"opening_hours":null,"capacity":null,"phone":null,"osmType":"node","osmId":431741301}},{"type":"Feature","geometry":{"type":"Point","coordinates":[-52.45119,4.28004]},"properties":{"name":"Carbet Grillon","country":"France","website":null,"opening_hours":null,"capacity":null,"phone":null,"osmType":"node","osmId":2382856470}},{"type":"Feature","geometry":{"type":"Point","coordinates":[-52.5752,4.25429]},"properties":{"name":"Carbet Rosette","country":"France","website":null,"opening_hours":null,"capacity":null,"phone":null,"osmType":"node","osmId":2382856471}},{"type":"Feature","geometry":{"type":"Point","coordinates":[-0.14726,42.85191]},"properties":{"name":"Chalet du Clot","country":"France","website":null,"opening_hours":null,"capacity":null,"phone":"+33 9 70 02 39 32","osmType":"node","osmId":633499249,"elevation":"1522"}},{"type":"Feature","geometry":{"type":"Point","coordinates":[-0.61909,42.91053]},"properties":{"name":"Gîte d'Etape de Lhers","country":"France","website":null,"opening_hours":null,"capacity":null,"phone":null,"osmType":"node","osmId":669919828}},{"type":"Feature","geometry":{"type":"Point","coordinates":[-0.80997,42.99582]},"properties":{"name":"Elichalt","country":"France","website":null,"opening_hours":null,"capacity":null,"phone":null,"osmType":"node","osmId":884218516,"elevation":"630"}},{"type":"Feature","geometry":{"type":"Point","coordinates":[-0.21576,43.0007]},"properties":{"name":"Refuge du Haugarou","country":"France","website":"https://www.haugarou.com/","opening_hours":null,"capacity":null,"phone":"+33 5 62 97 25 04","osmType":"node","osmId":957015586}},{"type":"Feature","geometry":{"type":"Point","coordinates":[-0.97351,48.68758]},"properties":{"name":"Gîte d'Etape","country":"France","website":null,"opening_hours":null,"capacity":null,"phone":null,"osmType":"node","osmId":1215114639}},{"type":"Feature","geometry":{"type":"Point","coordinates":[-0.83117,48.71097]},"properties":{"name":"Gîte d'Etape","country":"France","website":null,"opening_hours":null,"capacity":null,"phone":null,"osmType":"node","osmId":3600508634}},{"type":"Feature","geometry":{"type":"Point","coordinates":[-1.00976,48.79073]},"properties":{"name":"Gîte d'Etape","country":"France","website":null,"opening_hours":null,"capacity":null,"phone":null,"osmType":"node","osmId":3657827768}},{"type":"Feature","geometry":{"type":"Point","coordinates":[-0.66604,42.95029]},"properties":{"name":"Refuge de l'Abérouat","country":"France","website":null,"opening_hours":null,"capacity":"27","phone":"+33 5 59 34 71 67","osmType":"node","osmId":7425418126,"elevation":"1450"}},{"type":"Feature","geometry":{"type":"Point","coordinates":[-0.0254,42.88054]},"properties":{"name":"Ferme des cascades","country":"France","website":"https://www.fermedescascades.com/","opening_hours":null,"capacity":null,"phone":"+33 6 22 89 79 82","osmType":"node","osmId":7881339485}},{"type":"Feature","geometry":{"type":"Point","coordinates":[-0.09906,42.80794]},"properties":{"name":"Refuge d'Estom","country":"France","website":"https://www.refuge-estom.csvss.fr/","opening_hours":null,"capacity":null,"phone":"+33 6 52 29 17 65","osmType":"node","osmId":13580195628,"elevation":"1804"}},{"type":"Feature","geometry":{"type":"Point","coordinates":[-0.19471,42.8201]},"properties":{"name":"Refuge Wallon - Marcadau","country":"France","website":"https://www.refuge-marcadau.csvss.fr/fr/","opening_hours":null,"capacity":"113","phone":"+33 5 62 92 64 28","osmType":"way","osmId":70176000,"elevation":"1865"}},{"type":"Feature","geometry":{"type":"Point","coordinates":[-0.14143,42.79291]},"properties":{"name":"Refuge des Oulettes de Gaube","country":"France","website":"https://refugeoulettesdegaube.ffcam.fr/","opening_hours":null,"capacity":null,"phone":"+33 9 88 18 41 46;+33 7 68 35 78 65","osmType":"way","osmId":70178402,"elevation":"2151"}},{"type":"Feature","geometry":{"type":"Point","coordinates":[-1.33617,43.18628]},"properties":{"name":"Domaine de Leispars","country":"France","website":"http://www.domaine-leispars-pays-basque.com","opening_hours":null,"capacity":null,"phone":"+33 5 59 37 42 39","osmType":"way","osmId":76268292}},{"type":"Feature","geometry":{"type":"Point","coordinates":[-0.24224,42.95631]},"properties":{"name":"Refuge Gabizos","country":"France","website":"http://www.refuge-gabizos.com/","opening_hours":null,"capacity":null,"phone":"+33 6 10 05 62 63","osmType":"way","osmId":82551445,"elevation":"1219"}},{"type":"Feature","geometry":{"type":"Point","coordinates":[-1.39669,43.14285]},"properties":{"name":null,"country":"France","website":null,"opening_hours":null,"capacity":null,"phone":null,"osmType":"way","osmId":82554719}},{"type":"Feature","geometry":{"type":"Point","coordinates":[-0.29903,42.88572]},"properties":{"name":"Refuge de Migouélou","country":"France","website":"https://refuge-migouelou.com/","opening_hours":null,"capacity":"34","phone":"+33 6 74 23 89 47","osmType":"way","osmId":82746214,"elevation":"2278"}},{"type":"Feature","geometry":{"type":"Point","coordinates":[-0.83463,42.94506]},"properties":{"name":"Belaguako aterpetxea","country":"France","website":"https://refugiobelagua.es/","opening_hours":null,"capacity":"56","phone":"+34 623 10 73 17","osmType":"way","osmId":88737343,"elevation":"1418"}},{"type":"Feature","geometry":{"type":"Point","coordinates":[-0.02267,42.73944]},"properties":{"name":"Chalet La Grange de Holle","country":"France","website":"https://chaletlagrangedeholle.ffcam.fr/","opening_hours":null,"capacity":null,"phone":"+33 5 62 92 48 77","osmType":"way","osmId":98660819,"elevation":"1495"}},{"type":"Feature","geometry":{"type":"Point","coordinates":[-0.26452,42.85554]},"properties":{"name":"Refuge du Balaïtous-Ledormeur","country":"France","website":"https://refugedubalaitous.ffcam.fr/","opening_hours":null,"capacity":null,"phone":null,"osmType":"way","osmId":116021589,"elevation":"1884"}},{"type":"Feature","geometry":{"type":"Point","coordinates":[-0.28766,42.81698]},"properties":{"name":"Refugio de Respomuso","country":"France","website":null,"opening_hours":null,"capacity":null,"phone":"+34 974 337 556","osmType":"way","osmId":122235593,"elevation":"2220"}},{"type":"Feature","geometry":{"type":"Point","coordinates":[-0.107,42.6945]},"properties":{"name":"Refugio de Bujaruelo","country":"France","website":"https://www.refugiodebujaruelo.com/","opening_hours":null,"capacity":null,"phone":"+34 974 486 412","osmType":"way","osmId":140315121,"elevation":"1338"}},{"type":"Feature","geometry":{"type":"Point","coordinates":[-0.53225,42.79612]},"properties":{"name":"Gîte Somport","country":"France","website":"https://www.lesomport.com/","opening_hours":null,"capacity":null,"phone":null,"osmType":"way","osmId":154545803,"elevation":"1600"}},{"type":"Feature","geometry":{"type":"Point","coordinates":[-0.22759,42.77997]},"properties":{"name":"Refugio de los Ibones de Bachimaña","country":"France","website":null,"opening_hours":null,"capacity":null,"phone":"+34 697126967","osmType":"way","osmId":174653581,"elevation":"2200"}},{"type":"Feature","geometry":{"type":"Point","coordinates":[-0.28884,42.85821]},"properties":{"name":"Refuge de Larribet","country":"France","website":"https://refugedelarribet.ffcam.fr/","opening_hours":null,"capacity":null,"phone":"+33 9 88 66 61 22","osmType":"way","osmId":193021745,"elevation":"2072"}},{"type":"Feature","geometry":{"type":"Point","coordinates":[-0.03331,42.69591]},"properties":{"name":"Refuge des Sarradets","country":"France","website":"https://refugebrechederoland.ffcam.fr/","opening_hours":null,"capacity":null,"phone":"+33 6 83 38 13 24","osmType":"way","osmId":208907237,"elevation":"2587"}},{"type":"Feature","geometry":{"type":"Point","coordinates":[-0.74151,42.97576]},"properties":{"name":"Refuge Ausone","country":"France","website":null,"opening_hours":null,"capacity":null,"phone":null,"osmType":"way","osmId":216062330}},{"type":"Feature","geometry":{"type":"Point","coordinates":[-0.74928,42.97833]},"properties":{"name":"Refuge Jeandel","country":"France","website":"https://www.refugejeandel.com/","opening_hours":null,"capacity":"19","phone":"+33 5 59 66 14 46","osmType":"way","osmId":216062337,"elevation":"1647"}},{"type":"Feature","geometry":{"type":"Point","coordinates":[-0.1242,42.7794]},"properties":{"name":"Refuge de Bayssellance","country":"France","website":"https://refugebayssellance.ffcam.fr/","opening_hours":null,"capacity":null,"phone":"+33 9 74 77 66 52;+33 5 62 92 40 25","osmType":"way","osmId":216881547,"elevation":"2651"}},{"type":"Feature","geometry":{"type":"Point","coordinates":[-0.57122,42.91305]},"properties":{"name":"La Garbure","country":"France","website":"https://www.garbure.net/","opening_hours":null,"capacity":null,"phone":"+33559348898","osmType":"way","osmId":219093005}},{"type":"Feature","geometry":{"type":"Point","coordinates":[-0.61569,42.84065]},"properties":{"name":"Refuge d'Arlet","country":"France","website":"http://www.https.com//sites.google.com/site/refugearlet/","opening_hours":null,"capacity":"45","phone":"+33 5 59 36 00 99;+33 6 77 14 43 71","osmType":"way","osmId":228356353,"elevation":"1986"}},{"type":"Feature","geometry":{"type":"Point","coordinates":[-0.57285,42.90792]},"properties":{"name":"Gîte Communal","country":"France","website":"http://www.lecommunal.fr/","opening_hours":null,"capacity":null,"phone":"+33559348640","osmType":"way","osmId":228356855}},{"type":"Feature","geometry":{"type":"Point","coordinates":[-0.64227,42.92788]},"properties":{"name":"Gîte d'Etape du Lauzart","country":"France","website":null,"opening_hours":null,"capacity":null,"phone":null,"osmType":"way","osmId":228377429}},{"type":"Feature","geometry":{"type":"Point","coordinates":[-0.63524,42.93422]},"properties":{"name":"Maison de la Montagne","country":"France","website":null,"opening_hours":null,"capacity":null,"phone":null,"osmType":"way","osmId":228377432}},{"type":"Feature","geometry":{"type":"Point","coordinates":[-0.80416,42.99629]},"properties":{"name":"Auberge Berriex","country":"France","website":null,"opening_hours":null,"capacity":null,"phone":null,"osmType":"way","osmId":234257137}},{"type":"Feature","geometry":{"type":"Point","coordinates":[-0.33408,42.95951]},"properties":{"name":"Chalet-Refuge CAF de Gourette","country":"France","website":"https://chaletdegourette.ffcam.fr/","opening_hours":null,"capacity":null,"phone":"+33 5 59 05 10 56","osmType":"way","osmId":284550352,"elevation":"1350"}},{"type":"Feature","geometry":{"type":"Point","coordinates":[-0.23353,42.76266]},"properties":{"name":"Refugio Casa de Piedra","country":"France","website":"https://www.alberguesyrefugiosdearagon.com/refugio.php?id","opening_hours":null,"capacity":null,"phone":"+34 974 487 571","osmType":"way","osmId":288281193,"elevation":"1636"}},{"type":"Feature","geometry":{"type":"Point","coordinates":[-0.4912,42.84841]},"properties":{"name":"Refuge d'Ayous","country":"France","website":"http://www.refuge-ayous.com/index.php/fr/","opening_hours":null,"capacity":"47","phone":"+33 5 59 05 37 00","osmType":"way","osmId":297024115,"elevation":"1980"}},{"type":"Feature","geometry":{"type":"Point","coordinates":[-0.42695,42.8355]},"properties":{"name":"Refuge de Pombie","country":"France","website":"https://refugedepombie.ffcam.fr/","opening_hours":null,"capacity":null,"phone":"+33 5 59 05 31 78","osmType":"way","osmId":297038703,"elevation":"2032"}},{"type":"Feature","geometry":{"type":"Point","coordinates":[-0.32916,42.84605]},"properties":{"name":"Refuge d'Arrémoulit","country":"France","website":"https://refugedarremoulit.ffcam.fr/","opening_hours":null,"capacity":null,"phone":"+33 5 59 05 31 79","osmType":"way","osmId":300925781,"elevation":"2265"}},{"type":"Feature","geometry":{"type":"Point","coordinates":[-0.79949,42.89826]},"properties":{"name":"Refugio de Linza","country":"France","website":"https://www.refugiodelinza.com/","opening_hours":null,"capacity":"110","phone":"+34 974 34 82 89","osmType":"way","osmId":320664347,"elevation":"1330"}},{"type":"Feature","geometry":{"type":"Point","coordinates":[-3.99635,48.35034]},"properties":{"name":"Gîte d'étape Communal","country":"France","website":"https://mairie-st-rivoal.fr/","opening_hours":null,"capacity":null,"phone":"+33 2 98 81 40 54","osmType":"way","osmId":371098001}},{"type":"Feature","geometry":{"type":"Point","coordinates":[-0.17349,42.86621]},"properties":{"name":"Refuge d'Ilhéou","country":"France","website":"https://www.refuge-ilheou.csvss.fr/fr/","opening_hours":null,"capacity":"22","phone":"+33 6 85 66 55 96","osmType":"way","osmId":551066684,"elevation":"1984"}},{"type":"Feature","geometry":{"type":"Point","coordinates":[-0.46578,42.87997]},"properties":{"name":"Cabane d'Aule","country":"France","website":null,"opening_hours":null,"capacity":null,"phone":null,"osmType":"way","osmId":797237105}},{"type":"Feature","geometry":{"type":"Point","coordinates":[-0.38637,43.00608]},"properties":{"name":null,"country":"France","website":null,"opening_hours":null,"capacity":null,"phone":null,"osmType":"way","osmId":1201151872}},{"type":"Feature","geometry":{"type":"Point","coordinates":[6.72495,45.81684]},"properties":{"name":"Chalet du CAF Contamines","country":"France","website":"https://chaletdescontamines.ffcam.fr","opening_hours":null,"capacity":null,"phone":"+33 4 50 47 00 88","osmType":"node","osmId":30941606,"elevation":"1164"}},{"type":"Feature","geometry":{"type":"Point","coordinates":[6.92164,45.55436]},"properties":{"name":"Refuge Le Monal","country":"France","website":"https://www.refugedumonal.com/","opening_hours":null,"capacity":null,"phone":"+33607382469","osmType":"node","osmId":249831619}},{"type":"Feature","geometry":{"type":"Point","coordinates":[6.43492,45.26448]},"properties":{"name":"Baraque de Bonnant","country":"France","website":null,"opening_hours":null,"capacity":null,"phone":null,"osmType":"node","osmId":272864187,"elevation":"1700"}},{"type":"Feature","geometry":{"type":"Point","coordinates":[6.41562,44.91772]},"properties":{"name":"Chalet Refuge du Pré de Madame Carle","country":"France","website":"https://www.pre-madame-carle.fr/","opening_hours":null,"capacity":null,"phone":"+33 9 74 76 15 38","osmType":"node","osmId":279452438}},{"type":"Feature","geometry":{"type":"Point","coordinates":[6.77904,45.73714]},"properties":{"name":"Refuge des Mottets","country":"France","website":null,"opening_hours":null,"capacity":null,"phone":null,"osmType":"node","osmId":288877825,"elevation":"1870"}},{"type":"Feature","geometry":{"type":"Point","coordinates":[5.58464,45.18932]},"properties":{"name":"Refuge des Feneys","country":"France","website":null,"opening_hours":null,"capacity":null,"phone":null,"osmType":"node","osmId":350736546}},{"type":"Feature","geometry":{"type":"Point","coordinates":[7.10115,47.80792]},"properties":{"name":"Gîte d'étape Thann","country":"France","website":null,"opening_hours":null,"capacity":null,"phone":null,"osmType":"node","osmId":415534359}},{"type":"Feature","geometry":{"type":"Point","coordinates":[7.01926,47.95234]},"properties":{"name":"Refuge du Hahnenbrunnen","country":"France","website":"https://touringclubmulhouse.com/","opening_hours":null,"capacity":null,"phone":null,"osmType":"node","osmId":415755084}},{"type":"Feature","geometry":{"type":"Point","coordinates":[8.66689,42.18772]},"properties":{"name":"Refuge E Case","country":"France","website":null,"opening_hours":null,"capacity":null,"phone":null,"osmType":"node","osmId":420230939}},{"type":"Feature","geometry":{"type":"Point","coordinates":[8.92381,42.34988]},"properties":{"name":"Bergerie de Tilarba (en ruine)","country":"France","website":null,"opening_hours":null,"capacity":null,"phone":null,"osmType":"node","osmId":440374694,"elevation":"1623"}},{"type":"Feature","geometry":{"type":"Point","coordinates":[6.75271,45.38956]},"properties":{"name":"Refuge des Barmettes","country":"France","website":"https://lesbarmettes-refuge.com/","opening_hours":null,"capacity":null,"phone":"+33 4 79 08 75 64","osmType":"node","osmId":451703419,"elevation":"2010"}},{"type":"Feature","geometry":{"type":"Point","coordinates":[6.09746,44.95298]},"properties":{"name":"Refuge de la Muzelle","country":"France","website":"https://refugedelamuzelle.fr/","opening_hours":null,"capacity":"70","phone":"+33 4 76 79 02 01","osmType":"node","osmId":484896953,"elevation":"2112"}},{"type":"Feature","geometry":{"type":"Point","coordinates":[1.17445,42.85118]},"properties":{"name":"Gite d'Aunac","country":"France","website":null,"opening_hours":null,"capacity":null,"phone":null,"osmType":"node","osmId":506075082}},{"type":"Feature","geometry":{"type":"Point","coordinates":[2.16473,42.62571]},"properties":{"name":"Refuge des Estanyols","country":"France","website":null,"opening_hours":null,"capacity":null,"phone":null,"osmType":"node","osmId":527834300}},{"type":"Feature","geometry":{"type":"Point","coordinates":[6.88244,45.39692]},"properties":{"name":"Refuge de la Leisse","country":"France","website":"https://refuge-leisse.vanoise.com/","opening_hours":null,"capacity":null,"phone":"+339 72 40 03 23","osmType":"node","osmId":606374063,"elevation":"2487"}},{"type":"Feature","geometry":{"type":"Point","coordinates":[6.7241,45.35336]},"properties":{"name":"Refuge de la Valette","country":"France","website":"https://refuge-valette.vanoise.com/","opening_hours":null,"capacity":null,"phone":null,"osmType":"node","osmId":611845738,"elevation":"2590"}},{"type":"Feature","geometry":{"type":"Point","coordinates":[4.64359,46.97654]},"properties":{"name":"Chalet de Vauchignon","country":"France","website":"https://chaletvauchignon.ffcam.fr/","opening_hours":null,"capacity":"30","phone":"+33 3 85 93 10 21","osmType":"node","osmId":687026480,"elevation":"350"}},{"type":"Feature","geometry":{"type":"Point","coordinates":[6.78159,45.44734]},"properties":{"name":"Refuge du Laisonnay","country":"France","website":null,"opening_hours":null,"capacity":null,"phone":null,"osmType":"node","osmId":870030342}},{"type":"Feature","geometry":{"type":"Point","coordinates":[7.37399,48.37507]},"properties":{"name":"Refuge Gruckert","country":"France","website":"https://www.amis-nature-strasbourg.net/","opening_hours":null,"capacity":null,"phone":null,"osmType":"node","osmId":879971268}},{"type":"Feature","geometry":{"type":"Point","coordinates":[0.08745,42.75079]},"properties":{"name":"Auberge de la Munia","country":"France","website":"https://aubergedelamunia.com/","opening_hours":null,"capacity":null,"phone":"+33 5 62 92 48 39","osmType":"node","osmId":892738761}},{"type":"Feature","geometry":{"type":"Point","coordinates":[2.26045,42.67577]},"properties":{"name":null,"country":"France","website":null,"opening_hours":null,"capacity":null,"phone":null,"osmType":"node","osmId":909309129}},{"type":"Feature","geometry":{"type":"Point","coordinates":[1.86358,42.75508]},"properties":{"name":"Refuge du Chioula","country":"France","website":null,"opening_hours":null,"capacity":null,"phone":null,"osmType":"node","osmId":963763000,"elevation":"1600"}},{"type":"Feature","geometry":{"type":"Point","coordinates":[5.42123,44.87016]},"properties":{"name":"Gîte des Liottards","country":"France","website":null,"opening_hours":null,"capacity":null,"phone":null,"osmType":"node","osmId":1000814895,"elevation":"981"}},{"type":"Feature","geometry":{"type":"Point","coordinates":[6.83747,45.3461]},"properties":{"name":"Refuge du Plan du Lac","country":"France","website":"https://refuge-plandulac.vanoise.com","opening_hours":"jun-sep","capacity":null,"phone":"+33 4 79 20 50 85","osmType":"node","osmId":1026461883}},{"type":"Feature","geometry":{"type":"Point","coordinates":[7.29014,48.63279]},"properties":{"name":"Refuge du Grand Tétras","country":"France","website":null,"opening_hours":null,"capacity":null,"phone":null,"osmType":"node","osmId":1064369101}},{"type":"Feature","geometry":{"type":"Point","coordinates":[6.27116,45.0269]},"properties":{"name":"Refuge Évariste Chancel","country":"France","website":"https://www.refuge-chancel.com/","opening_hours":null,"capacity":null,"phone":null,"osmType":"node","osmId":1135608646,"elevation":"2508"}},{"type":"Feature","geometry":{"type":"Point","coordinates":[0.16919,42.82625]},"properties":{"name":"Chalet - Hôtel Orédon","country":"France","website":"https://refuge-pyrenees-oredon.com/","opening_hours":null,"capacity":"80","phone":"+33 6 38 25 96 42","osmType":"node","osmId":1141437931,"elevation":"1870"}},{"type":"Feature","geometry":{"type":"Point","coordinates":[2.25283,42.66919]},"properties":{"name":"Refuge Pastoral du Callau","country":"France","website":null,"opening_hours":null,"capacity":null,"phone":null,"osmType":"node","osmId":1241687884}},{"type":"Feature","geometry":{"type":"Point","coordinates":[7.12714,48.16167]},"properties":{"name":"Refuge de l'Étang du Devin","country":"France","website":"https://www.etangdevin.com/","opening_hours":null,"capacity":"50","phone":"+33 3 89 47 20 29","osmType":"node","osmId":1311563250}},{"type":"Feature","geometry":{"type":"Point","coordinates":[6.62263,45.07072]},"properties":{"name":"Rifugio I Re Magi","country":"France","website":"http://www.iremagi.it/","opening_hours":null,"capacity":null,"phone":"+33 4 96 11 29 20","osmType":"node","osmId":1331256236,"elevation":"1768"}},{"type":"Feature","geometry":{"type":"Point","coordinates":[6.62306,45.06963]},"properties":{"name":"Rifugio Terzo Alpini","country":"France","website":"http://www.terzoalpini.com/","opening_hours":null,"capacity":"34","phone":"+33 1 22 90 20 71","osmType":"node","osmId":1331256238}},{"type":"Feature","geometry":{"type":"Point","coordinates":[7.04671,44.13929]},"properties":{"name":"Refuge de Longon","country":"France","website":null,"opening_hours":null,"capacity":"35","phone":"+33 4 93 02 83 99","osmType":"node","osmId":1438724461,"elevation":"1883"}},{"type":"Feature","geometry":{"type":"Point","coordinates":[6.18288,45.0436]},"properties":{"name":"Refuge des Clots","country":"France","website":null,"opening_hours":null,"capacity":null,"phone":null,"osmType":"node","osmId":1542784590}},{"type":"Feature","geometry":{"type":"Point","coordinates":[5.85694,45.03086]},"properties":{"name":"Gite de l'Alpe du Grand Serre","country":"France","website":null,"opening_hours":null,"capacity":null,"phone":null,"osmType":"node","osmId":1542788831}},{"type":"Feature","geometry":{"type":"Point","coordinates":[6.81745,45.31882]},"properties":{"name":"Refuge du Lac Blanc","country":"France","website":"https://www.refugedulacblanc-vanoise.com/","opening_hours":null,"capacity":null,"phone":null,"osmType":"node","osmId":1542801541}},{"type":"Feature","geometry":{"type":"Point","coordinates":[6.7444,45.45955]},"properties":{"name":"Refuge du Bois","country":"France","website":"https://refuge-dubois.vanoise.com/","opening_hours":null,"capacity":null,"phone":"+33 4 79 55 05 79","osmType":"node","osmId":1542875582}},{"type":"Feature","geometry":{"type":"Point","coordinates":[5.59806,45.28261]},"properties":{"name":"Cabane de Renardière","country":"France","website":null,"opening_hours":null,"capacity":null,"phone":null,"osmType":"node","osmId":1700149650}},{"type":"Feature","geometry":{"type":"Point","coordinates":[3.71815,43.75251]},"properties":{"name":"Gite d'étape de Roussières","country":"France","website":null,"opening_hours":null,"capacity":null,"phone":null,"osmType":"node","osmId":1733281440}},{"type":"Feature","geometry":{"type":"Point","coordinates":[5.33339,44.97661]},"properties":{"name":"Hostel Quartier Libre","country":"France","website":"https://www.hostelquartierlibre.fr/","opening_hours":null,"capacity":null,"phone":"+33 4 75 48 26 36","osmType":"node","osmId":1833075359}},{"type":"Feature","geometry":{"type":"Point","coordinates":[7.07101,47.83099]},"properties":{"name":null,"country":"France","website":null,"opening_hours":null,"capacity":null,"phone":null,"osmType":"node","osmId":1865772969}},{"type":"Feature","geometry":{"type":"Point","coordinates":[6.3626,45.03082]},"properties":{"name":"Le Pas de l'Ane","country":"France","website":null,"opening_hours":null,"capacity":null,"phone":null,"osmType":"node","osmId":1920072983}},{"type":"Feature","geometry":{"type":"Point","coordinates":[6.82643,45.29766]},"properties":{"name":"Abri forestier du Suffet","country":"France","website":null,"opening_hours":null,"capacity":null,"phone":null,"osmType":"node","osmId":2107414612}},{"type":"Feature","geometry":{"type":"Point","coordinates":[5.89548,44.73548]},"properties":{"name":"Gîte de Saint-Disdier","country":"France","website":"https://www.gite-devoluy.com/","opening_hours":null,"capacity":"24","phone":"+33 4 92 58 84 84","osmType":"node","osmId":2263078847,"elevation":"1030"}},{"type":"Feature","geometry":{"type":"Point","coordinates":[6.40901,44.40176]},"properties":{"name":"La cabane du lac","country":"France","website":null,"opening_hours":null,"capacity":null,"phone":null,"osmType":"node","osmId":2381632010}},{"type":"Feature","geometry":{"type":"Point","coordinates":[6.26229,45.82414]},"properties":{"name":"Gîte de Pré Verel","country":"France","website":null,"opening_hours":null,"capacity":null,"phone":null,"osmType":"node","osmId":2401371906}},{"type":"Feature","geometry":{"type":"Point","coordinates":[2.72379,45.09673]},"properties":{"name":"Refuge de Meije Coste","country":"France","website":"https://refuge-meijecoste.over-blog.com/","opening_hours":null,"capacity":"14","phone":null,"osmType":"node","osmId":2420548303,"elevation":"1450"}},{"type":"Feature","geometry":{"type":"Point","coordinates":[2.72504,45.41837]},"properties":{"name":"Gîte d'étape de Saint-Genès","country":"France","website":"https://www.saint-genes-champespe.fr/gites-mairie-63-auvergne","opening_hours":null,"capacity":null,"phone":"+33 7 87 08 48 76; +33 4 73 22 31 84","osmType":"node","osmId":2433648332}},{"type":"Feature","geometry":{"type":"Point","coordinates":[7.1058,44.23135]},"properties":{"name":"Posto Tappa","country":"France","website":null,"opening_hours":null,"capacity":null,"phone":null,"osmType":"node","osmId":2455869020}},{"type":"Feature","geometry":{"type":"Point","coordinates":[6.46819,45.35115]},"properties":{"name":"Refuge de Gittamelon","country":"France","website":"https://www.refuge-gittamelon.com/le-refuge","opening_hours":null,"capacity":null,"phone":"+33 6 76 43 28 12","osmType":"node","osmId":2523993174,"elevation":"1672"}},{"type":"Feature","geometry":{"type":"Point","coordinates":[6.39912,45.80453]},"properties":{"name":"L'Aulp de Marlens","country":"France","website":null,"opening_hours":null,"capacity":null,"phone":"+33 4 50 64 19 35","osmType":"node","osmId":2598871592,"elevation":"1657"}},{"type":"Feature","geometry":{"type":"Point","coordinates":[6.82232,44.76096]},"properties":{"name":"Gîte d'Étape Les Astragales","country":"France","website":"http://www.gitelesastragales.fr","opening_hours":null,"capacity":null,"phone":"+33 4 92 46 70 82","osmType":"node","osmId":2953189023,"elevation":"1390"}},{"type":"Feature","geometry":{"type":"Point","coordinates":[1.13764,43.00133]},"properties":{"name":"Halte Jacquaire","country":"France","website":null,"opening_hours":null,"capacity":null,"phone":null,"osmType":"node","osmId":3009882506}},{"type":"Feature","geometry":{"type":"Point","coordinates":[0.86684,42.93964]},"properties":{"name":"Gite Etape Chez Jo","country":"France","website":null,"opening_hours":null,"capacity":null,"phone":null,"osmType":"node","osmId":3009934191}},{"type":"Feature","geometry":{"type":"Point","coordinates":[6.59419,45.35738]},"properties":{"name":"Refuge du Plan","country":"France","website":"http://refugeduplanmeribel.com","opening_hours":null,"capacity":null,"phone":"+33689238568","osmType":"node","osmId":3073427053}},{"type":"Feature","geometry":{"type":"Point","coordinates":[2.52346,43.42752]},"properties":{"name":null,"country":"France","website":null,"opening_hours":null,"capacity":null,"phone":null,"osmType":"node","osmId":3124642032}},{"type":"Feature","geometry":{"type":"Point","coordinates":[7.33139,48.40463]},"properties":{"name":"Gîte d'Étape","country":"France","website":null,"opening_hours":null,"capacity":null,"phone":null,"osmType":"node","osmId":3157591143}},{"type":"Feature","geometry":{"type":"Point","coordinates":[2.67581,42.9685]},"properties":{"name":"Le Maou","country":"France","website":null,"opening_hours":null,"capacity":null,"phone":null,"osmType":"node","osmId":3309570503}},{"type":"Feature","geometry":{"type":"Point","coordinates":[6.8787,43.8096]},"properties":{"name":"Les Grandes Roches","country":"France","website":null,"opening_hours":null,"capacity":null,"phone":"+33 4 93 77 51 93","osmType":"node","osmId":3554940362,"elevation":"1140"}},{"type":"Feature","geometry":{"type":"Point","coordinates":[6.94018,45.24401]},"properties":{"name":"Le Toët","country":"France","website":"http://giteletoet.com/","opening_hours":null,"capacity":null,"phone":"+33 4 79 05 95 67","osmType":"node","osmId":3621497238}},{"type":"Feature","geometry":{"type":"Point","coordinates":[2.68235,43.67235]},"properties":{"name":"Refuge de Martinou","country":"France","website":null,"opening_hours":null,"capacity":null,"phone":null,"osmType":"node","osmId":4099043194}},{"type":"Feature","geometry":{"type":"Point","coordinates":[7.45867,48.93829]},"properties":{"name":"Gïte d'étape du Kiesbächel","country":"France","website":null,"opening_hours":null,"capacity":null,"phone":null,"osmType":"node","osmId":4187775060}},{"type":"Feature","geometry":{"type":"Point","coordinates":[6.42142,45.97862]},"properties":{"name":"Buvette de Mayse","country":"France","website":null,"opening_hours":"\"Ouvert l'été\"","capacity":"19","phone":null,"osmType":"node","osmId":4213638329}},{"type":"Feature","geometry":{"type":"Point","coordinates":[1.10722,42.72575]},"properties":{"name":"Refugi del Fornet","country":"France","website":"http://refugidelfornet.es","opening_hours":null,"capacity":null,"phone":"+34973091156","osmType":"node","osmId":4288622187,"elevation":"1374"}},{"type":"Feature","geometry":{"type":"Point","coordinates":[1.21874,42.67793]},"properties":{"name":"Refugi de la Pleta del Prat","country":"France","website":"https://refugipletadelprat.net","opening_hours":null,"capacity":null,"phone":"+34 608 03 65 59","osmType":"node","osmId":4299695951,"elevation":"1722"}},{"type":"Feature","geometry":{"type":"Point","coordinates":[2.91567,43.75577]},"properties":{"name":"Le Presbytère","country":"France","website":null,"opening_hours":null,"capacity":null,"phone":null,"osmType":"node","osmId":4343789589}},{"type":"Feature","geometry":{"type":"Point","coordinates":[2.1012,42.69061]},"properties":{"name":"Refuge de Querigut","country":"France","website":null,"opening_hours":null,"capacity":null,"phone":null,"osmType":"node","osmId":4357427589}},{"type":"Feature","geometry":{"type":"Point","coordinates":[9.16463,42.03411]},"properties":{"name":"Bergerie de Gialgone","country":"France","website":null,"opening_hours":null,"capacity":null,"phone":null,"osmType":"node","osmId":4394676189}},{"type":"Feature","geometry":{"type":"Point","coordinates":[0.83536,42.77754]},"properties":{"name":"Centre d'Educacion Ambientau - Refugi forestau deth Saut deth Pish","country":"France","website":null,"opening_hours":null,"capacity":null,"phone":null,"osmType":"node","osmId":4612362449,"elevation":"1586"}},{"type":"Feature","geometry":{"type":"Point","coordinates":[0.80661,42.8183]},"properties":{"name":"Refugi forestau dera Honeria","country":"France","website":"http://refugiohoneria.com","opening_hours":null,"capacity":null,"phone":"+34 973092354","osmType":"node","osmId":4805315062,"elevation":"1013"}},{"type":"Feature","geometry":{"type":"Point","coordinates":[3.8682,45.6342]},"properties":{"name":"Refuge de Garnier","country":"France","website":"https://aubergedegarnier.fr/","opening_hours":null,"capacity":"15","phone":"+33 7 88 66 21 07","osmType":"node","osmId":4870187352}},{"type":"Feature","geometry":{"type":"Point","coordinates":[7.69094,49.0356]},"properties":{"name":"Maison du randonneur","country":"France","website":null,"opening_hours":"closed","capacity":null,"phone":null,"osmType":"node","osmId":4894746722}},{"type":"Feature","geometry":{"type":"Point","coordinates":[6.50042,45.94327]},"properties":{"name":"Auberge Nordique","country":"France","website":"https://www.auberge-nordique.com","opening_hours":null,"capacity":null,"phone":"+33 4 50 02 31 12","osmType":"node","osmId":4918537622}},{"type":"Feature","geometry":{"type":"Point","coordinates":[5.95789,45.02426]},"properties":{"name":"Bergerie de Cote Belle","country":"France","website":null,"opening_hours":null,"capacity":null,"phone":null,"osmType":"node","osmId":4988282729}},{"type":"Feature","geometry":{"type":"Point","coordinates":[6.93964,43.66896]},"properties":{"name":"Château Saint-Georges","country":"France","website":null,"opening_hours":null,"capacity":null,"phone":null,"osmType":"node","osmId":5040757921}},{"type":"Feature","geometry":{"type":"Point","coordinates":[6.15651,44.87334]},"properties":{"name":"Cabane du Chatellerat","country":"France","website":null,"opening_hours":null,"capacity":null,"phone":null,"osmType":"node","osmId":5048454721}},{"type":"Feature","geometry":{"type":"Point","coordinates":[7.13272,47.85151]},"properties":{"name":"Refuge du Molkenrain","country":"France","website":"https://www.refuge-molkenrain.fr/","opening_hours":null,"capacity":null,"phone":"+33 3 89 37 32 52","osmType":"node","osmId":5104722643,"elevation":"1100"}},{"type":"Feature","geometry":{"type":"Point","coordinates":[0.29391,42.708]},"properties":{"name":"Hospice du Rioumajou","country":"France","website":"https://fr-fr.facebook.com/rioumajou","opening_hours":"Apr16-Oct 30","capacity":"24","phone":"+33 9 88 18 78 93","osmType":"node","osmId":5250543968,"elevation":"1567"}},{"type":"Feature","geometry":{"type":"Point","coordinates":[0.22059,42.94577]},"properties":{"name":"Gite de Litbere","country":"France","website":null,"opening_hours":null,"capacity":null,"phone":null,"osmType":"node","osmId":5383455522}},{"type":"Feature","geometry":{"type":"Point","coordinates":[3.00815,43.6102]},"properties":{"name":"Gîte d'étape de La Fage","country":"France","website":"https://www.hameau-la-fage.fr/","opening_hours":null,"capacity":"25","phone":null,"osmType":"node","osmId":5415388421}},{"type":"Feature","geometry":{"type":"Point","coordinates":[5.97782,44.85829]},"properties":{"name":"Gite - Refuge","country":"France","website":null,"opening_hours":null,"capacity":null,"phone":null,"osmType":"node","osmId":5420534346,"elevation":"1800"}},{"type":"Feature","geometry":{"type":"Point","coordinates":[6.5656,45.15734]},"properties":{"name":"Refuge des Marches","country":"France","website":"https://www.refugedesmarches.com/","opening_hours":null,"capacity":null,"phone":"+33 4 79 05 02 26","osmType":"node","osmId":5779938253}},{"type":"Feature","geometry":{"type":"Point","coordinates":[6.76066,45.8721]},"properties":{"name":"Refuge du Fioux","country":"France","website":null,"opening_hours":null,"capacity":null,"phone":null,"osmType":"node","osmId":5856933885}},{"type":"Feature","geometry":{"type":"Point","coordinates":[8.6424,42.40643]},"properties":{"name":"L'Etape Marine","country":"France","website":"http://www.gite-etape-corse.com","opening_hours":null,"capacity":null,"phone":"+33 4 95620046","osmType":"node","osmId":5863750680}},{"type":"Feature","geometry":{"type":"Point","coordinates":[5.50427,44.74596]},"properties":{"name":"Refuge d’Archiane","country":"France","website":null,"opening_hours":null,"capacity":"30","phone":"+33 4 75 21 24 47","osmType":"node","osmId":6412734285,"elevation":"784"}},{"type":"Feature","geometry":{"type":"Point","coordinates":[6.85464,47.80691]},"properties":{"name":"Chalet du Ski Club de Beaucourt","country":"France","website":"http://skiclubdebeaucourt.over-blog.com/","opening_hours":null,"capacity":null,"phone":null,"osmType":"node","osmId":6426537412}},{"type":"Feature","geometry":{"type":"Point","coordinates":[9.17588,41.64559]},"properties":{"name":"Le Refuge","country":"France","website":null,"opening_hours":null,"capacity":"44","phone":"+33 4 95 70 00 39","osmType":"node","osmId":6536773526,"elevation":"1022"}},{"type":"Feature","geometry":{"type":"Point","coordinates":[2.85573,43.68535]},"properties":{"name":"Gîte communal","country":"France","website":null,"opening_hours":null,"capacity":null,"phone":null,"osmType":"node","osmId":6575027485}},{"type":"Feature","geometry":{"type":"Point","coordinates":[6.93788,45.24634]},"properties":{"name":"Les Roches Blanches","country":"France","website":null,"opening_hours":null,"capacity":null,"phone":null,"osmType":"node","osmId":6593452791}},{"type":"Feature","geometry":{"type":"Point","coordinates":[0.61926,42.8323]},"properties":{"name":"Gîte d'étape GR10","country":"France","website":null,"opening_hours":null,"capacity":null,"phone":null,"osmType":"node","osmId":6624776590}},{"type":"Feature","geometry":{"type":"Point","coordinates":[3.72085,45.73427]},"properties":{"name":"Gîte","country":"France","website":null,"opening_hours":null,"capacity":null,"phone":null,"osmType":"node","osmId":6684721085}},{"type":"Feature","geometry":{"type":"Point","coordinates":[6.82711,45.3294]},"properties":{"name":"Auberge de Bellecombe","country":"France","website":"https://www.aubergedebellecombe.com/","opening_hours":"jun-sep","capacity":null,"phone":"+33 4 79 56 32 70","osmType":"node","osmId":6698480729}},{"type":"Feature","geometry":{"type":"Point","coordinates":[1.24677,45.51191]},"properties":{"name":null,"country":"France","website":null,"opening_hours":null,"capacity":null,"phone":null,"osmType":"node","osmId":6699028486}},{"type":"Feature","geometry":{"type":"Point","coordinates":[1.76614,42.404]},"properties":{"name":"Cal Tendre Sidró","country":"France","website":"https://www.cerdanya.org/cal-pere-sidro/","opening_hours":null,"capacity":"25","phone":"+34 638 736 690","osmType":"node","osmId":6703669687}},{"type":"Feature","geometry":{"type":"Point","coordinates":[5.53986,44.73109]},"properties":{"name":"Gîte de Bénevise","country":"France","website":"http://www.gite-de-benevise.com/index.php/fr/","opening_hours":null,"capacity":"20","phone":"+33 4 75 21 16 14","osmType":"node","osmId":6725018742,"elevation":"1001"}},{"type":"Feature","geometry":{"type":"Point","coordinates":[6.11936,46.10418]},"properties":{"name":"Gîte la Fromagerie de Beaumont","country":"France","website":"https://www.montsdegeneve.com/offres/gite-la-fromagerie-de-beaumont-beaumont-fr-2212772/","opening_hours":null,"capacity":null,"phone":"+33 6 56 76 06 34","osmType":"node","osmId":6758668149}},{"type":"Feature","geometry":{"type":"Point","coordinates":[7.05368,47.90927]},"properties":{"name":"Chalet-Refuge du Ski Club Edelweiss Saint-Amarin","country":"France","website":"https://www.edelweiss-saint-amarin.fr/","opening_hours":null,"capacity":null,"phone":null,"osmType":"node","osmId":6764088330}},{"type":"Feature","geometry":{"type":"Point","coordinates":[5.56653,44.76557]},"properties":{"name":"Auberge de Combeau","country":"France","website":"https://www.ladromemontagne.fr/fr/hiver/sitra-collectif/gite-d-etape-auberge-de-combeau-60933.html","opening_hours":null,"capacity":"18","phone":"+33 4 75 21 12 63","osmType":"node","osmId":6767063263,"elevation":"1370"}},{"type":"Feature","geometry":{"type":"Point","coordinates":[7.01442,47.82306]},"properties":{"name":"Ski Club Sportif Mulhouse","country":"France","website":null,"opening_hours":null,"capacity":null,"phone":null,"osmType":"node","osmId":6795986904,"elevation":"1140"}},{"type":"Feature","geometry":{"type":"Point","coordinates":[6.27782,45.43745]},"properties":{"name":"Au Pied du Mur","country":"France","website":null,"opening_hours":null,"capacity":null,"phone":null,"osmType":"node","osmId":7214796685}},{"type":"Feature","geometry":{"type":"Point","coordinates":[0.19032,42.61815]},"properties":{"name":"Refugio Montinier","country":"France","website":null,"opening_hours":null,"capacity":null,"phone":null,"osmType":"node","osmId":7809431811}},{"type":"Feature","geometry":{"type":"Point","coordinates":[5.77982,46.23338]},"properties":{"name":"Chalet de la Fauconière","country":"France","website":"https://chaletlafauconiere.wixsite.com/chaletlafauconiere","opening_hours":null,"capacity":null,"phone":"+33 4 50 59 80 06","osmType":"node","osmId":7909080085}},{"type":"Feature","geometry":{"type":"Point","coordinates":[1.1883,42.75695]},"properties":{"name":"Gîte de Couflens Salau","country":"France","website":null,"opening_hours":null,"capacity":"17","phone":"+33 5 61 66 90 61","osmType":"node","osmId":7936150115,"elevation":"840"}},{"type":"Feature","geometry":{"type":"Point","coordinates":[1.33886,42.79136]},"properties":{"name":"Gîte d'étape Le Presbytère","country":"France","website":"http://www.giteaulus.com/index.html","opening_hours":null,"capacity":"20","phone":"+33 5 61 96 02 21;+33 7 68 07 41 07","osmType":"node","osmId":7941375566,"elevation":"750"}},{"type":"Feature","geometry":{"type":"Point","coordinates":[6.841,47.99586]},"properties":{"name":"La Ferme du vieux Sapin","country":"France","website":null,"opening_hours":null,"capacity":null,"phone":null,"osmType":"node","osmId":7952310885}},{"type":"Feature","geometry":{"type":"Point","coordinates":[8.84181,41.63706]},"properties":{"name":"Fianca L'Osso","country":"France","website":null,"opening_hours":null,"capacity":null,"phone":"+33 6 27 30 20 18","osmType":"node","osmId":7963548885}},{"type":"Feature","geometry":{"type":"Point","coordinates":[2.85163,45.59673]},"properties":{"name":"Buron du Col","country":"France","website":"https://www.buronducol.fr/","opening_hours":null,"capacity":"12","phone":"+33 4 73 22 14 25","osmType":"node","osmId":8269607792,"elevation":"1401"}},{"type":"Feature","geometry":{"type":"Point","coordinates":[2.03374,42.76677]},"properties":{"name":"Refuge d'Ourtiset","country":"France","website":null,"opening_hours":null,"capacity":null,"phone":null,"osmType":"node","osmId":8354958607}},{"type":"Feature","geometry":{"type":"Point","coordinates":[6.43056,45.09806]},"properties":{"name":"Refuge les Thymelets","country":"France","website":null,"opening_hours":null,"capacity":null,"phone":null,"osmType":"node","osmId":8518473885}},{"type":"Feature","geometry":{"type":"Point","coordinates":[9.2375,42.2866]},"properties":{"name":"A Casa Aperta","country":"France","website":null,"opening_hours":null,"capacity":null,"phone":"+33495610921","osmType":"node","osmId":8659360017}},{"type":"Feature","geometry":{"type":"Point","coordinates":[6.67163,44.15075]},"properties":{"name":"Gîte Retrouvance de la Fruchière","country":"France","website":"https://gitesetrandonnees.onf.fr/gite/gite-retrouvance-fruchiere/","opening_hours":null,"capacity":"12","phone":null,"osmType":"node","osmId":8720717826}},{"type":"Feature","geometry":{"type":"Point","coordinates":[2.8641,42.46513]},"properties":{"name":"Chez Paco","country":"France","website":null,"opening_hours":"24/7","capacity":null,"phone":"+33 613098931","osmType":"node","osmId":8889601318}},{"type":"Feature","geometry":{"type":"Point","coordinates":[7.13798,47.85706]},"properties":{"name":"Refuge Ski Club Cernay","country":"France","website":null,"opening_hours":null,"capacity":null,"phone":null,"osmType":"node","osmId":8948839953}},{"type":"Feature","geometry":{"type":"Point","coordinates":[2.82227,45.0363]},"properties":{"name":"Auberge de l'Epie - Prat de Bouc","country":"France","website":"https://www.chambres-hotes.fr/42177","opening_hours":null,"capacity":null,"phone":null,"osmType":"node","osmId":9044236817}},{"type":"Feature","geometry":{"type":"Point","coordinates":[1.48875,42.75371]},"properties":{"name":null,"country":"France","website":null,"opening_hours":null,"capacity":null,"phone":null,"osmType":"node","osmId":9105367156}},{"type":"Feature","geometry":{"type":"Point","coordinates":[0.82736,42.83944]},"properties":{"name":"Cabane de Aoueran","country":"France","website":null,"opening_hours":null,"capacity":null,"phone":null,"osmType":"node","osmId":9122820437}},{"type":"Feature","geometry":{"type":"Point","coordinates":[6.60969,47.95685]},"properties":{"name":"Refuge \"Amis de la Nature\"","country":"France","website":null,"opening_hours":null,"capacity":null,"phone":null,"osmType":"node","osmId":9283948729}},{"type":"Feature","geometry":{"type":"Point","coordinates":[5.86152,44.71662]},"properties":{"name":"Cabane du Camarguier","country":"France","website":null,"opening_hours":null,"capacity":null,"phone":null,"osmType":"node","osmId":9331389317}},{"type":"Feature","geometry":{"type":"Point","coordinates":[5.84117,46.28164]},"properties":{"name":"Chalet d'accueil du site de Terre-Blanche","country":"France","website":null,"opening_hours":"Apr-Dec off","capacity":null,"phone":"+33 3 84 45 34 24","osmType":"node","osmId":9450151968}},{"type":"Feature","geometry":{"type":"Point","coordinates":[9.13334,42.72786]},"properties":{"name":"Refuges de Ghignu","country":"France","website":"https://agriate.org/les-paillers-ghignu","opening_hours":null,"capacity":null,"phone":"+33 4 95 59 17 35","osmType":"node","osmId":9526689168}},{"type":"Feature","geometry":{"type":"Point","coordinates":[6.39218,45.80686]},"properties":{"name":"Refuge des Fontanettes","country":"France","website":"https://www.savoie-mont-blanc.com/reuges-gites-etapes/refuge-des-fontanettes-737941/","opening_hours":null,"capacity":null,"phone":"+33 4 50 27 52 06","osmType":"node","osmId":9582832773}},{"type":"Feature","geometry":{"type":"Point","coordinates":[6.56967,45.24698]},"properties":{"name":null,"country":"France","website":null,"opening_hours":null,"capacity":null,"phone":null,"osmType":"node","osmId":9827440361}},{"type":"Feature","geometry":{"type":"Point","coordinates":[6.99222,45.40139]},"properties":{"name":null,"country":"France","website":null,"opening_hours":null,"capacity":null,"phone":null,"osmType":"node","osmId":9827633831}},{"type":"Feature","geometry":{"type":"Point","coordinates":[6.85658,45.35976]},"properties":{"name":null,"country":"France","website":null,"opening_hours":null,"capacity":null,"phone":null,"osmType":"node","osmId":9827633837}},{"type":"Feature","geometry":{"type":"Point","coordinates":[7.06391,47.91637]},"properties":{"name":"USM Mordfeld","country":"France","website":null,"opening_hours":null,"capacity":null,"phone":null,"osmType":"node","osmId":10133770599}},{"type":"Feature","geometry":{"type":"Point","coordinates":[1.52826,42.57045]},"properties":{"name":"Les planes de Sornas","country":"France","website":null,"opening_hours":null,"capacity":null,"phone":null,"osmType":"node","osmId":10154233917}},{"type":"Feature","geometry":{"type":"Point","coordinates":[3.83541,44.18329]},"properties":{"name":"Le Mas Stevenson","country":"France","website":"http://www.lemasstevenson.fr/","opening_hours":null,"capacity":null,"phone":"+33 4 66 47 06 12","osmType":"node","osmId":10316463321}},{"type":"Feature","geometry":{"type":"Point","coordinates":[6.9061,47.83231]},"properties":{"name":"Refuge Neuweiher","country":"France","website":null,"opening_hours":null,"capacity":null,"phone":null,"osmType":"node","osmId":10658228591}},{"type":"Feature","geometry":{"type":"Point","coordinates":[6.45732,45.40995]},"properties":{"name":"Refuge le Nant Brun","country":"France","website":"https://refugelenantbrun.fr","opening_hours":null,"capacity":null,"phone":"+33 6 36 17 34 29","osmType":"node","osmId":10848471385}},{"type":"Feature","geometry":{"type":"Point","coordinates":[1.09766,42.69982]},"properties":{"name":"Refugi d'Alós","country":"France","website":null,"opening_hours":null,"capacity":null,"phone":"+34625223987","osmType":"node","osmId":11053760167}},{"type":"Feature","geometry":{"type":"Point","coordinates":[6.5122,45.1308]},"properties":{"name":"Local hors gardiennage du refuge de Terre Rouge","country":"France","website":null,"opening_hours":null,"capacity":null,"phone":null,"osmType":"node","osmId":11066862420}},{"type":"Feature","geometry":{"type":"Point","coordinates":[6.69184,45.84011]},"properties":{"name":"Refuge du Mont-Joly","country":"France","website":"https://www.refuge-mont-joly.com/","opening_hours":null,"capacity":null,"phone":"+33 4 50 93 10 10;+33 6 63 83 67 82","osmType":"node","osmId":11132299514}},{"type":"Feature","geometry":{"type":"Point","coordinates":[1.6865,42.97306]},"properties":{"name":null,"country":"France","website":null,"opening_hours":null,"capacity":null,"phone":null,"osmType":"node","osmId":11178249637}},{"type":"Feature","geometry":{"type":"Point","coordinates":[0.54912,42.71481]},"properties":{"name":"Refuge de Maupas","country":"France","website":null,"opening_hours":null,"capacity":null,"phone":null,"osmType":"node","osmId":11190742937}},{"type":"Feature","geometry":{"type":"Point","coordinates":[5.51057,45.09938]},"properties":{"name":"Cabane Depetro Gervasoni","country":"France","website":null,"opening_hours":null,"capacity":null,"phone":null,"osmType":"node","osmId":11343254722}},{"type":"Feature","geometry":{"type":"Point","coordinates":[6.39542,43.86503]},"properties":{"name":"Gîte Le Levant - La Castelle","country":"France","website":null,"opening_hours":null,"capacity":null,"phone":null,"osmType":"node","osmId":11773835969}},{"type":"Feature","geometry":{"type":"Point","coordinates":[6.4519,44.88464]},"properties":{"name":"Gîte Lei Meidi","country":"France","website":null,"opening_hours":null,"capacity":null,"phone":null,"osmType":"node","osmId":12171883101}},{"type":"Feature","geometry":{"type":"Point","coordinates":[6.21461,45.46111]},"properties":{"name":"Cabane de Champet","country":"France","website":null,"opening_hours":null,"capacity":null,"phone":null,"osmType":"node","osmId":12175066052}},{"type":"Feature","geometry":{"type":"Point","coordinates":[5.75957,45.9315]},"properties":{"name":"Chalet d'Arvière","country":"France","website":"https://www.chaletdarviere.com/","opening_hours":null,"capacity":null,"phone":"+33665357912","osmType":"node","osmId":12285180562,"elevation":"1167"}},{"type":"Feature","geometry":{"type":"Point","coordinates":[7.04406,48.39122]},"properties":{"name":"Auberge Le Raybois","country":"France","website":"http://le.raybois.free.f","opening_hours":null,"capacity":null,"phone":null,"osmType":"node","osmId":12311599801}},{"type":"Feature","geometry":{"type":"Point","coordinates":[3.03389,50.50793]},"properties":{"name":null,"country":"France","website":null,"opening_hours":null,"capacity":null,"phone":null,"osmType":"node","osmId":12441177421}},{"type":"Feature","geometry":{"type":"Point","coordinates":[6.58274,44.87814]},"properties":{"name":"Cabane de Sachas","country":"France","website":"https://provence-alpes-cotedazur.com/sejourner/hebergements/tous-les-hebergements/cabane-de-sachas-puy-saint-andre-fr-4162844/","opening_hours":null,"capacity":null,"phone":"+33 4 92 20 24 26","osmType":"node","osmId":12543660433}},{"type":"Feature","geometry":{"type":"Point","coordinates":[2.39501,42.90168]},"properties":{"name":"Ancienne Verrerie du Bourrasset","country":"France","website":null,"opening_hours":null,"capacity":null,"phone":null,"osmType":"node","osmId":12758124798}},{"type":"Feature","geometry":{"type":"Point","coordinates":[8.9068,42.46517]},"properties":{"name":"Refuge","country":"France","website":null,"opening_hours":null,"capacity":null,"phone":null,"osmType":"node","osmId":12955341201}},{"type":"Feature","geometry":{"type":"Point","coordinates":[8.90903,42.36215]},"properties":{"name":"Refuge","country":"France","website":null,"opening_hours":null,"capacity":null,"phone":null,"osmType":"node","osmId":12955341301}},{"type":"Feature","geometry":{"type":"Point","coordinates":[2.66617,43.88718]},"properties":{"name":"Salan","country":"France","website":null,"opening_hours":null,"capacity":null,"phone":null,"osmType":"node","osmId":12995442201}},{"type":"Feature","geometry":{"type":"Point","coordinates":[7.28068,48.39247]},"properties":{"name":"La Chaume des Veaux (les amis de la nature)","country":"France","website":null,"opening_hours":null,"capacity":null,"phone":null,"osmType":"node","osmId":13103807723}},{"type":"Feature","geometry":{"type":"Point","coordinates":[6.38434,44.46285]},"properties":{"name":"Abri ouvert non gardé","country":"France","website":null,"opening_hours":null,"capacity":null,"phone":null,"osmType":"node","osmId":13114715885}},{"type":"Feature","geometry":{"type":"Point","coordinates":[6.3969,44.50429]},"properties":{"name":null,"country":"France","website":null,"opening_hours":null,"capacity":null,"phone":null,"osmType":"node","osmId":13116267681}},{"type":"Feature","geometry":{"type":"Point","coordinates":[6.74957,45.83625]},"properties":{"name":"Auberge du Truc","country":"France","website":"https://www.montourdumontblanc.com/fr/il4-refuge_i32365-auberge-du-truc.aspx","opening_hours":"2025 Jun 10-2025 Sep 17 open","capacity":"28","phone":"+33 4 50 93 12 48","osmType":"node","osmId":13124891039,"elevation":"1750"}},{"type":"Feature","geometry":{"type":"Point","coordinates":[6.73478,45.79175]},"properties":{"name":"Refuge de Tré la Tête","country":"France","website":"https://www.trelatete.com","opening_hours":null,"capacity":null,"phone":"+33 4 50 47 01 68","osmType":"node","osmId":13140705117}},{"type":"Feature","geometry":{"type":"Point","coordinates":[6.82961,45.92218]},"properties":{"name":"Refuge de Bellachat","country":"France","website":"https://www.refuge-bellachat.com/","opening_hours":"Jun 20-Sep 27","capacity":null,"phone":"+33 7 75 83 02 70","osmType":"node","osmId":13593106321,"elevation":"2136"}},{"type":"Feature","geometry":{"type":"Point","coordinates":[7.4816,47.80258]},"properties":{"name":null,"country":"France","website":null,"opening_hours":null,"capacity":null,"phone":null,"osmType":"node","osmId":13776476602}},{"type":"Feature","geometry":{"type":"Point","coordinates":[3.51539,43.91029]},"properties":{"name":"LE CROM De BLANDAS Gîte d’étape","country":"France","website":null,"opening_hours":null,"capacity":null,"phone":null,"osmType":"node","osmId":13828207337}},{"type":"Feature","geometry":{"type":"Point","coordinates":[3.60437,43.98323]},"properties":{"name":"Gîte d’étape réservé aux randonneurs","country":"France","website":"https://www.village-vacances-cevennes.fr","opening_hours":null,"capacity":null,"phone":null,"osmType":"node","osmId":13828221963}},{"type":"Feature","geometry":{"type":"Point","coordinates":[5.95766,46.24812]},"properties":{"name":"Le Tiocan","country":"France","website":"http://association.objectif.gaia.over-blog.com/","opening_hours":null,"capacity":"15","phone":"+33 4 50 41 48 09","osmType":"way","osmId":30596129}},{"type":"Feature","geometry":{"type":"Point","coordinates":[6.76604,45.78696]},"properties":{"name":"Refuge des Conscrits","country":"France","website":"https://refugedesconscrits.ffcam.fr/","opening_hours":null,"capacity":null,"phone":"+33 4 79 89 09 03","osmType":"way","osmId":32571532,"elevation":"2610"}},{"type":"Feature","geometry":{"type":"Point","coordinates":[6.41163,44.93754]},"properties":{"name":"Refuge du Glacier Blanc","country":"France","website":"https://refugeduglacierblanc.ffcam.fr/","opening_hours":null,"capacity":null,"phone":"+33 4 92 23 50 24","osmType":"way","osmId":33058358,"elevation":"2542"}},{"type":"Feature","geometry":{"type":"Point","coordinates":[6.24917,44.98229]},"properties":{"name":"Refuge de la Selle","country":"France","website":"https://www.refugedelaselle.com/","opening_hours":null,"capacity":null,"phone":null,"osmType":"way","osmId":34070974,"elevation":"2673"}},{"type":"Feature","geometry":{"type":"Point","coordinates":[6.2439,44.9605]},"properties":{"name":"Refuge du Soreiller","country":"France","website":"https://soreiller.com/home/","opening_hours":null,"capacity":null,"phone":null,"osmType":"way","osmId":34070975}},{"type":"Feature","geometry":{"type":"Point","coordinates":[6.2995,44.9758]},"properties":{"name":"Refuge du Châtelleret","country":"France","website":"https://refugechatelleret.ffcam.fr/","opening_hours":null,"capacity":null,"phone":"+33 4 76 79 08 27","osmType":"way","osmId":34070977,"elevation":"2225"}},{"type":"Feature","geometry":{"type":"Point","coordinates":[6.20616,44.89862]},"properties":{"name":"Refuge de la Lavey","country":"France","website":"https://refugelalavey.ffcam.fr/","opening_hours":null,"capacity":null,"phone":"+33 4 76 80 50 52","osmType":"way","osmId":34070981,"elevation":"1797"}},{"type":"Feature","geometry":{"type":"Point","coordinates":[6.17439,44.94485]},"properties":{"name":"Refuge de l'Alpe du Pin","country":"France","website":null,"opening_hours":null,"capacity":null,"phone":null,"osmType":"way","osmId":34071014}},{"type":"Feature","geometry":{"type":"Point","coordinates":[6.29347,44.9325]},"properties":{"name":"Chalet Alpin de la Bérarde","country":"France","website":"https://chaletlaberarde.ffcam.fr/","opening_hours":null,"capacity":null,"phone":"+33 4 76 79 53 83","osmType":"way","osmId":34139019,"elevation":"1740"}},{"type":"Feature","geometry":{"type":"Point","coordinates":[6.07854,45.249]},"properties":{"name":"Refuge des 7 Laux","country":"France","website":"https://refugedes7laux.jimdofree.com/","opening_hours":"Jun-Sep 00:00-24:00","capacity":null,"phone":"+33 4 76 45 99 11","osmType":"way","osmId":35777417,"elevation":"2135"}},{"type":"Feature","geometry":{"type":"Point","coordinates":[6.6747,45.7227]},"properties":{"name":"Refuge de la Gittaz","country":"France","website":"https://refuge-gittaz.com/","opening_hours":null,"capacity":"31","phone":null,"osmType":"way","osmId":38144283}},{"type":"Feature","geometry":{"type":"Point","coordinates":[6.88337,45.21589]},"properties":{"name":"Refuge du Petit Mont Cenis","country":"France","website":"https://www.petitmontcenis.com/","opening_hours":null,"capacity":"53","phone":"+33 4 79 05 88 67","osmType":"way","osmId":39672207,"elevation":"2110"}},{"type":"Feature","geometry":{"type":"Point","coordinates":[6.56121,45.58305]},"properties":{"name":"Refuge du Nant du Beurre","country":"France","website":null,"opening_hours":null,"capacity":null,"phone":null,"osmType":"way","osmId":40784837}},{"type":"Feature","geometry":{"type":"Point","coordinates":[6.60851,45.61829]},"properties":{"name":"Refuge de la Coire","country":"France","website":null,"opening_hours":null,"capacity":null,"phone":"+33 6 82 12 40 42","osmType":"way","osmId":40785150,"elevation":"2062"}},{"type":"Feature","geometry":{"type":"Point","coordinates":[6.14672,45.69097]},"properties":{"name":"Gîte des Garins","country":"France","website":"https://refugedesgarins.net/","opening_hours":null,"capacity":null,"phone":null,"osmType":"way","osmId":44028445}},{"type":"Feature","geometry":{"type":"Point","coordinates":[6.13543,45.31409]},"properties":{"name":"Refuge de l'Oule","country":"France","website":"https://refugedeloule.com/","opening_hours":null,"capacity":null,"phone":null,"osmType":"way","osmId":44890513,"elevation":"1836"}},{"type":"Feature","geometry":{"type":"Point","coordinates":[6.6592,45.28934]},"properties":{"name":"Refuge de Péclet-Polset","country":"France","website":"https://refugepecletpolset.ffcam.fr/","opening_hours":null,"capacity":null,"phone":"+33 4 79 08 72 13","osmType":"way","osmId":47597059,"elevation":"2479"}},{"type":"Feature","geometry":{"type":"Point","coordinates":[6.69125,45.32785]},"properties":{"name":"Refuge du Roc de la Pêche","country":"France","website":"https://www.lerocdelapeche.com/page/home","opening_hours":null,"capacity":null,"phone":"+33 4 79 08 79 75","osmType":"way","osmId":47600502,"elevation":"1911"}},{"type":"Feature","geometry":{"type":"Point","coordinates":[6.70203,45.3479]},"properties":{"name":"Refuge Le Repoju","country":"France","website":"https://www.refuge-repoju.com/","opening_hours":null,"capacity":null,"phone":null,"osmType":"way","osmId":47801203}},{"type":"Feature","geometry":{"type":"Point","coordinates":[3.54925,43.73407]},"properties":{"name":"Chalet de Saint-Guilhem-le-Désert","country":"France","website":"https://refugestguilhemledesert.ffcam.fr/","opening_hours":null,"capacity":null,"phone":"+33 4 67 29 39 98","osmType":"way","osmId":54568744,"elevation":"89"}},{"type":"Feature","geometry":{"type":"Point","coordinates":[6.71805,44.62373]},"properties":{"name":"Refuge de Basse Rua","country":"France","website":"http://www.refuge-basserua.fr/","opening_hours":null,"capacity":"24","phone":"+33 6 22 66 58 21","osmType":"way","osmId":57721313,"elevation":"1750"}},{"type":"Feature","geometry":{"type":"Point","coordinates":[9.19147,42.5823]},"properties":{"name":"Refuge de Prunicu","country":"France","website":null,"opening_hours":null,"capacity":null,"phone":null,"osmType":"way","osmId":60367457}},{"type":"Feature","geometry":{"type":"Point","coordinates":[2.00344,42.55898]},"properties":{"name":"Refuge des Bouillouses","country":"France","website":null,"opening_hours":null,"capacity":"59","phone":null,"osmType":"way","osmId":62439423,"elevation":"2005"}},{"type":"Feature","geometry":{"type":"Point","coordinates":[5.86749,45.1416]},"properties":{"name":"Refuge du Marais","country":"France","website":"https://amis-nature.org/spip.php?article246","opening_hours":null,"capacity":null,"phone":"+33 4 76 09 02 99","osmType":"way","osmId":63086184,"elevation":"1110"}},{"type":"Feature","geometry":{"type":"Point","coordinates":[6.84943,47.79644]},"properties":{"name":"Refuge du Plain de la Gentiane","country":"France","website":null,"opening_hours":null,"capacity":null,"phone":null,"osmType":"way","osmId":63092893}},{"type":"Feature","geometry":{"type":"Point","coordinates":[6.84858,47.80209]},"properties":{"name":"Refuge des amis de la natures","country":"France","website":"https://www.amis-nature-belfort.fr/","opening_hours":null,"capacity":null,"phone":null,"osmType":"way","osmId":63093181}},{"type":"Feature","geometry":{"type":"Point","coordinates":[7.10414,47.91165]},"properties":{"name":"Refuge du Roedelen","country":"France","website":"https://www.ski-club-guebwiller.com/index.php?action=refuge","opening_hours":null,"capacity":null,"phone":null,"osmType":"way","osmId":63395808}},{"type":"Feature","geometry":{"type":"Point","coordinates":[6.05977,45.32886]},"properties":{"name":"Refuge du Crêt du Poulet","country":"France","website":null,"opening_hours":null,"capacity":"23","phone":null,"osmType":"way","osmId":64025534}},{"type":"Feature","geometry":{"type":"Point","coordinates":[6.49215,44.86062]},"properties":{"name":"Chalet Alpin L'Eychauda","country":"France","website":"https://chaletleychauda.ffcam.fr/","opening_hours":null,"capacity":null,"phone":"+33 4 92 23 49 51","osmType":"way","osmId":64219490,"elevation":"1267"}},{"type":"Feature","geometry":{"type":"Point","coordinates":[6.67056,45.97903]},"properties":{"name":"Refuge de Véran","country":"France","website":"https://refugedeveran.ffcam.fr","opening_hours":"Jul-Aug","capacity":"27","phone":"+33 6 67 25 28 53","osmType":"way","osmId":65189570,"elevation":"1608"}},{"type":"Feature","geometry":{"type":"Point","coordinates":[6.59259,45.94883]},"properties":{"name":"Refuge de Tornieux","country":"France","website":"https://refuge-tornieux.com/","opening_hours":null,"capacity":null,"phone":"+33 9 88 66 41 21","osmType":"way","osmId":65193253}},{"type":"Feature","geometry":{"type":"Point","coordinates":[6.58716,45.95021]},"properties":{"name":"Refuge de Mayères","country":"France","website":null,"opening_hours":null,"capacity":null,"phone":null,"osmType":"way","osmId":65195594}},{"type":"Feature","geometry":{"type":"Point","coordinates":[6.58742,45.9688]},"properties":{"name":"Refuge de Doran","country":"France","website":null,"opening_hours":null,"capacity":null,"phone":null,"osmType":"way","osmId":65198121,"elevation":"1495"}},{"type":"Feature","geometry":{"type":"Point","coordinates":[5.56963,43.52887]},"properties":{"name":"Refuge Cézanne","country":"France","website":null,"opening_hours":"Mo 12:05-12:10","capacity":null,"phone":null,"osmType":"way","osmId":66133273,"elevation":"450"}},{"type":"Feature","geometry":{"type":"Point","coordinates":[6.71905,45.26975]},"properties":{"name":"Refuge de la Dent Parrachée","country":"France","website":"https://refugeladentparrachee.ffcam.fr/","opening_hours":null,"capacity":null,"phone":"+33 4 79 20 32 87","osmType":"way","osmId":66691276,"elevation":"2520"}},{"type":"Feature","geometry":{"type":"Point","coordinates":[6.72498,45.26563]},"properties":{"name":"Refuge de la Fournache","country":"France","website":null,"opening_hours":null,"capacity":null,"phone":null,"osmType":"way","osmId":66693718,"elevation":"2363"}},{"type":"Feature","geometry":{"type":"Point","coordinates":[7.02486,48.03163]},"properties":{"name":"Refuge des Vosges Trotters Colmar","country":"France","website":"https://www.vosges-trotters-colmar.fr/","opening_hours":null,"capacity":null,"phone":"+33 635955083","osmType":"way","osmId":66961664}},{"type":"Feature","geometry":{"type":"Point","coordinates":[3.78263,45.68544]},"properties":{"name":"Gite-auberge du Col du Béal","country":"France","website":null,"opening_hours":null,"capacity":"24","phone":"+33 4 73 72 09 37","osmType":"way","osmId":68586205,"elevation":"1390"}},{"type":"Feature","geometry":{"type":"Point","coordinates":[6.22225,44.71702]},"properties":{"name":"Refuge du Tourond","country":"France","website":"http://www.refugedutourond.com/","opening_hours":null,"capacity":null,"phone":null,"osmType":"way","osmId":69502521,"elevation":"1712"}},{"type":"Feature","geometry":{"type":"Point","coordinates":[6.34503,44.73018]},"properties":{"name":"Refuge des Estaris","country":"France","website":null,"opening_hours":null,"capacity":null,"phone":null,"osmType":"way","osmId":69595135,"elevation":"2570"}},{"type":"Feature","geometry":{"type":"Point","coordinates":[6.92176,47.96033]},"properties":{"name":"Refuge du grand Ventron","country":"France","website":"https://refugegrandventron.ffcam.fr/","opening_hours":null,"capacity":null,"phone":"+33 3 29 23 12 18","osmType":"way","osmId":70123532,"elevation":"1150"}},{"type":"Feature","geometry":{"type":"Point","coordinates":[6.26349,45.84086]},"properties":{"name":"Chalet de la Froulaz","country":"France","website":null,"opening_hours":null,"capacity":null,"phone":null,"osmType":"way","osmId":70581451}},{"type":"Feature","geometry":{"type":"Point","coordinates":[0.20538,42.8816]},"properties":{"name":"Refuge de Campana de Cloutou","country":"France","website":"https://refugecampanadecloutou.ffcam.fr/","opening_hours":null,"capacity":null,"phone":"+33 9 82 12 61 87","osmType":"way","osmId":70833186,"elevation":"2225"}},{"type":"Feature","geometry":{"type":"Point","coordinates":[7.02574,48.05328]},"properties":{"name":"Chalet-refuge Les Trois Fours","country":"France","website":"https://chaletrefuge3fours.ffcam.fr/","opening_hours":null,"capacity":null,"phone":"+33 3 89 77 32 59","osmType":"way","osmId":71262275,"elevation":"1197"}},{"type":"Feature","geometry":{"type":"Point","coordinates":[7.05268,48.07579]},"properties":{"name":"Auberge Schupferen","country":"France","website":"https://www.jds.fr/stosswihr/ferme-auberge-alsace/auberge-schupferen-stosswihr-haut-rhin-2134_L","opening_hours":null,"capacity":null,"phone":"+33 3 89 77 31 23","osmType":"way","osmId":71262529,"elevation":"1152"}},{"type":"Feature","geometry":{"type":"Point","coordinates":[2.13187,42.57491]},"properties":{"name":"Refuge du Col del Torn","country":"France","website":"https://www.refugeducoldeltorn.fr/","opening_hours":"Jun Sa-Su; Jul-Aug Mo-Su; Sep-Oct Tu-Su; Dec-Apr Tu-Su,SH Mo-Su","capacity":"11","phone":"+33 6 31 11 97 84","osmType":"way","osmId":72356279,"elevation":"1870"}},{"type":"Feature","geometry":{"type":"Point","coordinates":[6.71211,44.72769]},"properties":{"name":"Refuge de Furfande","country":"France","website":"https://www.refugedefurfande.com/","opening_hours":null,"capacity":null,"phone":"+33 6 16 56 23 79","osmType":"way","osmId":72558894,"elevation":"2300"}},{"type":"Feature","geometry":{"type":"Point","coordinates":[6.80313,44.64397]},"properties":{"name":"Refuge de la Cime du Melezet","country":"France","website":null,"opening_hours":null,"capacity":null,"phone":null,"osmType":"way","osmId":72649618}},{"type":"Feature","geometry":{"type":"Point","coordinates":[6.18816,45.73658]},"properties":{"name":"Les Ailes du Nant","country":"France","website":"http://ailesdunant.free.fr/","opening_hours":null,"capacity":null,"phone":null,"osmType":"way","osmId":74064450,"elevation":"1350"}},{"type":"Feature","geometry":{"type":"Point","coordinates":[6.7983,46.03227]},"properties":{"name":"Refuge du Grenairon","country":"France","website":"https://grenairon.com/","opening_hours":"Jun-Sep","capacity":null,"phone":"+33 4 50 34 47 31","osmType":"way","osmId":75225360,"elevation":"1974"}},{"type":"Feature","geometry":{"type":"Point","coordinates":[7.33426,44.1611]},"properties":{"name":"Rifugio Genova-Figari","country":"France","website":"https://www.rifugiogenova.it/","opening_hours":null,"capacity":null,"phone":"+39 0171 978138","osmType":"way","osmId":75614681,"elevation":"2010"}},{"type":"Feature","geometry":{"type":"Point","coordinates":[5.47571,45.01068]},"properties":{"name":"Auberge de Roybon","country":"France","website":"https://www.aubergederoybon.fr/","opening_hours":null,"capacity":null,"phone":"+33 4 75 45 54 03","osmType":"way","osmId":78226893}},{"type":"Feature","geometry":{"type":"Point","coordinates":[6.68931,45.94541]},"properties":{"name":"Refuge de Varan","country":"France","website":null,"opening_hours":null,"capacity":"28","phone":"+33 4 50 93 61 98","osmType":"way","osmId":78661488,"elevation":"1620"}},{"type":"Feature","geometry":{"type":"Point","coordinates":[6.76367,45.95139]},"properties":{"name":"Refuge Le Châtelet d'Ayères","country":"France","website":"http://lechateletdayeres.pagesperso-orange.fr/topic/index.html","opening_hours":"May-Sep","capacity":null,"phone":"+33 4 50 58 85 32","osmType":"way","osmId":78665050,"elevation":"1425"}},{"type":"Feature","geometry":{"type":"Point","coordinates":[6.71728,45.96561]},"properties":{"name":"Refuge de Platé","country":"France","website":"https://refugedeplate.ffcam.fr/","opening_hours":null,"capacity":null,"phone":"+33 6 47 20 05 87","osmType":"way","osmId":78665211,"elevation":"2032"}},{"type":"Feature","geometry":{"type":"Point","coordinates":[6.79133,46.00448]},"properties":{"name":"Refuge d'Anterne Alfred Wills","country":"France","website":"http://www.refuge-wills.com/","opening_hours":null,"capacity":null,"phone":"+33 6 70 63 12 45","osmType":"way","osmId":78668516,"elevation":"1810"}},{"type":"Feature","geometry":{"type":"Point","coordinates":[2.57913,45.07035]},"properties":{"name":"Gîte et Station du Col de Légal","country":"France","website":"www.coldelegal.com","opening_hours":null,"capacity":null,"phone":"+33471673066","osmType":"way","osmId":79630463,"elevation":"1231"}},{"type":"Feature","geometry":{"type":"Point","coordinates":[7.36405,44.13998]},"properties":{"name":"Rifugio Soria Ellena","country":"France","website":"https://rifugiosoria.com/","opening_hours":"Jun 15-Sep 15 00:00-24:00","capacity":null,"phone":"+39 0171 978382","osmType":"way","osmId":83490821,"elevation":"1840"}},{"type":"Feature","geometry":{"type":"Point","coordinates":[6.32137,45.941]},"properties":{"name":"Gîte Notre Dame des Neiges","country":"France","website":"https://www.gite-refuge-les-glieres.fr/","opening_hours":null,"capacity":null,"phone":"+33 4 50 22 80 88","osmType":"way","osmId":87077105}},{"type":"Feature","geometry":{"type":"Point","coordinates":[6.27428,45.88321]},"properties":{"name":"Refuge Le Lindion","country":"France","website":null,"opening_hours":null,"capacity":null,"phone":null,"osmType":"way","osmId":87077300}},{"type":"Feature","geometry":{"type":"Point","coordinates":[6.31366,45.93947]},"properties":{"name":null,"country":"France","website":null,"opening_hours":null,"capacity":null,"phone":null,"osmType":"way","osmId":87077569}},{"type":"Feature","geometry":{"type":"Point","coordinates":[8.89358,42.28679]},"properties":{"name":"Castel De Vergio","country":"France","website":null,"opening_hours":null,"capacity":null,"phone":null,"osmType":"way","osmId":89697304}},{"type":"Feature","geometry":{"type":"Point","coordinates":[6.33265,44.61599]},"properties":{"name":"Gîte des 3 Cols","country":"France","website":"https://gitedes3cols.fr/","opening_hours":null,"capacity":"40","phone":null,"osmType":"way","osmId":90502596,"elevation":"1477"}},{"type":"Feature","geometry":{"type":"Point","coordinates":[6.67291,45.22923]},"properties":{"name":"Refuge de l'Orgère","country":"France","website":"https://refuge-orgere.vanoise.com","opening_hours":null,"capacity":null,"phone":"+33 7 61 71 68 47","osmType":"way","osmId":95777693,"elevation":"1935"}},{"type":"Feature","geometry":{"type":"Point","coordinates":[9.21828,42.00865]},"properties":{"name":"Refuge de Prati","country":"France","website":"https://pnr-resa.corsica/refuge.php?id_refuge=9","opening_hours":null,"capacity":"32","phone":null,"osmType":"way","osmId":96438686,"elevation":"1840"}},{"type":"Feature","geometry":{"type":"Point","coordinates":[0.49957,42.73052]},"properties":{"name":"Refuge d'Espingo","country":"France","website":"https://refugedespingo.ffcam.fr/","opening_hours":null,"capacity":null,"phone":"+33 5 61 79 20 01","osmType":"way","osmId":96705271,"elevation":"1967"}},{"type":"Feature","geometry":{"type":"Point","coordinates":[6.89818,44.42156]},"properties":{"name":"Rifugio della pace","country":"France","website":"http://www.rifugiodellapace.it/","opening_hours":null,"capacity":null,"phone":"+39 345 9607067","osmType":"way","osmId":96741752}},{"type":"Feature","geometry":{"type":"Point","coordinates":[6.71097,45.75742]},"properties":{"name":"Refuge de la Balme","country":"France","website":null,"opening_hours":null,"capacity":null,"phone":null,"osmType":"way","osmId":98061994,"elevation":"1706"}},{"type":"Feature","geometry":{"type":"Point","coordinates":[6.70158,45.76315]},"properties":{"name":"Refuge des prés","country":"France","website":"https://lerefugedespres.com","opening_hours":null,"capacity":null,"phone":"+33 6 61 86 50 43","osmType":"way","osmId":98062268}},{"type":"Feature","geometry":{"type":"Point","coordinates":[6.71425,45.77845]},"properties":{"name":"Chalet - Refuge de Nant Borrant","country":"France","website":"http://www.refuge-nantborrant.com/","opening_hours":null,"capacity":null,"phone":null,"osmType":"way","osmId":98063753}},{"type":"Feature","geometry":{"type":"Point","coordinates":[6.69177,45.781]},"properties":{"name":"Refuge La Roselette","country":"France","website":"https://www.laroselette.com","opening_hours":null,"capacity":"28","phone":"+33 4 50 47 13 31","osmType":"way","osmId":98063934,"elevation":"1873"}},{"type":"Feature","geometry":{"type":"Point","coordinates":[7.05347,45.37411]},"properties":{"name":"Chalet de Bonneval-sur-Arc","country":"France","website":"http://chaletbonnevalsurarc.ffcam.fr/","opening_hours":null,"capacity":null,"phone":null,"osmType":"way","osmId":100195472,"elevation":"1830"}},{"type":"Feature","geometry":{"type":"Point","coordinates":[7.06646,45.36958]},"properties":{"name":"Le Criou","country":"France","website":null,"opening_hours":"11:00-17:00","capacity":null,"phone":"+33 7 88 87 22 88","osmType":"way","osmId":100195867}},{"type":"Feature","geometry":{"type":"Point","coordinates":[7.20796,48.67686]},"properties":{"name":null,"country":"France","website":null,"opening_hours":null,"capacity":null,"phone":null,"osmType":"way","osmId":103884232}},{"type":"Feature","geometry":{"type":"Point","coordinates":[6.37141,45.99423]},"properties":{"name":"Refuge de Spée","country":"France","website":"http://www.savoie-mont-blanc.com/offre/fiche/refuge-de-spee/153590","opening_hours":null,"capacity":null,"phone":"+33 4 50 22 80 46","osmType":"way","osmId":107977366,"elevation":"1481"}},{"type":"Feature","geometry":{"type":"Point","coordinates":[5.9393,46.2573]},"properties":{"name":"Thoiry Devant","country":"France","website":null,"opening_hours":null,"capacity":null,"phone":null,"osmType":"way","osmId":108837308}},{"type":"Feature","geometry":{"type":"Point","coordinates":[6.84573,45.20609]},"properties":{"name":"Refuge du Suffet","country":"France","website":null,"opening_hours":null,"capacity":null,"phone":null,"osmType":"way","osmId":108962800}},{"type":"Feature","geometry":{"type":"Point","coordinates":[6.78923,45.20298]},"properties":{"name":"Refuge de Bramanette","country":"France","website":null,"opening_hours":null,"capacity":null,"phone":null,"osmType":"way","osmId":108963086}},{"type":"Feature","geometry":{"type":"Point","coordinates":[6.83927,45.36664]},"properties":{"name":"Refuge d'Entre Deux Eaux","country":"France","website":"https://www.refuges-vanoise.com/fiche-hebergement-entre-deux-eaux-tour-des-glaciers-de-la-vanoise-vanoise-60n5h5vonly9.html","opening_hours":null,"capacity":null,"phone":"+33 4 79 05 27 13","osmType":"way","osmId":108981729}},{"type":"Feature","geometry":{"type":"Point","coordinates":[6.92914,45.36276]},"properties":{"name":"Refuge de la Femma","country":"France","website":"https://refuge-femma.vanoise.com/","opening_hours":"jun-sep; mar-apr","capacity":null,"phone":"+33 4 79054540","osmType":"way","osmId":111555477,"elevation":"2352"}},{"type":"Feature","geometry":{"type":"Point","coordinates":[2.85322,45.56015]},"properties":{"name":"Le Buron de la Croix Saint-Robert","country":"France","website":"https://buron-st-robert.com/","opening_hours":null,"capacity":"10","phone":"+33 9 82 124 214","osmType":"way","osmId":111975657,"elevation":"1324"}},{"type":"Feature","geometry":{"type":"Point","coordinates":[6.73094,45.25727]},"properties":{"name":"Refuge de Plan Sec","country":"France","website":null,"opening_hours":null,"capacity":null,"phone":null,"osmType":"way","osmId":112147855}},{"type":"Feature","geometry":{"type":"Point","coordinates":[7.40037,44.10438]},"properties":{"name":"Refuge de Nice","country":"France","website":"https://refugedenice.ffcam.fr/","opening_hours":null,"capacity":null,"phone":"+33 4 93 62 59 99","osmType":"way","osmId":112981194,"elevation":"2232"}},{"type":"Feature","geometry":{"type":"Point","coordinates":[7.12204,47.98036]},"properties":{"name":"Refuge Rothenbrunnen (Amis de la Nature)","country":"France","website":"https://www.refuge-rothenbrunnen.fr","opening_hours":"Sa 16:00-24:00; Su 00:00-16:00","capacity":null,"phone":"+33 3 89773977","osmType":"way","osmId":113684899}},{"type":"Feature","geometry":{"type":"Point","coordinates":[0.49087,42.74454]},"properties":{"name":"Refuge du Lac d'Oô","country":"France","website":null,"opening_hours":null,"capacity":"25","phone":"+33 5 61 73 12 29","osmType":"way","osmId":115026754,"elevation":"1440"}},{"type":"Feature","geometry":{"type":"Point","coordinates":[7.35634,44.09577]},"properties":{"name":"Refuge de la Madone de Fenestre","country":"France","website":"http://chaletmadonedefenestre.ffcam.fr/","opening_hours":null,"capacity":null,"phone":"+33 6 09 17 89 58","osmType":"way","osmId":115739771,"elevation":"1903"}},{"type":"Feature","geometry":{"type":"Point","coordinates":[7.33084,44.12634]},"properties":{"name":"Refuge de la Cougourde","country":"France","website":"https://refugelacougourde.ffcam.fr/","opening_hours":null,"capacity":null,"phone":"+33 9 78 23 31 59","osmType":"way","osmId":115740095,"elevation":"2100"}},{"type":"Feature","geometry":{"type":"Point","coordinates":[7.32036,44.11176]},"properties":{"name":"Chalet Vidron","country":"France","website":null,"opening_hours":null,"capacity":null,"phone":null,"osmType":"way","osmId":115740659}},{"type":"Feature","geometry":{"type":"Point","coordinates":[1.72581,42.63806]},"properties":{"name":"Refuge du Rulhe","country":"France","website":"https://www.rulhe.com/","opening_hours":null,"capacity":null,"phone":"+33 5 61 65 65 01","osmType":"way","osmId":115802222,"elevation":"2185"}},{"type":"Feature","geometry":{"type":"Point","coordinates":[6.35665,45.08131]},"properties":{"name":"Refuge du Goléon","country":"France","website":"https://refugedugoleon.com/","opening_hours":null,"capacity":null,"phone":"+33687264654","osmType":"way","osmId":116800177,"elevation":"2472"}},{"type":"Feature","geometry":{"type":"Point","coordinates":[7.14553,48.19431]},"properties":{"name":"Refuge des Amis de la Nature Haycot","country":"France","website":"https://www.amis-nature.org/spip.php?article242","opening_hours":null,"capacity":null,"phone":"+33 3 89 47 21 73","osmType":"way","osmId":117097707}},{"type":"Feature","geometry":{"type":"Point","coordinates":[8.92234,42.40351]},"properties":{"name":"Refuge d'Ascu-Stagnu","country":"France","website":"https://pnr-resa.corsica/refuge.php?id_refuge=3","opening_hours":null,"capacity":"32","phone":"+33 4 95 51 79 10","osmType":"way","osmId":118990828,"elevation":"1422"}},{"type":"Feature","geometry":{"type":"Point","coordinates":[6.27442,45.67947]},"properties":{"name":"Chalet du Drison","country":"France","website":"https://www.refuges.info/point/67/cabane-non-gardee/Chalet-du-Drizon/","opening_hours":null,"capacity":null,"phone":null,"osmType":"way","osmId":119911316}},{"type":"Feature","geometry":{"type":"Point","coordinates":[6.54401,45.04637]},"properties":{"name":"Refuge de Ricou","country":"France","website":null,"opening_hours":null,"capacity":null,"phone":null,"osmType":"way","osmId":120461222,"elevation":"2115"}},{"type":"Feature","geometry":{"type":"Point","coordinates":[6.57068,45.01266]},"properties":{"name":"Refuge de Buffère","country":"France","website":"https://refugebuffere.com/","opening_hours":null,"capacity":null,"phone":"+33 4 92 21 34 03","osmType":"way","osmId":120461392,"elevation":"2076"}},{"type":"Feature","geometry":{"type":"Point","coordinates":[6.66133,45.00383]},"properties":{"name":"Auberge de la Cleida","country":"France","website":"https://www.auberge-lacleida-nevache.com/","opening_hours":null,"capacity":null,"phone":null,"osmType":"way","osmId":120461406}},{"type":"Feature","geometry":{"type":"Point","coordinates":[6.50805,45.0811]},"properties":{"name":"Refuge des Drayères","country":"France","website":"https://refugedesdrayeres.ffcam.fr/","opening_hours":null,"capacity":null,"phone":"+33 4 92 21 36 01;+33 6 45 74 07 93","osmType":"way","osmId":120461411,"elevation":"2180"}},{"type":"Feature","geometry":{"type":"Point","coordinates":[6.52986,45.05748]},"properties":{"name":"Refuge de Laval","country":"France","website":null,"opening_hours":null,"capacity":null,"phone":null,"osmType":"way","osmId":120462718,"elevation":"2000"}},{"type":"Feature","geometry":{"type":"Point","coordinates":[6.43331,45.79703]},"properties":{"name":"Refuge du Col de L'Arpettaz","country":"France","website":"https://refugearpettaz.com/","opening_hours":null,"capacity":null,"phone":"+33 4 79 31 47 91","osmType":"way","osmId":120682492}},{"type":"Feature","geometry":{"type":"Point","coordinates":[7.23274,44.19869]},"properties":{"name":"Rifugio Valasco","country":"France","website":"https://www.rifugiovalasco.it/","opening_hours":null,"capacity":null,"phone":"+39 348 3230266","osmType":"way","osmId":122993300,"elevation":"1764"}},{"type":"Feature","geometry":{"type":"Point","coordinates":[7.29317,48.24304]},"properties":{"name":"Refuge du Spitzenberg Selestat","country":"France","website":"https://www.vtselestat.fr/refuges","opening_hours":null,"capacity":null,"phone":"+33 3 89 73 10 21","osmType":"way","osmId":123102454}},{"type":"Feature","geometry":{"type":"Point","coordinates":[6.03496,45.72237]},"properties":{"name":"Refuge du Creux de Lachat","country":"France","website":"https://www.chamberymontagnes.com/fiche/refuge-du-creux-de-lachat/","opening_hours":null,"capacity":null,"phone":"+33 623 36 65 75","osmType":"way","osmId":125163188,"elevation":"1350"}},{"type":"Feature","geometry":{"type":"Point","coordinates":[6.76027,46.08158]},"properties":{"name":"Le Criouly","country":"France","website":null,"opening_hours":null,"capacity":null,"phone":null,"osmType":"way","osmId":126619394}},{"type":"Feature","geometry":{"type":"Point","coordinates":[6.73053,46.02836]},"properties":{"name":"Refuge du Lac de Gers","country":"France","website":"http://www.gitedegers.com/","opening_hours":null,"capacity":null,"phone":"+33 4 50 34 40 28","osmType":"way","osmId":126623354,"elevation":"1540"}},{"type":"Feature","geometry":{"type":"Point","coordinates":[5.56004,45.21817]},"properties":{"name":"Refuge de Gève","country":"France","website":"https://refugedegeve.com","opening_hours":null,"capacity":null,"phone":"+334 76 95 33 89","osmType":"way","osmId":126817444,"elevation":"1291"}},{"type":"Feature","geometry":{"type":"Point","coordinates":[5.5362,45.18911]},"properties":{"name":"Auberge du Banc de l'Ours","country":"France","website":"https://www.le-banc-de-lours.com/","opening_hours":null,"capacity":null,"phone":null,"osmType":"way","osmId":126817503}},{"type":"Feature","geometry":{"type":"Point","coordinates":[6.54445,45.95545]},"properties":{"name":"Refuge de la Pointe Percée - Gramusset","country":"France","website":"https://refugelapointepercee.ffcam.fr/","opening_hours":"Jun 15 - Sep 30","capacity":null,"phone":"+33 6 37 67 22 62","osmType":"way","osmId":127033827,"elevation":"2164"}},{"type":"Feature","geometry":{"type":"Point","coordinates":[6.5004,45.94329]},"properties":{"name":"Auberge Nordique","country":"France","website":null,"opening_hours":null,"capacity":null,"phone":null,"osmType":"way","osmId":127034738}},{"type":"Feature","geometry":{"type":"Point","coordinates":[6.50645,45.93617]},"properties":{"name":"Refuge de la Bombardellaz","country":"France","website":null,"opening_hours":null,"capacity":"0","phone":null,"osmType":"way","osmId":127035767}},{"type":"Feature","geometry":{"type":"Point","coordinates":[1.71563,42.60738]},"properties":{"name":"Refugi de Juclar","country":"France","website":"https://refugidejuclar.com","opening_hours":null,"capacity":"43","phone":"+376 678 145","osmType":"way","osmId":127125424,"elevation":"2310"}},{"type":"Feature","geometry":{"type":"Point","coordinates":[1.48976,42.66501]},"properties":{"name":"Refuge de l'Étang Fourcat","country":"France","website":"https://refugeetangfourcat.ffcam.fr/","opening_hours":null,"capacity":null,"phone":"+33 5 61 65 43 15","osmType":"way","osmId":127287254,"elevation":"2445"}},{"type":"Feature","geometry":{"type":"Point","coordinates":[6.70696,44.23778]},"properties":{"name":"Refuge du Lac d'Allos","country":"France","website":"https://refugedulacdallos.com/","opening_hours":null,"capacity":"42","phone":"+33 4 92 83 00 24","osmType":"way","osmId":127963931}},{"type":"Feature","geometry":{"type":"Point","coordinates":[6.62197,44.4291]},"properties":{"name":"Refuge de la Pare","country":"France","website":"https://refugedelapare.wordpress.com/","opening_hours":null,"capacity":"17","phone":"+33 659140391","osmType":"way","osmId":128067754,"elevation":"1832"}},{"type":"Feature","geometry":{"type":"Point","coordinates":[6.59575,44.29781]},"properties":{"name":"Refuge du Col d'Allos","country":"France","website":"https://www.refuge-col-dallos.fr/","opening_hours":null,"capacity":"40","phone":"+33 4 92 83 85 14","osmType":"way","osmId":128074058,"elevation":"2250"}},{"type":"Feature","geometry":{"type":"Point","coordinates":[6.74538,44.26387]},"properties":{"name":"Refuge de la Cayolle","country":"France","website":"https://refugedelacayolle.fr/","opening_hours":null,"capacity":"32","phone":"+33 9 88 18 24 55","osmType":"way","osmId":128075483,"elevation":"2262"}},{"type":"Feature","geometry":{"type":"Point","coordinates":[6.84238,44.59269]},"properties":{"name":"Chalet de Maljasset","country":"France","website":"https://chaletmaljasset.ffcam.fr/","opening_hours":null,"capacity":null,"phone":"+33 4 92 31 55 42","osmType":"way","osmId":128086926,"elevation":"1905"}},{"type":"Feature","geometry":{"type":"Point","coordinates":[6.37364,45.23393]},"properties":{"name":"Cabane des chasseurs","country":"France","website":null,"opening_hours":null,"capacity":null,"phone":null,"osmType":"way","osmId":128245965,"elevation":"1990"}},{"type":"Feature","geometry":{"type":"Point","coordinates":[5.60332,45.0958]},"properties":{"name":"Auberge des Allières","country":"France","website":"https://www.aubergedesallieres.com","opening_hours":null,"capacity":null,"phone":"+334 76 94 32 32","osmType":"way","osmId":129629151,"elevation":"1426"}},{"type":"Feature","geometry":{"type":"Point","coordinates":[6.43058,45.09819]},"properties":{"name":null,"country":"France","website":null,"opening_hours":null,"capacity":null,"phone":null,"osmType":"way","osmId":130914853}},{"type":"Feature","geometry":{"type":"Point","coordinates":[6.93726,45.31033]},"properties":{"name":"Refuge de Vallonbrun","country":"France","website":"https://refuge-vallonbrun.vanoise.com/","opening_hours":null,"capacity":null,"phone":null,"osmType":"way","osmId":131211293}},{"type":"Feature","geometry":{"type":"Point","coordinates":[5.89352,46.38548]},"properties":{"name":"Le Montavoix","country":"France","website":"https://montavoix.blogspot.com","opening_hours":null,"capacity":"12","phone":"+33 6 01 99 38 01","osmType":"way","osmId":135043695}},{"type":"Feature","geometry":{"type":"Point","coordinates":[6.15417,44.52134]},"properties":{"name":"Gîte Béthanie","country":"France","website":null,"opening_hours":null,"capacity":null,"phone":null,"osmType":"way","osmId":135482783}},{"type":"Feature","geometry":{"type":"Point","coordinates":[5.59014,45.17992]},"properties":{"name":"Gite d'alpage de la Molière","country":"France","website":"https://gitedelamoliere.aufilduvercors.org/","opening_hours":null,"capacity":null,"phone":"+336 09 38 42 42","osmType":"way","osmId":135630671,"elevation":"1565"}},{"type":"Feature","geometry":{"type":"Point","coordinates":[5.94137,46.26544]},"properties":{"name":"Refuge Curson","country":"France","website":null,"opening_hours":null,"capacity":null,"phone":null,"osmType":"way","osmId":136083118}},{"type":"Feature","geometry":{"type":"Point","coordinates":[6.04387,45.69878]},"properties":{"name":"Refuge La Plate","country":"France","website":"https://www.lesaillons.com/refuge-de-la-plate.html","opening_hours":null,"capacity":"20","phone":"+33 6 15 16 37 44","osmType":"way","osmId":139446749,"elevation":"1300"}},{"type":"Feature","geometry":{"type":"Point","coordinates":[7.10267,48.1101]},"properties":{"name":"Refuge Amis de la Nature du Lac Noir","country":"France","website":null,"opening_hours":null,"capacity":null,"phone":null,"osmType":"way","osmId":140179780}},{"type":"Feature","geometry":{"type":"Point","coordinates":[6.87344,45.55339]},"properties":{"name":"Refuge de Turia","country":"France","website":"https://refuge-turia.vanoise.com/","opening_hours":null,"capacity":null,"phone":null,"osmType":"way","osmId":140869105}},{"type":"Feature","geometry":{"type":"Point","coordinates":[6.52959,45.32149]},"properties":{"name":"Refuge des Montagnettes","country":"France","website":null,"opening_hours":null,"capacity":null,"phone":null,"osmType":"way","osmId":140872780}},{"type":"Feature","geometry":{"type":"Point","coordinates":[6.65895,45.36093]},"properties":{"name":"Refuge de Grand Plan","country":"France","website":"https://www.refugegrandplan.fr/","opening_hours":null,"capacity":null,"phone":"+33 6 89 84 08 52","osmType":"way","osmId":140873771}},{"type":"Feature","geometry":{"type":"Point","coordinates":[6.32757,44.76532]},"properties":{"name":"Refuge du Pré La Chaumette","country":"France","website":"https://refugepredelachaumette.ffcam.fr/","opening_hours":null,"capacity":null,"phone":"+33 4 92 55 95 34","osmType":"way","osmId":140893689,"elevation":"1803"}},{"type":"Feature","geometry":{"type":"Point","coordinates":[0.09055,42.86091]},"properties":{"name":"Refuge de la Glère","country":"France","website":"https://refugedelaglere.ffcam.fr/","opening_hours":"Feb 15-Sep 30; Oct Sa-Su","capacity":null,"phone":"+33 9 82 12 55 32","osmType":"way","osmId":140895867,"elevation":"2153"}},{"type":"Feature","geometry":{"type":"Point","coordinates":[6.75516,44.24308]},"properties":{"name":"Refuge de la Cantonnière","country":"France","website":"https://lacantonniere.wixsite.com/refugelacantonniere","opening_hours":null,"capacity":"36","phone":"+33 4 93 05 51 36","osmType":"way","osmId":140901460,"elevation":"1850"}},{"type":"Feature","geometry":{"type":"Point","coordinates":[6.87994,45.30098]},"properties":{"name":"Refuge du Cuchet","country":"France","website":null,"opening_hours":null,"capacity":null,"phone":null,"osmType":"way","osmId":140909473}},{"type":"Feature","geometry":{"type":"Point","coordinates":[5.95451,45.06342]},"properties":{"name":"Refuge du Taillefer","country":"France","website":"https://www.oisans.com/hebergement/refuge-du-taillefer/","opening_hours":null,"capacity":null,"phone":null,"osmType":"way","osmId":141259844,"elevation":"2056"}},{"type":"Feature","geometry":{"type":"Point","coordinates":[0.93453,42.83431]},"properties":{"name":"Gite d'Étape d'Eylie","country":"France","website":"https://giteseylie.jimdofree.com/le-g%C3%AEte-d-%C3%A9tape-refuge-14-places/","opening_hours":null,"capacity":"18","phone":"+33 683596528","osmType":"way","osmId":143246711,"elevation":"1000"}},{"type":"Feature","geometry":{"type":"Point","coordinates":[0.8734,42.83468]},"properties":{"name":"Refuge de l'etang d'Araing","country":"France","website":"http://www.refuge-araing.fr/","opening_hours":null,"capacity":null,"phone":"+33 5 61 96 73 73","osmType":"way","osmId":143417686,"elevation":"1965"}},{"type":"Feature","geometry":{"type":"Point","coordinates":[6.97812,44.26844]},"properties":{"name":"Refuge de Rabuons","country":"France","website":"https://refugederabuons.ffcam.fr/","opening_hours":null,"capacity":"36","phone":"+33 4 93 23 04 11","osmType":"way","osmId":143709481,"elevation":"2523"}},{"type":"Feature","geometry":{"type":"Point","coordinates":[6.94195,44.31673]},"properties":{"name":"Refuge des Lacs de Vens","country":"France","website":"https://refugedevens.ffcam.fr/","opening_hours":null,"capacity":null,"phone":"+33 6 37 67 91 74","osmType":"way","osmId":143711861,"elevation":"2380"}},{"type":"Feature","geometry":{"type":"Point","coordinates":[6.82364,44.295]},"properties":{"name":"Refuge de Sestrière","country":"France","website":null,"opening_hours":null,"capacity":null,"phone":null,"osmType":"way","osmId":143722892}},{"type":"Feature","geometry":{"type":"Point","coordinates":[2.81557,45.5471]},"properties":{"name":"Chalet du Sancy","country":"France","website":"https://chaletdusancy.ffcam.fr/","opening_hours":null,"capacity":null,"phone":"+33 4 73 22 34 81","osmType":"way","osmId":144547800,"elevation":"1275"}},{"type":"Feature","geometry":{"type":"Point","coordinates":[6.27375,45.69858]},"properties":{"name":"La-Haut","country":"France","website":"https://www.lahaut.net","opening_hours":null,"capacity":null,"phone":null,"osmType":"way","osmId":145170123,"elevation":"1830"}},{"type":"Feature","geometry":{"type":"Point","coordinates":[2.76924,45.61809]},"properties":{"name":"Refuge de la Banne","country":"France","website":"https://www.refugedelabanne.com/","opening_hours":null,"capacity":"15","phone":null,"osmType":"way","osmId":147013152,"elevation":"1334"}},{"type":"Feature","geometry":{"type":"Point","coordinates":[4.63136,45.33992]},"properties":{"name":"Gîte d'étape de Sainte-Blandine","country":"France","website":"http://gite-sainte-blandine.net/topic/index.html","opening_hours":null,"capacity":null,"phone":"+33 4 74 48 36 15","osmType":"way","osmId":148093698}},{"type":"Feature","geometry":{"type":"Point","coordinates":[4.02207,44.69728]},"properties":{"name":"Gîte d'Etape du col de la Chavade","country":"France","website":"https://www.gite-chavade.com/","opening_hours":null,"capacity":null,"phone":"+33 7 60 71 02 38","osmType":"way","osmId":148568928}},{"type":"Feature","geometry":{"type":"Point","coordinates":[6.32858,44.98591]},"properties":{"name":"Refuge du Pavé","country":"France","website":"https://refugedupave.ffcam.fr/","opening_hours":null,"capacity":null,"phone":"+33 4 92 24 88 03","osmType":"way","osmId":148974587,"elevation":"2841"}},{"type":"Feature","geometry":{"type":"Point","coordinates":[6.38454,44.99619]},"properties":{"name":"Refuge de l'Alpe de Villar-d'Arène","country":"France","website":"https://refugealpedevillardarene.ffcam.fr/home.html","opening_hours":null,"capacity":null,"phone":"+33 4 76 79 94 66","osmType":"way","osmId":149039802,"elevation":"2071"}},{"type":"Feature","geometry":{"type":"Point","coordinates":[6.3451,44.9689]},"properties":{"name":"Refuge Adèle Planchard","country":"France","website":"https://www.refuge-adele-planchard.com","opening_hours":null,"capacity":"63/34","phone":"+33 4 76 79 92 14","osmType":"way","osmId":149039832,"elevation":"3169"}},{"type":"Feature","geometry":{"type":"Point","coordinates":[6.38302,44.94732]},"properties":{"name":"Refuge des Écrins","country":"France","website":"https://refugedesecrins.ffcam.fr/","opening_hours":null,"capacity":null,"phone":"+33 4 92 23 46 66","osmType":"way","osmId":149470306,"elevation":"3161"}},{"type":"Feature","geometry":{"type":"Point","coordinates":[6.21359,45.0576]},"properties":{"name":"Chalet-Refuge du Fay","country":"France","website":"https://www.oisans.com/hebergement/refuge-du-fay/","opening_hours":"Jun 18-Sep 14 00:00-24:00","capacity":"24","phone":"+33 4 76 80 24 12","osmType":"way","osmId":149642516}},{"type":"Feature","geometry":{"type":"Point","coordinates":[6.21286,45.05529]},"properties":{"name":"Refuge des Mouterres","country":"France","website":"https://www.refugelesmouterres.com/","opening_hours":null,"capacity":"25","phone":"+33 4 76 80 24 05","osmType":"way","osmId":149642670}},{"type":"Feature","geometry":{"type":"Point","coordinates":[6.76575,44.92149]},"properties":{"name":"Baita Gimont","country":"France","website":null,"opening_hours":null,"capacity":null,"phone":null,"osmType":"way","osmId":151773322,"elevation":"2060"}},{"type":"Feature","geometry":{"type":"Point","coordinates":[6.80186,45.13253]},"properties":{"name":"Rifugio Scarfiotti","country":"France","website":"http://www.rifugioscarfiotti.com","opening_hours":null,"capacity":null,"phone":"+39 349 0093144","osmType":"way","osmId":151782165,"elevation":"2165"}},{"type":"Feature","geometry":{"type":"Point","coordinates":[7.29338,44.1853]},"properties":{"name":"Locale invernale","country":"France","website":null,"opening_hours":null,"capacity":"12","phone":null,"osmType":"way","osmId":152010652}},{"type":"Feature","geometry":{"type":"Point","coordinates":[7.29367,44.18536]},"properties":{"name":"Rifugio Bozano","country":"France","website":"https://www.rifugiobozano.it/","opening_hours":null,"capacity":null,"phone":null,"osmType":"way","osmId":152010654,"elevation":"2453"}},{"type":"Feature","geometry":{"type":"Point","coordinates":[7.40644,44.12392]},"properties":{"name":"Rifugio Pagarì","country":"France","website":"http://www.rifugiopagari.com/","opening_hours":null,"capacity":"24","phone":"+39 0171 978398","osmType":"way","osmId":152013250,"elevation":"2627"}},{"type":"Feature","geometry":{"type":"Point","coordinates":[7.29565,44.1634]},"properties":{"name":"Rifugio Franco Remondino","country":"France","website":"https://rifugioremondino.it/","opening_hours":"May 27-Oct 1","capacity":null,"phone":"+39 0171 97327","osmType":"way","osmId":152013782,"elevation":"2430"}},