{"type":"FeatureCollection","features":[{"type":"Feature","geometry":{"type":"Point","coordinates":[138.31653,35.68235]},"properties":{"name":"南御室小屋","country":"Japan","website":null,"opening_hours":null,"capacity":null,"phone":null,"address":null,"ele":null,"operator":null,"wikipedia":null,"wikidata":null,"description":null,"wheelchair":null,"osmType":"node","osmId":610343236}},{"type":"Feature","geometry":{"type":"Point","coordinates":[138.31066,35.69347]},"properties":{"name":"薬師岳小屋","country":"Japan","website":"http://www.yin.or.jp/user/houousan/yakushi.htm","opening_hours":null,"capacity":null,"phone":null,"address":null,"ele":null,"operator":null,"wikipedia":null,"wikidata":null,"description":null,"wheelchair":null,"osmType":"node","osmId":679920245}},{"type":"Feature","geometry":{"type":"Point","coordinates":[138.18429,35.72271]},"properties":{"name":"仙丈小屋","country":"Japan","website":null,"opening_hours":null,"capacity":null,"phone":null,"address":null,"ele":null,"operator":null,"wikipedia":null,"wikidata":null,"description":null,"wheelchair":null,"osmType":"node","osmId":823264711}},{"type":"Feature","geometry":{"type":"Point","coordinates":[135.16278,35.62534]},"properties":{"name":"ブナハウス内山","country":"Japan","website":null,"opening_hours":null,"capacity":null,"phone":null,"address":null,"ele":null,"operator":null,"wikipedia":null,"wikidata":null,"description":null,"wheelchair":null,"osmType":"node","osmId":823952724}},{"type":"Feature","geometry":{"type":"Point","coordinates":[138.73688,35.34471]},"properties":{"name":"御来光山荘","country":"Japan","website":null,"opening_hours":null,"capacity":null,"phone":null,"address":null,"ele":"2795","operator":null,"wikipedia":null,"wikidata":null,"description":null,"wheelchair":null,"osmType":"node","osmId":874172106,"elevation":"2795"}},{"type":"Feature","geometry":{"type":"Point","coordinates":[138.73575,35.34855]},"properties":{"name":"山口山荘","country":"Japan","website":null,"opening_hours":null,"capacity":null,"phone":null,"address":null,"ele":"3030","operator":null,"wikipedia":null,"wikidata":null,"description":null,"wheelchair":null,"osmType":"node","osmId":880703238,"elevation":"3030"}},{"type":"Feature","geometry":{"type":"Point","coordinates":[138.73296,35.35457]},"properties":{"name":"万年雪山荘","country":"Japan","website":null,"opening_hours":null,"capacity":null,"phone":null,"address":null,"ele":"3410","operator":null,"wikipedia":null,"wikidata":null,"description":null,"wheelchair":null,"osmType":"node","osmId":888297730,"elevation":"3410"}},{"type":"Feature","geometry":{"type":"Point","coordinates":[138.73111,35.35665]},"properties":{"name":"胸突山荘","country":"Japan","website":null,"opening_hours":null,"capacity":null,"phone":null,"address":null,"ele":"3550","operator":null,"wikipedia":null,"wikidata":null,"description":null,"wheelchair":null,"osmType":"node","osmId":888306887,"elevation":"3550"}},{"type":"Feature","geometry":{"type":"Point","coordinates":[138.73106,35.35958]},"properties":{"name":"頂上富士館","country":"Japan","website":"http://fujisanchou.com/","opening_hours":null,"capacity":null,"phone":null,"address":null,"ele":"3740","operator":null,"wikipedia":null,"wikidata":null,"description":null,"wheelchair":null,"osmType":"node","osmId":888327858,"elevation":"3740"}},{"type":"Feature","geometry":{"type":"Point","coordinates":[138.73105,35.35949]},"properties":{"name":"銀明館","country":"Japan","website":null,"opening_hours":null,"capacity":null,"phone":null,"address":null,"ele":"3740","operator":null,"wikipedia":null,"wikidata":null,"description":null,"wheelchair":null,"osmType":"node","osmId":888327911,"elevation":"3740"}},{"type":"Feature","geometry":{"type":"Point","coordinates":[138.74473,35.3542]},"properties":{"name":"日ノ出館","country":"Japan","website":null,"opening_hours":null,"capacity":null,"phone":null,"address":null,"ele":"3040","operator":null,"wikipedia":null,"wikidata":null,"description":null,"wheelchair":null,"osmType":"node","osmId":888357839,"elevation":"3040"}},{"type":"Feature","geometry":{"type":"Point","coordinates":[138.73842,35.35468]},"properties":{"name":"赤岩八合館","country":"Japan","website":null,"opening_hours":null,"capacity":null,"phone":null,"address":null,"ele":"3290","operator":null,"wikipedia":null,"wikidata":null,"description":null,"wheelchair":null,"osmType":"node","osmId":890510444,"elevation":"3290"}},{"type":"Feature","geometry":{"type":"Point","coordinates":[138.73676,35.35589]},"properties":{"name":"見晴館","country":"Japan","website":null,"opening_hours":null,"capacity":null,"phone":null,"address":null,"ele":"3400","operator":null,"wikipedia":null,"wikidata":null,"description":null,"wheelchair":null,"osmType":"node","osmId":890518714,"elevation":"3400"}},{"type":"Feature","geometry":{"type":"Point","coordinates":[138.75525,35.35101]},"properties":{"name":"半蔵坊","country":"Japan","website":"http://hanzobo.main.jp/","opening_hours":null,"capacity":null,"phone":"+81 090-2745-2590","address":null,"ele":"2590","operator":null,"wikipedia":null,"wikidata":null,"description":null,"wheelchair":null,"osmType":"node","osmId":890553102,"elevation":"2590"}},{"type":"Feature","geometry":{"type":"Point","coordinates":[130.51897,30.35819]},"properties":{"name":"Shintakatsu","country":"Japan","website":null,"opening_hours":null,"capacity":null,"phone":null,"address":null,"ele":"1501","operator":null,"wikipedia":null,"wikidata":null,"description":null,"wheelchair":null,"osmType":"node","osmId":987483126,"elevation":"1501"}},{"type":"Feature","geometry":{"type":"Point","coordinates":[137.66337,36.29394]},"properties":{"name":"涸沢ヒュッテ","country":"Japan","website":"https://karasawa-hyutte.com","opening_hours":null,"capacity":null,"phone":"090-9002-2534","address":null,"ele":"2310","operator":null,"wikipedia":"ja:涸沢ヒュッテ","wikidata":"Q11559647","description":null,"wheelchair":null,"osmType":"node","osmId":1281064587,"elevation":"2310"}},{"type":"Feature","geometry":{"type":"Point","coordinates":[137.66058,36.29556]},"properties":{"name":"涸沢小屋","country":"Japan","website":null,"opening_hours":null,"capacity":null,"phone":null,"address":null,"ele":"2350","operator":null,"wikipedia":"ja:涸沢小屋","wikidata":"Q11559646","description":null,"wheelchair":null,"osmType":"node","osmId":1281064657,"elevation":"2350"}},{"type":"Feature","geometry":{"type":"Point","coordinates":[138.73301,35.36529]},"properties":{"name":"東京屋","country":"Japan","website":null,"opening_hours":null,"capacity":null,"phone":null,"address":null,"ele":"3720","operator":null,"wikipedia":null,"wikidata":null,"description":null,"wheelchair":null,"osmType":"node","osmId":1402646541,"elevation":"3720"}},{"type":"Feature","geometry":{"type":"Point","coordinates":[137.74665,35.77875]},"properties":{"name":"敬神小屋","country":"Japan","website":null,"opening_hours":null,"capacity":null,"phone":null,"address":null,"ele":null,"operator":null,"wikipedia":null,"wikidata":null,"description":null,"wheelchair":null,"osmType":"node","osmId":1675293366}},{"type":"Feature","geometry":{"type":"Point","coordinates":[137.76335,35.77796]},"properties":{"name":"五合目金懸小屋","country":"Japan","website":null,"opening_hours":null,"capacity":null,"phone":null,"address":null,"ele":null,"operator":null,"wikipedia":null,"wikidata":null,"description":null,"wheelchair":null,"osmType":"node","osmId":1675293412}},{"type":"Feature","geometry":{"type":"Point","coordinates":[131.53611,32.74825]},"properties":{"name":"大崩山荘","country":"Japan","website":null,"opening_hours":null,"capacity":null,"phone":null,"address":null,"ele":null,"operator":null,"wikipedia":null,"wikidata":null,"description":null,"wheelchair":null,"osmType":"node","osmId":1678307971}},{"type":"Feature","geometry":{"type":"Point","coordinates":[130.48307,30.34058]},"properties":{"name":"鹿之沢小屋","country":"Japan","website":null,"opening_hours":null,"capacity":null,"phone":null,"address":null,"ele":null,"operator":null,"wikipedia":null,"wikidata":null,"description":null,"wheelchair":null,"osmType":"node","osmId":1764605679}},{"type":"Feature","geometry":{"type":"Point","coordinates":[138.37756,36.02799]},"properties":{"name":"しらびそ小屋","country":"Japan","website":"http://www.ytg.janis.or.jp/~st.imai/","opening_hours":null,"capacity":null,"phone":"0267-96-2165","address":null,"ele":"2097","operator":null,"wikipedia":null,"wikidata":null,"description":null,"wheelchair":null,"osmType":"node","osmId":1827195352,"elevation":"2097"}},{"type":"Feature","geometry":{"type":"Point","coordinates":[137.65515,36.33803]},"properties":{"name":"ヒュッテ大槍","country":"Japan","website":null,"opening_hours":null,"capacity":null,"phone":null,"address":null,"ele":null,"operator":null,"wikipedia":null,"wikidata":null,"description":null,"wheelchair":null,"osmType":"node","osmId":1845028378}},{"type":"Feature","geometry":{"type":"Point","coordinates":[137.67999,36.3357]},"properties":{"name":"ヒュッテ西岳","country":"Japan","website":null,"opening_hours":null,"capacity":null,"phone":null,"address":null,"ele":null,"operator":null,"wikipedia":null,"wikidata":null,"description":null,"wheelchair":null,"osmType":"node","osmId":1845028379}},{"type":"Feature","geometry":{"type":"Point","coordinates":[137.72691,36.39356]},"properties":{"name":"合戦小屋","country":"Japan","website":null,"opening_hours":null,"capacity":null,"phone":null,"address":null,"ele":null,"operator":null,"wikipedia":null,"wikidata":null,"description":null,"wheelchair":null,"osmType":"node","osmId":1845028380}},{"type":"Feature","geometry":{"type":"Point","coordinates":[137.65073,36.33864]},"properties":{"name":"殺生ヒュッテ","country":"Japan","website":null,"opening_hours":null,"capacity":null,"phone":null,"address":null,"ele":null,"operator":null,"wikipedia":null,"wikidata":null,"description":null,"wheelchair":null,"osmType":"node","osmId":1845028386}},{"type":"Feature","geometry":{"type":"Point","coordinates":[137.65277,36.30371]},"properties":{"name":"北穂高小屋","country":"Japan","website":null,"opening_hours":null,"capacity":null,"phone":null,"address":null,"ele":null,"operator":null,"wikipedia":null,"wikidata":null,"description":null,"wheelchair":null,"osmType":"node","osmId":1905528565}},{"type":"Feature","geometry":{"type":"Point","coordinates":[137.65048,36.31679]},"properties":{"name":"南岳小屋","country":"Japan","website":null,"opening_hours":null,"capacity":null,"phone":"+81 90 4524 9448","address":null,"ele":null,"operator":null,"wikipedia":null,"wikidata":null,"description":null,"wheelchair":null,"osmType":"node","osmId":1905529398}},{"type":"Feature","geometry":{"type":"Point","coordinates":[137.62991,36.32322]},"properties":{"name":"槍平小屋","country":"Japan","website":null,"opening_hours":null,"capacity":null,"phone":null,"address":null,"ele":null,"operator":null,"wikipedia":null,"wikidata":null,"description":null,"wheelchair":null,"osmType":"node","osmId":1905531190}},{"type":"Feature","geometry":{"type":"Point","coordinates":[137.593,36.29115]},"properties":{"name":"穂高平小屋","country":"Japan","website":null,"opening_hours":null,"capacity":null,"phone":null,"address":null,"ele":null,"operator":null,"wikipedia":null,"wikidata":null,"description":null,"wheelchair":null,"osmType":"node","osmId":1905535173}},{"type":"Feature","geometry":{"type":"Point","coordinates":[138.37171,35.97506]},"properties":{"name":"赤岳展望荘","country":"Japan","website":null,"opening_hours":null,"capacity":null,"phone":null,"address":null,"ele":"2722","operator":null,"wikipedia":null,"wikidata":null,"description":null,"wheelchair":null,"osmType":"node","osmId":1918381587,"elevation":"2722"}},{"type":"Feature","geometry":{"type":"Point","coordinates":[138.3365,35.63835]},"properties":{"name":"夜叉神峠小屋","country":"Japan","website":null,"opening_hours":null,"capacity":null,"phone":null,"address":null,"ele":null,"operator":null,"wikipedia":null,"wikidata":null,"description":null,"wheelchair":null,"osmType":"node","osmId":1919479973}},{"type":"Feature","geometry":{"type":"Point","coordinates":[131.12177,32.51375]},"properties":{"name":"扇山小屋","country":"Japan","website":null,"opening_hours":null,"capacity":null,"phone":null,"address":null,"ele":null,"operator":null,"wikipedia":null,"wikidata":null,"description":null,"wheelchair":null,"osmType":"node","osmId":1976257952}},{"type":"Feature","geometry":{"type":"Point","coordinates":[137.71528,36.39946]},"properties":{"name":"燕山荘","country":"Japan","website":null,"opening_hours":null,"capacity":null,"phone":null,"address":null,"ele":null,"operator":null,"wikipedia":null,"wikidata":null,"description":null,"wheelchair":null,"osmType":"node","osmId":2030074980}},{"type":"Feature","geometry":{"type":"Point","coordinates":[139.16622,35.78076]},"properties":{"name":"東雲山荘","country":"Japan","website":null,"opening_hours":null,"capacity":"19","phone":"+81-42-5970501","address":null,"ele":null,"operator":"日の出町","wikipedia":null,"wikidata":null,"description":null,"wheelchair":null,"osmType":"node","osmId":2151389291}},{"type":"Feature","geometry":{"type":"Point","coordinates":[139.16564,35.42839]},"properties":{"name":"駒止茶屋","country":"Japan","website":null,"opening_hours":null,"capacity":null,"phone":null,"address":null,"ele":null,"operator":null,"wikipedia":null,"wikidata":null,"description":null,"wheelchair":null,"osmType":"node","osmId":2207663577}},{"type":"Feature","geometry":{"type":"Point","coordinates":[139.16232,35.41366]},"properties":{"name":"観音茶屋","country":"Japan","website":null,"opening_hours":null,"capacity":null,"phone":null,"address":null,"ele":null,"operator":null,"wikipedia":null,"wikidata":null,"description":null,"wheelchair":null,"osmType":"node","osmId":2207693791}},{"type":"Feature","geometry":{"type":"Point","coordinates":[135.7646,33.85487]},"properties":{"name":"Sangen jaya 三軒茶屋跡 〔熊野古道〕","country":"Japan","website":null,"opening_hours":null,"capacity":null,"phone":null,"address":null,"ele":null,"operator":null,"wikipedia":null,"wikidata":null,"description":null,"wheelchair":null,"osmType":"node","osmId":2430696718}},{"type":"Feature","geometry":{"type":"Point","coordinates":[135.75778,33.8605]},"properties":{"name":"Fushiogami oji","country":"Japan","website":null,"opening_hours":null,"capacity":null,"phone":null,"address":null,"ele":null,"operator":null,"wikipedia":null,"wikidata":null,"description":null,"wheelchair":null,"osmType":"node","osmId":2430696719}},{"type":"Feature","geometry":{"type":"Point","coordinates":[137.68354,36.31826]},"properties":{"name":"槍沢ロッヂ","country":"Japan","website":null,"opening_hours":null,"capacity":null,"phone":"+81 263 95 2626","address":null,"ele":"1820","operator":null,"wikipedia":null,"wikidata":null,"description":null,"wheelchair":null,"osmType":"node","osmId":2483164386,"elevation":"1820"}},{"type":"Feature","geometry":{"type":"Point","coordinates":[130.57037,30.36942]},"properties":{"name":"白谷山荘 (Shiratani-sansō)","country":"Japan","website":null,"opening_hours":null,"capacity":null,"phone":null,"address":null,"ele":null,"operator":null,"wikipedia":null,"wikidata":null,"description":null,"wheelchair":null,"osmType":"node","osmId":2579982417}},{"type":"Feature","geometry":{"type":"Point","coordinates":[135.92161,34.24487]},"properties":{"name":"稲村ヶ岳山荘","country":"Japan","website":"http://web1.kcn.jp/suisui-inaina/inamura/inamura1.html","opening_hours":null,"capacity":null,"phone":"0747-64-0138","address":"638-0431 奈良県吉野郡天川村洞川287-2","ele":"1550","operator":null,"wikipedia":null,"wikidata":null,"description":"山小屋。売店あり。稲村ケ岳のバッチ買えます","wheelchair":"no","osmType":"node","osmId":2586470958,"elevation":"1550"}},{"type":"Feature","geometry":{"type":"Point","coordinates":[139.00464,35.28987]},"properties":{"name":null,"country":"Japan","website":null,"opening_hours":null,"capacity":null,"phone":null,"address":null,"ele":null,"operator":null,"wikipedia":null,"wikidata":null,"description":null,"wheelchair":null,"osmType":"node","osmId":2629888543}},{"type":"Feature","geometry":{"type":"Point","coordinates":[142.87351,43.96482]},"properties":{"name":"避難小屋","country":"Japan","website":null,"opening_hours":null,"capacity":null,"phone":null,"address":null,"ele":null,"operator":null,"wikipedia":null,"wikidata":null,"description":null,"wheelchair":null,"osmType":"node","osmId":2676245386}},{"type":"Feature","geometry":{"type":"Point","coordinates":[137.84164,35.67387]},"properties":{"name":"中小川避難小屋","country":"Japan","website":null,"opening_hours":null,"capacity":null,"phone":null,"address":null,"ele":null,"operator":null,"wikipedia":null,"wikidata":null,"description":null,"wheelchair":null,"osmType":"node","osmId":2702675831}},{"type":"Feature","geometry":{"type":"Point","coordinates":[137.79372,35.67767]},"properties":{"name":"越百避難小屋","country":"Japan","website":null,"opening_hours":null,"capacity":null,"phone":null,"address":null,"ele":null,"operator":null,"wikipedia":null,"wikidata":null,"description":null,"wheelchair":null,"osmType":"node","osmId":2702675833}},{"type":"Feature","geometry":{"type":"Point","coordinates":[137.98341,35.67265]},"properties":{"name":"陣馬形山避難小屋","country":"Japan","website":null,"opening_hours":null,"capacity":null,"phone":null,"address":null,"ele":null,"operator":null,"wikipedia":null,"wikidata":null,"description":null,"wheelchair":null,"osmType":"node","osmId":2702675838}},{"type":"Feature","geometry":{"type":"Point","coordinates":[138.17571,35.57856]},"properties":{"name":"塩見小屋","country":"Japan","website":null,"opening_hours":null,"capacity":null,"phone":null,"address":null,"ele":"2753","operator":"伊那市観光","wikipedia":null,"wikidata":null,"description":null,"wheelchair":null,"osmType":"node","osmId":2744507312,"elevation":"2753"}},{"type":"Feature","geometry":{"type":"Point","coordinates":[138.20581,35.6314]},"properties":{"name":"熊ノ平小屋","country":"Japan","website":null,"opening_hours":null,"capacity":null,"phone":null,"address":null,"ele":"2586","operator":null,"wikipedia":null,"wikidata":null,"description":null,"wheelchair":null,"osmType":"node","osmId":2744507406,"elevation":"2586"}},{"type":"Feature","geometry":{"type":"Point","coordinates":[137.76112,35.72051]},"properties":{"name":"避難小屋","country":"Japan","website":null,"opening_hours":null,"capacity":null,"phone":null,"address":null,"ele":"1297","operator":null,"wikipedia":null,"wikidata":null,"description":null,"wheelchair":null,"osmType":"node","osmId":2744507421,"elevation":"1297"}},{"type":"Feature","geometry":{"type":"Point","coordinates":[138.14203,35.50508]},"properties":{"name":"高山裏避難小屋","country":"Japan","website":null,"opening_hours":null,"capacity":null,"phone":null,"address":null,"ele":"2409","operator":null,"wikipedia":null,"wikidata":null,"description":null,"wheelchair":null,"osmType":"node","osmId":2744507452,"elevation":"2409"}},{"type":"Feature","geometry":{"type":"Point","coordinates":[138.26344,35.72564]},"properties":{"name":"早川尾根小屋","country":"Japan","website":null,"opening_hours":null,"capacity":null,"phone":null,"address":null,"ele":null,"operator":null,"wikipedia":null,"wikidata":null,"description":null,"wheelchair":null,"osmType":"node","osmId":3050362703}},{"type":"Feature","geometry":{"type":"Point","coordinates":[138.22523,35.74313]},"properties":{"name":"仙水小屋","country":"Japan","website":null,"opening_hours":null,"capacity":null,"phone":null,"address":null,"ele":null,"operator":null,"wikipedia":null,"wikidata":null,"description":null,"wheelchair":null,"osmType":"node","osmId":3050597001}},{"type":"Feature","geometry":{"type":"Point","coordinates":[138.2135,35.74258]},"properties":{"name":"北沢峠こもれび山荘","country":"Japan","website":null,"opening_hours":null,"capacity":null,"phone":null,"address":null,"ele":null,"operator":null,"wikipedia":null,"wikidata":null,"description":null,"wheelchair":null,"osmType":"node","osmId":3050597003}},{"type":"Feature","geometry":{"type":"Point","coordinates":[138.21584,35.73874]},"properties":{"name":"長衛小屋","country":"Japan","website":null,"opening_hours":null,"capacity":null,"phone":null,"address":null,"ele":null,"operator":null,"wikipedia":null,"wikidata":null,"description":null,"wheelchair":null,"osmType":"node","osmId":3050597004}},{"type":"Feature","geometry":{"type":"Point","coordinates":[137.48112,35.89278]},"properties":{"name":null,"country":"Japan","website":null,"opening_hours":null,"capacity":null,"phone":null,"address":null,"ele":null,"operator":null,"wikipedia":null,"wikidata":null,"description":null,"wheelchair":null,"osmType":"node","osmId":3098734803}},{"type":"Feature","geometry":{"type":"Point","coordinates":[138.10156,36.90644]},"properties":{"name":"黒沢池ヒュッテ","country":"Japan","website":null,"opening_hours":null,"capacity":null,"phone":null,"address":null,"ele":null,"operator":null,"wikipedia":null,"wikidata":null,"description":null,"wheelchair":null,"osmType":"node","osmId":3156208062}},{"type":"Feature","geometry":{"type":"Point","coordinates":[138.08461,36.90936]},"properties":{"name":"高谷池ヒュッテ","country":"Japan","website":null,"opening_hours":null,"capacity":null,"phone":null,"address":null,"ele":null,"operator":null,"wikipedia":null,"wikidata":null,"description":null,"wheelchair":null,"osmType":"node","osmId":3156208063}},{"type":"Feature","geometry":{"type":"Point","coordinates":[137.57471,36.12026]},"properties":{"name":"冷泉小屋 (Reisengoya)","country":"Japan","website":null,"opening_hours":null,"capacity":null,"phone":null,"address":null,"ele":null,"operator":null,"wikipedia":null,"wikidata":null,"description":null,"wheelchair":null,"osmType":"node","osmId":3612902898}},{"type":"Feature","geometry":{"type":"Point","coordinates":[137.57094,36.11927]},"properties":{"name":"位ヶ原山荘","country":"Japan","website":null,"opening_hours":null,"capacity":null,"phone":null,"address":null,"ele":null,"operator":null,"wikipedia":null,"wikidata":null,"description":null,"wheelchair":null,"osmType":"node","osmId":3612902899}},{"type":"Feature","geometry":{"type":"Point","coordinates":[136.43488,35.02335]},"properties":{"name":null,"country":"Japan","website":null,"opening_hours":null,"capacity":null,"phone":null,"address":null,"ele":null,"operator":null,"wikipedia":null,"wikidata":null,"description":null,"wheelchair":null,"osmType":"node","osmId":3625270493}},{"type":"Feature","geometry":{"type":"Point","coordinates":[138.35897,35.95046]},"properties":{"name":"権現小屋","country":"Japan","website":null,"opening_hours":null,"capacity":null,"phone":null,"address":null,"ele":null,"operator":null,"wikipedia":null,"wikidata":null,"description":null,"wheelchair":null,"osmType":"node","osmId":4059762210}},{"type":"Feature","geometry":{"type":"Point","coordinates":[138.35741,36.0029]},"properties":{"name":"オーレン小屋","country":"Japan","website":null,"opening_hours":null,"capacity":null,"phone":"+81 90 1549 0599","address":null,"ele":"2330","operator":null,"wikipedia":null,"wikidata":null,"description":null,"wheelchair":null,"osmType":"node","osmId":4081216247,"elevation":"2330"}},{"type":"Feature","geometry":{"type":"Point","coordinates":[137.75268,36.63355]},"properties":{"name":"キレット小屋","country":"Japan","website":null,"opening_hours":null,"capacity":null,"phone":null,"address":null,"ele":"2470","operator":null,"wikipedia":null,"wikidata":null,"description":null,"wheelchair":null,"osmType":"node","osmId":4143341073,"elevation":"2470"}},{"type":"Feature","geometry":{"type":"Point","coordinates":[137.7602,36.66364]},"properties":{"name":"五竜山荘","country":"Japan","website":null,"opening_hours":null,"capacity":null,"phone":null,"address":null,"ele":"2490","operator":null,"wikipedia":"ja:五竜山荘","wikidata":null,"description":null,"wheelchair":null,"osmType":"node","osmId":4143341074,"elevation":"2490"}},{"type":"Feature","geometry":{"type":"Point","coordinates":[137.83818,36.81123]},"properties":{"name":"風吹山荘","country":"Japan","website":null,"opening_hours":null,"capacity":null,"phone":null,"address":null,"ele":null,"operator":null,"wikipedia":null,"wikidata":null,"description":null,"wheelchair":null,"osmType":"node","osmId":4155272294}},{"type":"Feature","geometry":{"type":"Point","coordinates":[138.29845,36.1072]},"properties":{"name":"蓼科山荘","country":"Japan","website":null,"opening_hours":null,"capacity":null,"phone":null,"address":null,"ele":"2350","operator":null,"wikipedia":null,"wikidata":null,"description":null,"wheelchair":null,"osmType":"node","osmId":4167480794,"elevation":"2350"}},{"type":"Feature","geometry":{"type":"Point","coordinates":[140.36471,35.45117]},"properties":{"name":"長生郡白子町関","country":"Japan","website":null,"opening_hours":null,"capacity":null,"phone":null,"address":null,"ele":null,"operator":null,"wikipedia":null,"wikidata":null,"description":null,"wheelchair":null,"osmType":"node","osmId":4269161689}},{"type":"Feature","geometry":{"type":"Point","coordinates":[138.15024,36.60305]},"properties":{"name":"ホーム","country":"Japan","website":null,"opening_hours":null,"capacity":null,"phone":null,"address":null,"ele":null,"operator":null,"wikipedia":null,"wikidata":null,"description":null,"wheelchair":null,"osmType":"node","osmId":4308380495}},{"type":"Feature","geometry":{"type":"Point","coordinates":[137.62278,36.58835]},"properties":{"name":"内蔵助山荘","country":"Japan","website":null,"opening_hours":null,"capacity":null,"phone":null,"address":null,"ele":null,"operator":null,"wikipedia":null,"wikidata":null,"description":null,"wheelchair":null,"osmType":"node","osmId":4313837091}},{"type":"Feature","geometry":{"type":"Point","coordinates":[137.65606,36.4704]},"properties":{"name":"烏帽子小屋","country":"Japan","website":null,"opening_hours":null,"capacity":null,"phone":null,"address":null,"ele":null,"operator":null,"wikipedia":null,"wikidata":null,"description":null,"wheelchair":null,"osmType":"node","osmId":4331255797}},{"type":"Feature","geometry":{"type":"Point","coordinates":[138.33135,36.09995]},"properties":{"name":"双子池ヒュッテ","country":"Japan","website":"https://www.tateshina2531.com/","opening_hours":null,"capacity":null,"phone":null,"address":null,"ele":"2034","operator":null,"wikipedia":null,"wikidata":null,"description":null,"wheelchair":null,"osmType":"node","osmId":4341357283,"elevation":"2034"}},{"type":"Feature","geometry":{"type":"Point","coordinates":[138.31916,36.11226]},"properties":{"name":"大河原ヒュッテ","country":"Japan","website":null,"opening_hours":null,"capacity":null,"phone":null,"address":null,"ele":"2100","operator":null,"wikipedia":null,"wikidata":null,"description":null,"wheelchair":null,"osmType":"node","osmId":4341357284,"elevation":"2100"}},{"type":"Feature","geometry":{"type":"Point","coordinates":[138.35962,36.05092]},"properties":{"name":"白駒荘","country":"Japan","website":null,"opening_hours":null,"capacity":null,"phone":null,"address":null,"ele":"2115","operator":null,"wikipedia":null,"wikidata":null,"description":null,"wheelchair":null,"osmType":"node","osmId":4341357285,"elevation":"2115"}},{"type":"Feature","geometry":{"type":"Point","coordinates":[138.36108,36.05292]},"properties":{"name":"青苔荘","country":"Japan","website":null,"opening_hours":null,"capacity":null,"phone":null,"address":null,"ele":"2115","operator":null,"wikipedia":null,"wikidata":null,"description":null,"wheelchair":null,"osmType":"node","osmId":4341357286,"elevation":"2115"}},{"type":"Feature","geometry":{"type":"Point","coordinates":[137.54628,36.42859]},"properties":{"name":"薬師沢小屋","country":"Japan","website":null,"opening_hours":null,"capacity":null,"phone":null,"address":null,"ele":null,"operator":null,"wikipedia":null,"wikidata":null,"description":null,"wheelchair":null,"osmType":"node","osmId":4346427174}},{"type":"Feature","geometry":{"type":"Point","coordinates":[137.6306,36.49873]},"properties":{"name":"奥黒部ヒュッテ","country":"Japan","website":null,"opening_hours":null,"capacity":null,"phone":null,"address":null,"ele":null,"operator":null,"wikipedia":null,"wikidata":null,"description":null,"wheelchair":null,"osmType":"node","osmId":4348184689}},{"type":"Feature","geometry":{"type":"Point","coordinates":[137.67708,36.6568]},"properties":{"name":"阿曽原温泉小屋","country":"Japan","website":null,"opening_hours":null,"capacity":null,"phone":"+81-765-62-1148","address":null,"ele":null,"operator":null,"wikipedia":"ja:阿曽原温泉","wikidata":"Q11657451","description":null,"wheelchair":null,"osmType":"node","osmId":4348196266}},{"type":"Feature","geometry":{"type":"Point","coordinates":[139.01539,37.1122]},"properties":{"name":"千本檜小屋","country":"Japan","website":null,"opening_hours":null,"capacity":null,"phone":null,"address":null,"ele":null,"operator":null,"wikipedia":null,"wikidata":null,"description":null,"wheelchair":null,"osmType":"node","osmId":4349234689}},{"type":"Feature","geometry":{"type":"Point","coordinates":[139.72738,37.83519]},"properties":{"name":"切合小屋","country":"Japan","website":null,"opening_hours":null,"capacity":null,"phone":null,"address":null,"ele":null,"operator":"福島県喜多方市","wikipedia":null,"wikidata":null,"description":null,"wheelchair":null,"osmType":"node","osmId":4359745025}},{"type":"Feature","geometry":{"type":"Point","coordinates":[139.68177,37.84674]},"properties":{"name":"御西小屋","country":"Japan","website":null,"opening_hours":null,"capacity":null,"phone":null,"address":null,"ele":null,"operator":"新潟県阿賀町","wikipedia":null,"wikidata":null,"description":null,"wheelchair":null,"osmType":"node","osmId":4359782055}},{"type":"Feature","geometry":{"type":"Point","coordinates":[139.71397,37.85344]},"properties":{"name":"本山小屋","country":"Japan","website":null,"opening_hours":null,"capacity":null,"phone":null,"address":null,"ele":null,"operator":"福島県喜多方市","wikipedia":null,"wikidata":null,"description":null,"wheelchair":null,"osmType":"node","osmId":4359782056}},{"type":"Feature","geometry":{"type":"Point","coordinates":[139.77973,37.85103]},"properties":{"name":"大日杉登山小屋","country":"Japan","website":null,"opening_hours":null,"capacity":null,"phone":null,"address":null,"ele":null,"operator":"福島県飯豊町","wikipedia":null,"wikidata":null,"description":null,"wheelchair":null,"osmType":"node","osmId":4359786398}},{"type":"Feature","geometry":{"type":"Point","coordinates":[138.20932,35.74191]},"properties":{"name":"大平山荘","country":"Japan","website":null,"opening_hours":null,"capacity":null,"phone":null,"address":null,"ele":null,"operator":null,"wikipedia":null,"wikidata":null,"description":null,"wheelchair":null,"osmType":"node","osmId":4359906159}},{"type":"Feature","geometry":{"type":"Point","coordinates":[137.55351,36.59725]},"properties":{"name":"Dainichi Lodge","country":"Japan","website":null,"opening_hours":null,"capacity":null,"phone":null,"address":null,"ele":null,"operator":null,"wikipedia":null,"wikidata":null,"description":null,"wheelchair":null,"osmType":"node","osmId":4396995690}},{"type":"Feature","geometry":{"type":"Point","coordinates":[138.57831,35.87868]},"properties":{"name":"瑞牆山荘","country":"Japan","website":null,"opening_hours":null,"capacity":null,"phone":null,"address":null,"ele":null,"operator":null,"wikipedia":null,"wikidata":null,"description":null,"wheelchair":null,"osmType":"node","osmId":4406775661}},{"type":"Feature","geometry":{"type":"Point","coordinates":[137.76678,36.72452]},"properties":{"name":"Hakuba Yari Onsen Goya","country":"Japan","website":null,"opening_hours":null,"capacity":null,"phone":null,"address":null,"ele":"2100","operator":null,"wikipedia":null,"wikidata":null,"description":null,"wheelchair":null,"osmType":"node","osmId":4424677291,"elevation":"2100"}},{"type":"Feature","geometry":{"type":"Point","coordinates":[137.79861,36.81021]},"properties":{"name":"Hakubadake Renge Onsen Lodge","country":"Japan","website":null,"opening_hours":null,"capacity":null,"phone":null,"address":null,"ele":null,"operator":null,"wikipedia":null,"wikidata":null,"description":null,"wheelchair":null,"osmType":"node","osmId":4424692395}},{"type":"Feature","geometry":{"type":"Point","coordinates":[137.67959,36.69824]},"properties":{"name":"Yamagoya Babadani Onsen","country":"Japan","website":null,"opening_hours":null,"capacity":null,"phone":null,"address":null,"ele":null,"operator":null,"wikipedia":null,"wikidata":null,"description":null,"wheelchair":null,"osmType":"node","osmId":4424705393}},{"type":"Feature","geometry":{"type":"Point","coordinates":[138.80699,35.54964]},"properties":{"name":null,"country":"Japan","website":null,"opening_hours":null,"capacity":null,"phone":null,"address":null,"ele":null,"operator":null,"wikipedia":null,"wikidata":null,"description":null,"wheelchair":null,"osmType":"node","osmId":4433680097}},{"type":"Feature","geometry":{"type":"Point","coordinates":[139.79426,38.02873]},"properties":{"name":null,"country":"Japan","website":null,"opening_hours":null,"capacity":null,"phone":null,"address":null,"ele":null,"operator":null,"wikipedia":null,"wikidata":null,"description":null,"wheelchair":null,"osmType":"node","osmId":4439152389}},{"type":"Feature","geometry":{"type":"Point","coordinates":[134.06994,34.47055]},"properties":{"name":null,"country":"Japan","website":null,"opening_hours":null,"capacity":null,"phone":null,"address":null,"ele":null,"operator":null,"wikipedia":null,"wikidata":null,"description":null,"wheelchair":null,"osmType":"node","osmId":4457983389}},{"type":"Feature","geometry":{"type":"Point","coordinates":[139.05859,35.2402]},"properties":{"name":null,"country":"Japan","website":null,"opening_hours":null,"capacity":null,"phone":null,"address":null,"ele":null,"operator":null,"wikipedia":null,"wikidata":null,"description":null,"wheelchair":null,"osmType":"node","osmId":4495098191}},{"type":"Feature","geometry":{"type":"Point","coordinates":[137.08336,35.40977]},"properties":{"name":"SKY","country":"Japan","website":null,"opening_hours":null,"capacity":null,"phone":null,"address":null,"ele":null,"operator":null,"wikipedia":null,"wikidata":null,"description":null,"wheelchair":null,"osmType":"node","osmId":4539782491}},{"type":"Feature","geometry":{"type":"Point","coordinates":[141.00094,42.419]},"properties":{"name":"白鳥ヒュッテ","country":"Japan","website":null,"opening_hours":null,"capacity":null,"phone":null,"address":null,"ele":null,"operator":null,"wikipedia":null,"wikidata":null,"description":null,"wheelchair":null,"osmType":"node","osmId":4607372592}},{"type":"Feature","geometry":{"type":"Point","coordinates":[137.47504,36.48247]},"properties":{"name":"折立ヒュッテ","country":"Japan","website":null,"opening_hours":null,"capacity":null,"phone":null,"address":null,"ele":null,"operator":null,"wikipedia":null,"wikidata":null,"description":null,"wheelchair":null,"osmType":"node","osmId":4730366636}},{"type":"Feature","geometry":{"type":"Point","coordinates":[130.52197,30.31378]},"properties":{"name":"Ishizuka Hut","country":"Japan","website":null,"opening_hours":null,"capacity":null,"phone":null,"address":null,"ele":null,"operator":null,"wikipedia":null,"wikidata":null,"description":null,"wheelchair":null,"osmType":"node","osmId":4784377980}},{"type":"Feature","geometry":{"type":"Point","coordinates":[136.00234,35.01422]},"properties":{"name":null,"country":"Japan","website":null,"opening_hours":null,"capacity":null,"phone":null,"address":null,"ele":null,"operator":null,"wikipedia":null,"wikidata":null,"description":null,"wheelchair":null,"osmType":"node","osmId":4824905330}},{"type":"Feature","geometry":{"type":"Point","coordinates":[133.67606,35.32005]},"properties":{"name":null,"country":"Japan","website":null,"opening_hours":null,"capacity":null,"phone":null,"address":null,"ele":null,"operator":null,"wikipedia":null,"wikidata":null,"description":null,"wheelchair":null,"osmType":"node","osmId":4827125391}},{"type":"Feature","geometry":{"type":"Point","coordinates":[137.82731,36.71579]},"properties":{"name":"あぜくら山荘","country":"Japan","website":"http://www.azekura.com","opening_hours":null,"capacity":null,"phone":"81-0261-72-5238","address":"399-9301","ele":null,"operator":null,"wikipedia":null,"wikidata":null,"description":null,"wheelchair":null,"osmType":"node","osmId":4903795422}},{"type":"Feature","geometry":{"type":"Point","coordinates":[138.14429,35.37232]},"properties":{"name":"茶臼小屋","country":"Japan","website":"https://ikawa-kanko.com/#chausu","opening_hours":null,"capacity":null,"phone":null,"address":null,"ele":null,"operator":null,"wikipedia":null,"wikidata":null,"description":null,"wheelchair":null,"osmType":"node","osmId":4907542094}},{"type":"Feature","geometry":{"type":"Point","coordinates":[138.12692,35.45193]},"properties":{"name":"百閒洞山の家","country":"Japan","website":null,"opening_hours":null,"capacity":null,"phone":null,"address":null,"ele":null,"operator":null,"wikipedia":null,"wikidata":null,"description":null,"wheelchair":null,"osmType":"node","osmId":4907562891}},{"type":"Feature","geometry":{"type":"Point","coordinates":[138.22974,35.63221]},"properties":{"name":"農鳥小屋","country":"Japan","website":null,"opening_hours":null,"capacity":null,"phone":null,"address":null,"ele":null,"operator":null,"wikipedia":null,"wikidata":null,"description":null,"wheelchair":null,"osmType":"node","osmId":4908695559}},{"type":"Feature","geometry":{"type":"Point","coordinates":[133.66214,33.77908]},"properties":{"name":"学校に泊まろう! みどりの時計台","country":"Japan","website":null,"opening_hours":null,"capacity":null,"phone":null,"address":null,"ele":null,"operator":null,"wikipedia":null,"wikidata":null,"description":null,"wheelchair":null,"osmType":"node","osmId":4972943023}},{"type":"Feature","geometry":{"type":"Point","coordinates":[133.6385,35.30994]},"properties":{"name":"だんだん村","country":"Japan","website":null,"opening_hours":null,"capacity":null,"phone":null,"address":null,"ele":null,"operator":null,"wikipedia":null,"wikidata":null,"description":null,"wheelchair":null,"osmType":"node","osmId":4996797224}},{"type":"Feature","geometry":{"type":"Point","coordinates":[138.2075,35.43125]},"properties":{"name":"椹島ロッヂ","country":"Japan","website":null,"opening_hours":null,"capacity":null,"phone":null,"address":null,"ele":null,"operator":null,"wikipedia":null,"wikidata":null,"description":null,"wheelchair":null,"osmType":"node","osmId":5045641816}},{"type":"Feature","geometry":{"type":"Point","coordinates":[138.82487,36.8068]},"properties":{"name":"平標山の家","country":"Japan","website":null,"opening_hours":null,"capacity":null,"phone":null,"address":null,"ele":null,"operator":null,"wikipedia":null,"wikidata":null,"description":null,"wheelchair":null,"osmType":"node","osmId":5352172991}},{"type":"Feature","geometry":{"type":"Point","coordinates":[133.14462,34.49351]},"properties":{"name":null,"country":"Japan","website":null,"opening_hours":null,"capacity":null,"phone":null,"address":null,"ele":null,"operator":null,"wikipedia":null,"wikidata":null,"description":null,"wheelchair":null,"osmType":"node","osmId":5406394221}},{"type":"Feature","geometry":{"type":"Point","coordinates":[140.35949,38.23374]},"properties":{"name":"見晴台","country":"Japan","website":null,"opening_hours":null,"capacity":null,"phone":null,"address":null,"ele":null,"operator":null,"wikipedia":null,"wikidata":null,"description":null,"wheelchair":null,"osmType":"node","osmId":5535212022}},{"type":"Feature","geometry":{"type":"Point","coordinates":[135.91044,34.17949]},"properties":{"name":"弥山小屋","country":"Japan","website":null,"opening_hours":null,"capacity":null,"phone":"+81 747 52 1332","address":null,"ele":null,"operator":null,"wikipedia":null,"wikidata":null,"description":null,"wheelchair":null,"osmType":"node","osmId":5620284990}},{"type":"Feature","geometry":{"type":"Point","coordinates":[137.58324,36.44005]},"properties":{"name":"高天原山荘","country":"Japan","website":null,"opening_hours":null,"capacity":null,"phone":null,"address":null,"ele":null,"operator":null,"wikipedia":null,"wikidata":null,"description":null,"wheelchair":null,"osmType":"node","osmId":5643992031}},{"type":"Feature","geometry":{"type":"Point","coordinates":[137.57654,36.42061]},"properties":{"name":"雲ノ平山荘","country":"Japan","website":null,"opening_hours":null,"capacity":null,"phone":null,"address":null,"ele":null,"operator":null,"wikipedia":null,"wikidata":null,"description":null,"wheelchair":null,"osmType":"node","osmId":5643992032}},{"type":"Feature","geometry":{"type":"Point","coordinates":[138.25945,35.60904]},"properties":{"name":"大門沢小屋","country":"Japan","website":null,"opening_hours":null,"capacity":null,"phone":null,"address":null,"ele":"1765","operator":null,"wikipedia":null,"wikidata":null,"description":null,"wheelchair":null,"osmType":"node","osmId":5694557303,"elevation":"1765"}},{"type":"Feature","geometry":{"type":"Point","coordinates":[138.15888,35.36449]},"properties":{"name":"横窪沢小屋","country":"Japan","website":null,"opening_hours":null,"capacity":null,"phone":null,"address":null,"ele":null,"operator":null,"wikipedia":null,"wikidata":null,"description":null,"wheelchair":null,"osmType":"node","osmId":5696179034}},{"type":"Feature","geometry":{"type":"Point","coordinates":[138.20316,35.67471]},"properties":{"name":"両俣小屋","country":"Japan","website":null,"opening_hours":null,"capacity":null,"phone":null,"address":null,"ele":null,"operator":null,"wikipedia":null,"wikidata":null,"description":null,"wheelchair":null,"osmType":"node","osmId":5696179489}},{"type":"Feature","geometry":{"type":"Point","coordinates":[138.54985,36.65428]},"properties":{"name":"芳ヶ平ヒュッテ","country":"Japan","website":null,"opening_hours":null,"capacity":null,"phone":null,"address":null,"ele":null,"operator":null,"wikipedia":null,"wikidata":null,"description":null,"wheelchair":null,"osmType":"node","osmId":5784845015}},{"type":"Feature","geometry":{"type":"Point","coordinates":[137.64035,36.61047]},"properties":{"name":null,"country":"Japan","website":null,"opening_hours":null,"capacity":null,"phone":null,"address":null,"ele":null,"operator":null,"wikipedia":null,"wikidata":null,"description":null,"wheelchair":null,"osmType":"node","osmId":5828145687}},{"type":"Feature","geometry":{"type":"Point","coordinates":[137.64001,36.63911]},"properties":{"name":"池丿平小屋","country":"Japan","website":null,"opening_hours":null,"capacity":null,"phone":null,"address":null,"ele":null,"operator":null,"wikipedia":null,"wikidata":null,"description":null,"wheelchair":null,"osmType":"node","osmId":5828159585}},{"type":"Feature","geometry":{"type":"Point","coordinates":[135.62033,33.8212]},"properties":{"name":"3rd Place Kumano Kodo","country":"Japan","website":null,"opening_hours":null,"capacity":null,"phone":null,"address":null,"ele":null,"operator":null,"wikipedia":null,"wikidata":null,"description":null,"wheelchair":null,"osmType":"node","osmId":5933422988}},{"type":"Feature","geometry":{"type":"Point","coordinates":[138.44302,36.91734]},"properties":{"name":"villa Nozawa","country":"Japan","website":null,"opening_hours":null,"capacity":null,"phone":null,"address":null,"ele":null,"operator":null,"wikipedia":null,"wikidata":null,"description":null,"wheelchair":null,"osmType":"node","osmId":6114280785}},{"type":"Feature","geometry":{"type":"Point","coordinates":[138.44299,36.91739]},"properties":{"name":"Villa Nozawa","country":"Japan","website":null,"opening_hours":null,"capacity":null,"phone":null,"address":null,"ele":null,"operator":null,"wikipedia":null,"wikidata":null,"description":null,"wheelchair":null,"osmType":"node","osmId":6114280786}},{"type":"Feature","geometry":{"type":"Point","coordinates":[138.4436,36.91697]},"properties":{"name":"Villa Nozawa","country":"Japan","website":null,"opening_hours":null,"capacity":null,"phone":null,"address":null,"ele":null,"operator":null,"wikipedia":null,"wikidata":null,"description":null,"wheelchair":null,"osmType":"node","osmId":6114303385}},{"type":"Feature","geometry":{"type":"Point","coordinates":[140.56157,37.98287]},"properties":{"name":null,"country":"Japan","website":null,"opening_hours":null,"capacity":null,"phone":null,"address":null,"ele":null,"operator":null,"wikipedia":null,"wikidata":null,"description":null,"wheelchair":null,"osmType":"node","osmId":6453101585}},{"type":"Feature","geometry":{"type":"Point","coordinates":[140.68906,38.98724]},"properties":{"name":"大湯温泉 阿部旅館","country":"Japan","website":null,"opening_hours":null,"capacity":null,"phone":null,"address":null,"ele":null,"operator":null,"wikipedia":null,"wikidata":null,"description":null,"wheelchair":null,"osmType":"node","osmId":6652530097}},{"type":"Feature","geometry":{"type":"Point","coordinates":[137.63824,36.43625]},"properties":{"name":"野口五郎小屋","country":"Japan","website":null,"opening_hours":null,"capacity":null,"phone":null,"address":null,"ele":null,"operator":null,"wikipedia":null,"wikidata":null,"description":null,"wheelchair":null,"osmType":"node","osmId":6744033151}},{"type":"Feature","geometry":{"type":"Point","coordinates":[134.18513,34.92068]},"properties":{"name":"河会　山野草群生地","country":"Japan","website":null,"opening_hours":null,"capacity":null,"phone":null,"address":"701-2616","ele":null,"operator":null,"wikipedia":null,"wikidata":null,"description":null,"wheelchair":null,"osmType":"node","osmId":6915864286}},{"type":"Feature","geometry":{"type":"Point","coordinates":[136.18429,34.09493]},"properties":{"name":"便石山 象の背","country":"Japan","website":null,"opening_hours":null,"capacity":null,"phone":null,"address":null,"ele":null,"operator":null,"wikipedia":null,"wikidata":null,"description":null,"wheelchair":null,"osmType":"node","osmId":6920012986}},{"type":"Feature","geometry":{"type":"Point","coordinates":[140.19378,39.54746]},"properties":{"name":"秋田市雄和 高尾山荘","country":"Japan","website":null,"opening_hours":null,"capacity":null,"phone":null,"address":null,"ele":null,"operator":null,"wikipedia":null,"wikidata":null,"description":null,"wheelchair":null,"osmType":"node","osmId":7416804297}},{"type":"Feature","geometry":{"type":"Point","coordinates":[138.80188,36.97935]},"properties":{"name":"アーバンヒル石打","country":"Japan","website":null,"opening_hours":null,"capacity":null,"phone":null,"address":null,"ele":null,"operator":null,"wikipedia":null,"wikidata":null,"description":null,"wheelchair":null,"osmType":"node","osmId":7473362987}},{"type":"Feature","geometry":{"type":"Point","coordinates":[140.28911,40.06052]},"properties":{"name":"上ノ岱ヒュッテ　秋田杉の里","country":"Japan","website":null,"opening_hours":null,"capacity":null,"phone":null,"address":null,"ele":null,"operator":null,"wikipedia":null,"wikidata":null,"description":null,"wheelchair":null,"osmType":"node","osmId":7598252279}},{"type":"Feature","geometry":{"type":"Point","coordinates":[138.2332,35.66478]},"properties":{"name":"北岳山荘","country":"Japan","website":"https://www.city.minami-alps.yamanashi.jp/docs/kitadake-sansou.html","opening_hours":null,"capacity":null,"phone":"090-4529-4947","address":null,"ele":"2900","operator":"南アルプス市","wikipedia":"ja:北岳山荘","wikidata":"Q11401515","description":null,"wheelchair":null,"osmType":"node","osmId":7889897218,"elevation":"2900"}},{"type":"Feature","geometry":{"type":"Point","coordinates":[138.23771,35.67939]},"properties":{"name":"北岳肩の小屋","country":"Japan","website":"https://katanokoya.com/","opening_hours":null,"capacity":null,"phone":"+81 090-4606-0068","address":null,"ele":"3000","operator":null,"wikipedia":null,"wikidata":null,"description":null,"wheelchair":null,"osmType":"node","osmId":7891359513,"elevation":"3000"}},{"type":"Feature","geometry":{"type":"Point","coordinates":[136.96495,35.40506]},"properties":{"name":null,"country":"Japan","website":null,"opening_hours":null,"capacity":null,"phone":null,"address":null,"ele":null,"operator":null,"wikipedia":null,"wikidata":null,"description":null,"wheelchair":null,"osmType":"node","osmId":7948177185}},{"type":"Feature","geometry":{"type":"Point","coordinates":[140.43025,38.45941]},"properties":{"name":"きのこ園山荘","country":"Japan","website":null,"opening_hours":null,"capacity":null,"phone":null,"address":null,"ele":"491","operator":"私有地","wikipedia":null,"wikidata":null,"description":null,"wheelchair":null,"osmType":"node","osmId":8208905373,"elevation":"491"}},{"type":"Feature","geometry":{"type":"Point","coordinates":[141.11061,43.11368]},"properties":{"name":"銀嶺荘","country":"Japan","website":null,"opening_hours":null,"capacity":null,"phone":null,"address":null,"ele":null,"operator":null,"wikipedia":null,"wikidata":null,"description":null,"wheelchair":null,"osmType":"node","osmId":8222738859}},{"type":"Feature","geometry":{"type":"Point","coordinates":[141.11007,43.07188]},"properties":{"name":"春香山小屋","country":"Japan","website":null,"opening_hours":null,"capacity":null,"phone":null,"address":null,"ele":null,"operator":null,"wikipedia":null,"wikidata":null,"description":null,"wheelchair":null,"osmType":"node","osmId":8318506096}},{"type":"Feature","geometry":{"type":"Point","coordinates":[139.09796,37.40973]},"properties":{"name":"保久礼小屋","country":"Japan","website":null,"opening_hours":null,"capacity":null,"phone":null,"address":null,"ele":null,"operator":null,"wikipedia":null,"wikidata":null,"description":null,"wheelchair":null,"osmType":"node","osmId":8735634667}},{"type":"Feature","geometry":{"type":"Point","coordinates":[137.60845,36.41962]},"properties":{"name":"水晶小屋","country":"Japan","website":null,"opening_hours":null,"capacity":null,"phone":null,"address":null,"ele":null,"operator":null,"wikipedia":"ja:水晶小屋","wikidata":"Q11548686","description":null,"wheelchair":null,"osmType":"node","osmId":8762780891}},{"type":"Feature","geometry":{"type":"Point","coordinates":[139.64362,37.87768]},"properties":{"name":"梅花皮小屋","country":"Japan","website":null,"opening_hours":null,"capacity":null,"phone":null,"address":null,"ele":null,"operator":null,"wikipedia":null,"wikidata":null,"description":null,"wheelchair":null,"osmType":"node","osmId":8812954726}},{"type":"Feature","geometry":{"type":"Point","coordinates":[139.0913,35.50407]},"properties":{"name":null,"country":"Japan","website":null,"opening_hours":null,"capacity":null,"phone":null,"address":null,"ele":null,"operator":null,"wikipedia":null,"wikidata":null,"description":null,"wheelchair":null,"osmType":"node","osmId":9051276247}},{"type":"Feature","geometry":{"type":"Point","coordinates":[138.43955,35.94175]},"properties":{"name":"BUB Resort Yatsugatake","country":"Japan","website":"https://yatsugatake.bub-resort.com/","opening_hours":null,"capacity":null,"phone":"0551-45-9100","address":"〒407-0301 Yamanashi, Hokuto, Takanecho Kiyosato, 字念場原3545-1-148, 407-0301","ele":null,"operator":null,"wikipedia":null,"wikidata":null,"description":null,"wheelchair":null,"osmType":"node","osmId":10967294205}},{"type":"Feature","geometry":{"type":"Point","coordinates":[140.95251,43.1725]},"properties":{"name":"おこばち山荘","country":"Japan","website":null,"opening_hours":null,"capacity":null,"phone":null,"address":null,"ele":null,"operator":null,"wikipedia":null,"wikidata":null,"description":null,"wheelchair":null,"osmType":"node","osmId":11212271983}},{"type":"Feature","geometry":{"type":"Point","coordinates":[134.84598,35.06542]},"properties":{"name":"竜が滝展望台","country":"Japan","website":null,"opening_hours":null,"capacity":null,"phone":null,"address":null,"ele":null,"operator":null,"wikipedia":null,"wikidata":null,"description":null,"wheelchair":null,"osmType":"node","osmId":11436219770}},{"type":"Feature","geometry":{"type":"Point","coordinates":[134.84462,35.01834]},"properties":{"name":"笠形林道展望台","country":"Japan","website":null,"opening_hours":null,"capacity":null,"phone":null,"address":null,"ele":null,"operator":null,"wikipedia":null,"wikidata":null,"description":null,"wheelchair":null,"osmType":"node","osmId":11436219869}},{"type":"Feature","geometry":{"type":"Point","coordinates":[134.84333,35.01719]},"properties":{"name":"笠形林道展望台","country":"Japan","website":null,"opening_hours":null,"capacity":null,"phone":null,"address":null,"ele":null,"operator":null,"wikipedia":null,"wikidata":null,"description":null,"wheelchair":null,"osmType":"node","osmId":11436219969}},{"type":"Feature","geometry":{"type":"Point","coordinates":[134.81755,34.98647]},"properties":{"name":"釜坂峠","country":"Japan","website":null,"opening_hours":null,"capacity":null,"phone":null,"address":null,"ele":null,"operator":null,"wikipedia":null,"wikidata":null,"description":null,"wheelchair":null,"osmType":"node","osmId":11436219971}},{"type":"Feature","geometry":{"type":"Point","coordinates":[134.83831,35.03765]},"properties":{"name":"船坂峠","country":"Japan","website":null,"opening_hours":null,"capacity":null,"phone":null,"address":null,"ele":null,"operator":null,"wikipedia":null,"wikidata":null,"description":null,"wheelchair":null,"osmType":"node","osmId":11436220069}},{"type":"Feature","geometry":{"type":"Point","coordinates":[138.81051,35.85795]},"properties":{"name":"笠取小屋","country":"Japan","website":null,"opening_hours":null,"capacity":null,"phone":null,"address":null,"ele":null,"operator":null,"wikipedia":null,"wikidata":null,"description":null,"wheelchair":null,"osmType":"node","osmId":11711795240}},{"type":"Feature","geometry":{"type":"Point","coordinates":[135.89794,34.04083]},"properties":{"name":"持経宿","country":"Japan","website":null,"opening_hours":null,"capacity":null,"phone":null,"address":null,"ele":null,"operator":null,"wikipedia":null,"wikidata":null,"description":null,"wheelchair":null,"osmType":"node","osmId":11969925769}},{"type":"Feature","geometry":{"type":"Point","coordinates":[135.90949,34.03122]},"properties":{"name":"平治ノ宿","country":"Japan","website":null,"opening_hours":null,"capacity":null,"phone":null,"address":null,"ele":null,"operator":null,"wikipedia":null,"wikidata":null,"description":null,"wheelchair":null,"osmType":"node","osmId":11974203569}},{"type":"Feature","geometry":{"type":"Point","coordinates":[138.8061,35.54844]},"properties":{"name":null,"country":"Japan","website":null,"opening_hours":null,"capacity":null,"phone":"+81 90 5339 6238","address":null,"ele":"~1720","operator":null,"wikipedia":null,"wikidata":null,"description":null,"wheelchair":null,"osmType":"node","osmId":12813097628,"elevation":"~1720"}},{"type":"Feature","geometry":{"type":"Point","coordinates":[139.30532,36.98383]},"properties":{"name":"御池ロッジ","country":"Japan","website":null,"opening_hours":null,"capacity":null,"phone":null,"address":null,"ele":null,"operator":null,"wikipedia":null,"wikidata":null,"description":null,"wheelchair":null,"osmType":"way","osmId":27423455}},{"type":"Feature","geometry":{"type":"Point","coordinates":[135.33507,33.80146]},"properties":{"name":"梅仙人荘 (Umesenninsō)","country":"Japan","website":null,"opening_hours":null,"capacity":null,"phone":null,"address":null,"ele":null,"operator":null,"wikipedia":null,"wikidata":null,"description":null,"wheelchair":null,"osmType":"way","osmId":43678500}},{"type":"Feature","geometry":{"type":"Point","coordinates":[141.1861,42.91271]},"properties":{"name":"冷水小屋","country":"Japan","website":null,"opening_hours":null,"capacity":null,"phone":null,"address":null,"ele":null,"operator":null,"wikipedia":null,"wikidata":null,"description":null,"wheelchair":null,"osmType":"way","osmId":70213755}},{"type":"Feature","geometry":{"type":"Point","coordinates":[138.73915,35.36918]},"properties":{"name":"本八合目富士山ホテル別館","country":"Japan","website":"https://www.fujisanhotel.com/","opening_hours":null,"capacity":null,"phone":null,"address":null,"ele":"3400","operator":null,"wikipedia":null,"wikidata":null,"description":null,"wheelchair":null,"osmType":"way","osmId":146162657,"elevation":"3400"}},{"type":"Feature","geometry":{"type":"Point","coordinates":[138.6017,35.88123]},"properties":{"name":"大日小屋","country":"Japan","website":null,"opening_hours":null,"capacity":null,"phone":null,"address":null,"ele":null,"operator":null,"wikipedia":null,"wikidata":null,"description":null,"wheelchair":null,"osmType":"way","osmId":161885521}},{"type":"Feature","geometry":{"type":"Point","coordinates":[138.58752,35.88255]},"properties":{"name":"富士見平小屋","country":"Japan","website":null,"opening_hours":null,"capacity":null,"phone":null,"address":null,"ele":null,"operator":null,"wikipedia":null,"wikidata":null,"description":null,"wheelchair":"no","osmType":"way","osmId":161885523}},{"type":"Feature","geometry":{"type":"Point","coordinates":[138.62306,35.87379]},"properties":{"name":"金峰山小屋","country":"Japan","website":"https://www.kimpou.com/","opening_hours":null,"capacity":null,"phone":null,"address":null,"ele":null,"operator":null,"wikipedia":null,"wikidata":null,"description":null,"wheelchair":null,"osmType":"way","osmId":161885541}},{"type":"Feature","geometry":{"type":"Point","coordinates":[138.32421,35.98228]},"properties":{"name":"やまのこ村","country":"Japan","website":null,"opening_hours":null,"capacity":null,"phone":null,"address":null,"ele":"1677.7","operator":null,"wikipedia":null,"wikidata":null,"description":null,"wheelchair":null,"osmType":"way","osmId":181402974,"elevation":"1677.7"}},{"type":"Feature","geometry":{"type":"Point","coordinates":[138.36451,35.97899]},"properties":{"name":"行者小屋","country":"Japan","website":null,"opening_hours":null,"capacity":null,"phone":null,"address":null,"ele":null,"operator":null,"wikipedia":null,"wikidata":null,"description":null,"wheelchair":null,"osmType":"way","osmId":181402975}},{"type":"Feature","geometry":{"type":"Point","coordinates":[138.32498,35.98206]},"properties":{"name":null,"country":"Japan","website":null,"opening_hours":null,"capacity":null,"phone":null,"address":null,"ele":"1686","operator":null,"wikipedia":null,"wikidata":null,"description":null,"wheelchair":null,"osmType":"way","osmId":181402987,"elevation":"1686"}},{"type":"Feature","geometry":{"type":"Point","coordinates":[138.37234,35.99393]},"properties":{"name":"硫黄岳山荘","country":"Japan","website":"https://iodake.jp/sanso/","opening_hours":null,"capacity":null,"phone":"+81 90 3142 8469","address":null,"ele":"2653.5","operator":null,"wikipedia":null,"wikidata":null,"description":null,"wheelchair":null,"osmType":"way","osmId":181402988,"elevation":"2653.5"}},{"type":"Feature","geometry":{"type":"Point","coordinates":[138.32784,35.98133]},"properties":{"name":"美濃戸山荘","country":"Japan","website":null,"opening_hours":null,"capacity":null,"phone":null,"address":null,"ele":"1718.4","operator":null,"wikipedia":null,"wikidata":null,"description":null,"wheelchair":null,"osmType":"way","osmId":181402990,"elevation":"1718.4"}},{"type":"Feature","geometry":{"type":"Point","coordinates":[138.32506,35.98223]},"properties":{"name":"赤岳山荘","country":"Japan","website":null,"opening_hours":null,"capacity":null,"phone":null,"address":null,"ele":"1686.9","operator":null,"wikipedia":null,"wikidata":null,"description":null,"wheelchair":null,"osmType":"way","osmId":181402991,"elevation":"1686.9"}},{"type":"Feature","geometry":{"type":"Point","coordinates":[138.36024,35.98678]},"properties":{"name":"赤岳鉱泉","country":"Japan","website":null,"opening_hours":null,"capacity":null,"phone":null,"address":null,"ele":"2211.7","operator":null,"wikipedia":"ja:赤岳鉱泉","wikidata":"Q108808349","description":null,"wheelchair":null,"osmType":"way","osmId":181402992,"elevation":"2211.7"}},{"type":"Feature","geometry":{"type":"Point","coordinates":[131.25544,33.09646]},"properties":{"name":"法華院温泉山荘","country":"Japan","website":null,"opening_hours":null,"capacity":null,"phone":"+81 974 77 2810","address":"872-0202 竹田市久住町","ele":null,"operator":"法華院温泉山荘","wikipedia":"ja:法華院温泉","wikidata":"Q11555331","description":null,"wheelchair":null,"osmType":"way","osmId":181708484}},{"type":"Feature","geometry":{"type":"Point","coordinates":[137.80657,35.78787]},"properties":{"name":"頂上山荘","country":"Japan","website":null,"opening_hours":null,"capacity":null,"phone":null,"address":null,"ele":null,"operator":null,"wikipedia":null,"wikidata":null,"description":null,"wheelchair":null,"osmType":"way","osmId":187898280}},{"type":"Feature","geometry":{"type":"Point","coordinates":[137.80893,35.78315]},"properties":{"name":"宝剣山荘","country":"Japan","website":null,"opening_hours":null,"capacity":null,"phone":null,"address":null,"ele":null,"operator":null,"wikipedia":null,"wikidata":null,"description":null,"wheelchair":null,"osmType":"way","osmId":187902027}},{"type":"Feature","geometry":{"type":"Point","coordinates":[137.8087,35.78387]},"properties":{"name":"天狗荘","country":"Japan","website":null,"opening_hours":null,"capacity":null,"phone":null,"address":null,"ele":null,"operator":null,"wikipedia":null,"wikidata":null,"description":null,"wheelchair":null,"osmType":"way","osmId":187902246}},{"type":"Feature","geometry":{"type":"Point","coordinates":[138.85324,35.73628]},"properties":{"name":"介山荘","country":"Japan","website":null,"opening_hours":null,"capacity":null,"phone":null,"address":null,"ele":null,"operator":null,"wikipedia":null,"wikidata":null,"description":null,"wheelchair":null,"osmType":"way","osmId":192637055}},{"type":"Feature","geometry":{"type":"Point","coordinates":[138.8437,35.73788]},"properties":{"name":"勝縁荘","country":"Japan","website":null,"opening_hours":null,"capacity":null,"phone":null,"address":null,"ele":null,"operator":null,"wikipedia":null,"wikidata":null,"description":null,"wheelchair":null,"osmType":"way","osmId":192637057}},{"type":"Feature","geometry":{"type":"Point","coordinates":[138.84146,35.73777]},"properties":{"name":"富士見山荘","country":"Japan","website":null,"opening_hours":null,"capacity":null,"phone":null,"address":null,"ele":null,"operator":null,"wikipedia":null,"wikidata":null,"description":null,"wheelchair":null,"osmType":"way","osmId":192637066}},{"type":"Feature","geometry":{"type":"Point","coordinates":[138.84158,35.73775]},"properties":{"name":"富士見山荘","country":"Japan","website":null,"opening_hours":null,"capacity":null,"phone":null,"address":null,"ele":null,"operator":null,"wikipedia":null,"wikidata":null,"description":null,"wheelchair":null,"osmType":"way","osmId":192637068}},{"type":"Feature","geometry":{"type":"Point","coordinates":[138.85338,35.73634]},"properties":{"name":"介山荘","country":"Japan","website":null,"opening_hours":null,"capacity":null,"phone":null,"address":null,"ele":null,"operator":null,"wikipedia":null,"wikidata":null,"description":null,"wheelchair":null,"osmType":"way","osmId":192637073}},{"type":"Feature","geometry":{"type":"Point","coordinates":[137.60093,36.57771]},"properties":{"name":"立山室堂山荘","country":"Japan","website":null,"opening_hours":null,"capacity":null,"phone":null,"address":null,"ele":null,"operator":null,"wikipedia":null,"wikidata":null,"description":null,"wheelchair":null,"osmType":"way","osmId":197896242}},{"type":"Feature","geometry":{"type":"Point","coordinates":[137.65556,36.55798]},"properties":{"name":"ロッジくろよん","country":"Japan","website":"http://www.kuroyon.com/","opening_hours":null,"capacity":"100","phone":"+81 76 463-6350","address":null,"ele":null,"operator":null,"wikipedia":null,"wikidata":null,"description":null,"wheelchair":null,"osmType":"way","osmId":199357182}},{"type":"Feature","geometry":{"type":"Point","coordinates":[137.61206,36.57039]},"properties":{"name":"一の越山荘","country":"Japan","website":null,"opening_hours":null,"capacity":null,"phone":null,"address":null,"ele":null,"operator":null,"wikipedia":null,"wikidata":null,"description":null,"wheelchair":null,"osmType":"way","osmId":199357185}},{"type":"Feature","geometry":{"type":"Point","coordinates":[137.59781,36.58793]},"properties":{"name":"ロッジ立山連峰","country":"Japan","website":"https://www.raichozawa.net/lodge.html","opening_hours":null,"capacity":null,"phone":"076-463-6004","address":null,"ele":null,"operator":null,"wikipedia":null,"wikidata":null,"description":null,"wheelchair":null,"osmType":"way","osmId":199362779}},{"type":"Feature","geometry":{"type":"Point","coordinates":[137.59835,36.5845]},"properties":{"name":"らいちょう温泉雷鳥荘","country":"Japan","website":null,"opening_hours":null,"capacity":null,"phone":null,"address":null,"ele":null,"operator":null,"wikipedia":null,"wikidata":null,"description":null,"wheelchair":null,"osmType":"way","osmId":199362781}},{"type":"Feature","geometry":{"type":"Point","coordinates":[139.17323,35.43451]},"properties":{"name":"作治小屋","country":"Japan","website":"http://ikigai-jiritsu.com/sakuji.html","opening_hours":null,"capacity":"35","phone":null,"address":"2, 259-1306 秦野市","ele":null,"operator":"NPO法人生き甲斐と自立の会","wikipedia":null,"wikidata":null,"description":null,"wheelchair":null,"osmType":"way","osmId":212213573}},{"type":"Feature","geometry":{"type":"Point","coordinates":[139.17455,35.42923]},"properties":{"name":"新茅荘","country":"Japan","website":null,"opening_hours":null,"capacity":null,"phone":null,"address":null,"ele":null,"operator":null,"wikipedia":null,"wikidata":null,"description":null,"wheelchair":null,"osmType":"way","osmId":212216301}},{"type":"Feature","geometry":{"type":"Point","coordinates":[137.80775,35.72324]},"properties":{"name":"木曽殿山荘","country":"Japan","website":null,"opening_hours":null,"capacity":null,"phone":null,"address":null,"ele":null,"operator":null,"wikipedia":null,"wikidata":null,"description":null,"wheelchair":null,"osmType":"way","osmId":234511922}},{"type":"Feature","geometry":{"type":"Point","coordinates":[137.75635,36.75598]},"properties":{"name":"白馬山荘","country":"Japan","website":null,"opening_hours":null,"capacity":null,"phone":null,"address":null,"ele":"2832","operator":null,"wikipedia":"ja:白馬山荘","wikidata":"Q11580470","description":null,"wheelchair":null,"osmType":"way","osmId":234581427,"elevation":"2832"}},{"type":"Feature","geometry":{"type":"Point","coordinates":[137.71762,36.82486]},"properties":{"name":"朝日小屋","country":"Japan","website":null,"opening_hours":null,"capacity":null,"phone":null,"address":null,"ele":null,"operator":null,"wikipedia":null,"wikidata":null,"description":null,"wheelchair":null,"osmType":"way","osmId":234581428}},{"type":"Feature","geometry":{"type":"Point","coordinates":[137.8009,36.74602]},"properties":{"name":"猿倉荘","country":"Japan","website":null,"opening_hours":null,"capacity":null,"phone":null,"address":null,"ele":null,"operator":null,"wikipedia":null,"wikidata":null,"description":null,"wheelchair":null,"osmType":"way","osmId":234581429}},{"type":"Feature","geometry":{"type":"Point","coordinates":[137.75374,36.75277]},"properties":{"name":"白馬岳頂上宿舎","country":"Japan","website":null,"opening_hours":null,"capacity":null,"phone":null,"address":null,"ele":null,"operator":null,"wikipedia":"ja:白馬岳頂上宿舎","wikidata":"Q11580474","description":null,"wheelchair":null,"osmType":"way","osmId":234581430}},{"type":"Feature","geometry":{"type":"Point","coordinates":[139.80278,37.48092]},"properties":{"name":null,"country":"Japan","website":null,"opening_hours":null,"capacity":null,"phone":null,"address":null,"ele":null,"operator":null,"wikipedia":null,"wikidata":null,"description":null,"wheelchair":null,"osmType":"way","osmId":234962234}},{"type":"Feature","geometry":{"type":"Point","coordinates":[139.80261,37.48075]},"properties":{"name":null,"country":"Japan","website":null,"opening_hours":null,"capacity":null,"phone":null,"address":null,"ele":null,"operator":null,"wikipedia":null,"wikidata":null,"description":null,"wheelchair":null,"osmType":"way","osmId":234962238}},{"type":"Feature","geometry":{"type":"Point","coordinates":[139.8022,37.48132]},"properties":{"name":null,"country":"Japan","website":null,"opening_hours":null,"capacity":null,"phone":null,"address":null,"ele":null,"operator":null,"wikipedia":null,"wikidata":null,"description":null,"wheelchair":null,"osmType":"way","osmId":234962242}},{"type":"Feature","geometry":{"type":"Point","coordinates":[139.80243,37.4813]},"properties":{"name":null,"country":"Japan","website":null,"opening_hours":null,"capacity":null,"phone":null,"address":null,"ele":null,"operator":null,"wikipedia":null,"wikidata":null,"description":null,"wheelchair":null,"osmType":"way","osmId":234962243}},{"type":"Feature","geometry":{"type":"Point","coordinates":[139.80271,37.48145]},"properties":{"name":null,"country":"Japan","website":null,"opening_hours":null,"capacity":null,"phone":null,"address":null,"ele":null,"operator":null,"wikipedia":null,"wikidata":null,"description":null,"wheelchair":null,"osmType":"way","osmId":234962245}},{"type":"Feature","geometry":{"type":"Point","coordinates":[139.80265,37.48119]},"properties":{"name":null,"country":"Japan","website":null,"opening_hours":null,"capacity":null,"phone":null,"address":null,"ele":null,"operator":null,"wikipedia":null,"wikidata":null,"description":null,"wheelchair":null,"osmType":"way","osmId":234962246}},{"type":"Feature","geometry":{"type":"Point","coordinates":[136.90628,36.25546]},"properties":{"name":"kidoya mins huma","country":"Japan","website":null,"opening_hours":null,"capacity":null,"phone":null,"address":null,"ele":null,"operator":null,"wikipedia":null,"wikidata":null,"description":null,"wheelchair":null,"osmType":"way","osmId":236248656}},{"type":"Feature","geometry":{"type":"Point","coordinates":[138.30558,35.71047]},"properties":{"name":"鳳凰小屋","country":"Japan","website":null,"opening_hours":null,"capacity":null,"phone":null,"address":null,"ele":null,"operator":null,"wikipedia":null,"wikidata":null,"description":null,"wheelchair":null,"osmType":"way","osmId":242682691}},{"type":"Feature","geometry":{"type":"Point","coordinates":[138.35069,35.7235]},"properties":{"name":"御座石鉱泉","country":"Japan","website":null,"opening_hours":null,"capacity":null,"phone":null,"address":null,"ele":null,"operator":null,"wikipedia":null,"wikidata":null,"description":null,"wheelchair":null,"osmType":"way","osmId":242682980}},{"type":"Feature","geometry":{"type":"Point","coordinates":[138.91848,35.83536]},"properties":{"name":null,"country":"Japan","website":null,"opening_hours":null,"capacity":null,"phone":null,"address":null,"ele":null,"operator":null,"wikipedia":null,"wikidata":null,"description":null,"wheelchair":null,"osmType":"way","osmId":244803596}},{"type":"Feature","geometry":{"type":"Point","coordinates":[138.91827,35.83542]},"properties":{"name":"三条の湯","country":"Japan","website":null,"opening_hours":null,"capacity":null,"phone":null,"address":null,"ele":null,"operator":null,"wikipedia":null,"wikidata":null,"description":null,"wheelchair":null,"osmType":"way","osmId":244803600}},{"type":"Feature","geometry":{"type":"Point","coordinates":[139.16336,35.45446]},"properties":{"name":"尊仏山荘","country":"Japan","website":"http://www.cnet-sb.ne.jp/sonbutu/","opening_hours":"24/7","capacity":"150","phone":null,"address":null,"ele":"1491","operator":null,"wikipedia":"ja:尊仏山荘","wikidata":"Q104659827","description":null,"wheelchair":null,"osmType":"way","osmId":255337167,"elevation":"1491"}},{"type":"Feature","geometry":{"type":"Point","coordinates":[139.17267,35.45268]},"properties":{"name":"木ノ又小屋","country":"Japan","website":null,"opening_hours":null,"capacity":null,"phone":null,"address":null,"ele":null,"operator":null,"wikipedia":null,"wikidata":null,"description":null,"wheelchair":null,"osmType":"way","osmId":255359219}},{"type":"Feature","geometry":{"type":"Point","coordinates":[139.14162,35.44393]},"properties":{"name":"鍋割山荘","country":"Japan","website":"http://nabewari.net/","opening_hours":null,"capacity":null,"phone":null,"address":null,"ele":null,"operator":null,"wikipedia":null,"wikidata":null,"description":null,"wheelchair":"no","osmType":"way","osmId":255360454}},{"type":"Feature","geometry":{"type":"Point","coordinates":[139.17671,35.4516]},"properties":{"name":"新大日茶屋","country":"Japan","website":null,"opening_hours":null,"capacity":null,"phone":null,"address":null,"ele":null,"operator":null,"wikipedia":null,"wikidata":null,"description":null,"wheelchair":null,"osmType":"way","osmId":255360455}},{"type":"Feature","geometry":{"type":"Point","coordinates":[139.00491,35.28969]},"properties":{"name":"金太郎茶屋","country":"Japan","website":null,"opening_hours":null,"capacity":null,"phone":null,"address":null,"ele":null,"operator":null,"wikipedia":null,"wikidata":null,"description":null,"wheelchair":null,"osmType":"way","osmId":257476938}},{"type":"Feature","geometry":{"type":"Point","coordinates":[139.19821,36.91608]},"properties":{"name":"尾瀬ロッジ","country":"Japan","website":null,"opening_hours":null,"capacity":null,"phone":null,"address":"378-0411 片品村","ele":null,"operator":null,"wikipedia":null,"wikidata":null,"description":null,"wheelchair":null,"osmType":"way","osmId":262636434}},{"type":"Feature","geometry":{"type":"Point","coordinates":[139.19774,36.91597]},"properties":{"name":"山の鼻小屋","country":"Japan","website":null,"opening_hours":null,"capacity":null,"phone":null,"address":"378-0411 片品村","ele":null,"operator":null,"wikipedia":null,"wikidata":null,"description":null,"wheelchair":null,"osmType":"way","osmId":262636435}},{"type":"Feature","geometry":{"type":"Point","coordinates":[139.1974,36.91585]},"properties":{"name":"至仏山荘","country":"Japan","website":null,"opening_hours":null,"capacity":null,"phone":null,"address":"378-0411 片品村","ele":null,"operator":null,"wikipedia":null,"wikidata":null,"description":null,"wheelchair":null,"osmType":"way","osmId":262636436}},{"type":"Feature","geometry":{"type":"Point","coordinates":[138.1746,35.90502]},"properties":{"name":"山彦荘","country":"Japan","website":"http://www.mid.janis.or.jp/~yamabiko/","opening_hours":null,"capacity":null,"phone":null,"address":null,"ele":null,"operator":null,"wikipedia":null,"wikidata":null,"description":null,"wheelchair":null,"osmType":"way","osmId":280995622}},{"type":"Feature","geometry":{"type":"Point","coordinates":[132.89655,33.72127]},"properties":{"name":"竜神平小屋","country":"Japan","website":null,"opening_hours":null,"capacity":null,"phone":null,"address":null,"ele":null,"operator":null,"wikipedia":null,"wikidata":null,"description":null,"wheelchair":null,"osmType":"way","osmId":290632661}},{"type":"Feature","geometry":{"type":"Point","coordinates":[138.74452,35.37894]},"properties":{"name":"花小屋","country":"Japan","website":"http://www2.tbb.t-com.ne.jp/hanagoya/index.html","opening_hours":null,"capacity":null,"phone":null,"address":null,"ele":"2700","operator":null,"wikipedia":null,"wikidata":null,"description":null,"wheelchair":null,"osmType":"way","osmId":298973133,"elevation":"2700"}},{"type":"Feature","geometry":{"type":"Point","coordinates":[138.74398,35.37831]},"properties":{"name":"七合目トモエ館","country":"Japan","website":"https://tomoekan.com/","opening_hours":null,"capacity":null,"phone":null,"address":null,"ele":"2740","operator":null,"wikipedia":null,"wikidata":null,"description":null,"wheelchair":null,"osmType":"way","osmId":298973135,"elevation":"2740"}},{"type":"Feature","geometry":{"type":"Point","coordinates":[138.73964,35.37154]},"properties":{"name":"白雲荘","country":"Japan","website":"http://fujisan-hakuun.com/ja/","opening_hours":null,"capacity":null,"phone":null,"address":null,"ele":"3200","operator":null,"wikipedia":null,"wikidata":null,"description":null,"wheelchair":null,"osmType":"way","osmId":298977118,"elevation":"3200"}},{"type":"Feature","geometry":{"type":"Point","coordinates":[138.7433,35.37739]},"properties":{"name":"富士一館","country":"Japan","website":"https://www.mfi.or.jp/fujiichikan/","opening_hours":null,"capacity":null,"phone":null,"address":null,"ele":"2800","operator":null,"wikipedia":null,"wikidata":null,"description":null,"wheelchair":null,"osmType":"way","osmId":298977119,"elevation":"2800"}},{"type":"Feature","geometry":{"type":"Point","coordinates":[138.7428,35.37665]},"properties":{"name":"鳥居荘","country":"Japan","website":"https://toriiso.com/","opening_hours":null,"capacity":null,"phone":null,"address":null,"ele":"2900","operator":null,"wikipedia":null,"wikidata":null,"description":null,"wheelchair":null,"osmType":"way","osmId":298977120,"elevation":"2900"}},{"type":"Feature","geometry":{"type":"Point","coordinates":[138.7429,35.37589]},"properties":{"name":"東洋館","country":"Japan","website":"https://www.fuji-toyokan.jp/","opening_hours":null,"capacity":null,"phone":null,"address":null,"ele":"3000","operator":null,"wikipedia":null,"wikidata":null,"description":null,"wheelchair":null,"osmType":"way","osmId":298977121,"elevation":"3000"}},{"type":"Feature","geometry":{"type":"Point","coordinates":[138.73739,35.3681]},"properties":{"name":"御来光館","country":"Japan","website":"https://www.goraikoukan.jp/","opening_hours":null,"capacity":null,"phone":"+81-555-73-8815","address":null,"ele":"3450","operator":null,"wikipedia":null,"wikidata":null,"description":null,"wheelchair":null,"osmType":"way","osmId":300186476,"elevation":"3450"}},{"type":"Feature","geometry":{"type":"Point","coordinates":[138.7388,35.36908]},"properties":{"name":"本八合目トモエ館","country":"Japan","website":"https://www.mfi.or.jp/tomoekan/","opening_hours":null,"capacity":null,"phone":null,"address":null,"ele":"3400","operator":null,"wikipedia":null,"wikidata":null,"description":null,"wheelchair":null,"osmType":"way","osmId":300186480,"elevation":"3400"}},{"type":"Feature","geometry":{"type":"Point","coordinates":[138.73895,35.36883]},"properties":{"name":"胸突江戸屋","country":"Japan","website":"https://fujisan-edoya.com/","opening_hours":null,"capacity":null,"phone":null,"address":null,"ele":"3400","operator":null,"wikipedia":null,"wikidata":null,"description":null,"wheelchair":null,"osmType":"way","osmId":300186481,"elevation":"3400"}},{"type":"Feature","geometry":{"type":"Point","coordinates":[138.73897,35.36931]},"properties":{"name":"本八合目 富士山ホテル 第1","country":"Japan","website":"https://www.fujisanhotel.com/","opening_hours":null,"capacity":null,"phone":null,"address":null,"ele":"3400","operator":null,"wikipedia":null,"wikidata":null,"description":null,"wheelchair":null,"osmType":"way","osmId":300186485,"elevation":"3400"}},{"type":"Feature","geometry":{"type":"Point","coordinates":[138.73895,35.36915]},"properties":{"name":"本八合目 富士山ホテル 第2","country":"Japan","website":"https://www.fujisanhotel.com/","opening_hours":null,"capacity":null,"phone":null,"address":null,"ele":"3400","operator":null,"wikipedia":null,"wikidata":null,"description":null,"wheelchair":null,"osmType":"way","osmId":300186486,"elevation":"3400"}},{"type":"Feature","geometry":{"type":"Point","coordinates":[138.50037,36.83415]},"properties":{"name":"カヤの平高原ロッヂ","country":"Japan","website":"http://kayanotaira.kijimadaira-kanko.jp/camp.html","opening_hours":null,"capacity":null,"phone":null,"address":null,"ele":null,"operator":null,"wikipedia":null,"wikidata":null,"description":null,"wheelchair":null,"osmType":"way","osmId":303404852}},{"type":"Feature","geometry":{"type":"Point","coordinates":[137.48089,35.89932]},"properties":{"name":"二の池ヒュッテ","country":"Japan","website":null,"opening_hours":null,"capacity":null,"phone":null,"address":null,"ele":null,"operator":null,"wikipedia":null,"wikidata":null,"description":null,"wheelchair":null,"osmType":"way","osmId":305226515}},{"type":"Feature","geometry":{"type":"Point","coordinates":[137.48779,35.89505]},"properties":{"name":"山荘石室","country":"Japan","website":null,"opening_hours":null,"capacity":null,"phone":null,"address":null,"ele":null,"operator":null,"wikipedia":null,"wikidata":null,"description":null,"wheelchair":null,"osmType":"way","osmId":305226519}},{"type":"Feature","geometry":{"type":"Point","coordinates":[137.48209,35.89797]},"properties":{"name":"二の池新館","country":"Japan","website":null,"opening_hours":null,"capacity":null,"phone":null,"address":null,"ele":null,"operator":null,"wikipedia":null,"wikidata":null,"description":null,"wheelchair":null,"osmType":"way","osmId":305226520}},{"type":"Feature","geometry":{"type":"Point","coordinates":[137.48266,35.88847]},"properties":{"name":"王滝頂上山荘","country":"Japan","website":null,"opening_hours":null,"capacity":null,"phone":null,"address":null,"ele":null,"operator":null,"wikipedia":null,"wikidata":null,"description":null,"wheelchair":null,"osmType":"way","osmId":305231217}},{"type":"Feature","geometry":{"type":"Point","coordinates":[137.50911,35.89719]},"properties":{"name":"一ノ又行場山荘","country":"Japan","website":null,"opening_hours":null,"capacity":null,"phone":null,"address":null,"ele":null,"operator":null,"wikipedia":null,"wikidata":null,"description":null,"wheelchair":null,"osmType":"way","osmId":305489869}},{"type":"Feature","geometry":{"type":"Point","coordinates":[137.53683,35.90107]},"properties":{"name":"一の又小屋","country":"Japan","website":null,"opening_hours":null,"capacity":null,"phone":null,"address":null,"ele":null,"operator":null,"wikipedia":null,"wikidata":null,"description":null,"wheelchair":null,"osmType":"way","osmId":305489870}},{"type":"Feature","geometry":{"type":"Point","coordinates":[137.5126,35.89753]},"properties":{"name":"飯森小屋","country":"Japan","website":null,"opening_hours":null,"capacity":null,"phone":null,"address":null,"ele":null,"operator":null,"wikipedia":null,"wikidata":null,"description":null,"wheelchair":null,"osmType":"way","osmId":305489930}},{"type":"Feature","geometry":{"type":"Point","coordinates":[138.32214,36.08556]},"properties":{"name":"北横岳ヒュッテ","country":"Japan","website":"http://kitayoko.fine.to/","opening_hours":null,"capacity":null,"phone":"0266-72-8007","address":null,"ele":"2385.3","operator":null,"wikipedia":null,"wikidata":null,"description":null,"wheelchair":null,"osmType":"way","osmId":308363409,"elevation":"2385.3"}},{"type":"Feature","geometry":{"type":"Point","coordinates":[138.32977,36.08031]},"properties":{"name":"縞枯山荘","country":"Japan","website":null,"opening_hours":null,"capacity":null,"phone":null,"address":null,"ele":"2230","operator":null,"wikipedia":null,"wikidata":null,"description":null,"wheelchair":null,"osmType":"way","osmId":308363410,"elevation":"2230"}},{"type":"Feature","geometry":{"type":"Point","coordinates":[134.0962,33.85515]},"properties":{"name":"剣山頂上ヒュッテ","country":"Japan","website":"https://tsurugisan-hutte.com/","opening_hours":null,"capacity":null,"phone":"+81 88-622-0633（冬期：+81 883-56-0966）","address":"187 木屋平字川井, 777-0005 美馬市","ele":null,"operator":null,"wikipedia":null,"wikidata":null,"description":null,"wheelchair":null,"osmType":"way","osmId":312021462}},{"type":"Feature","geometry":{"type":"Point","coordinates":[134.09549,33.85541]},"properties":{"name":"雲海荘","country":"Japan","website":null,"opening_hours":null,"capacity":null,"phone":null,"address":null,"ele":null,"operator":null,"wikipedia":null,"wikidata":null,"description":null,"wheelchair":null,"osmType":"way","osmId":312021463}},{"type":"Feature","geometry":{"type":"Point","coordinates":[134.11088,33.85247]},"properties":{"name":"剣山一の森ヒュッテ","country":"Japan","website":null,"opening_hours":null,"capacity":null,"phone":"0883-53-5911","address":"571 木屋平字川上カケ, 777-0303 美馬市","ele":null,"operator":null,"wikipedia":null,"wikidata":null,"description":null,"wheelchair":null,"osmType":"way","osmId":312022679}},{"type":"Feature","geometry":{"type":"Point","coordinates":[134.11109,33.85238]},"properties":{"name":"剣山一の森ヒュッテ","country":"Japan","website":null,"opening_hours":null,"capacity":null,"phone":null,"address":null,"ele":null,"operator":null,"wikipedia":null,"wikidata":null,"description":null,"wheelchair":null,"osmType":"way","osmId":312022680}},{"type":"Feature","geometry":{"type":"Point","coordinates":[134.15857,34.09884]},"properties":{"name":"交流促進宿泊施設・美村が丘","country":"Japan","website":"https://www.chidori.co.jp/mimura/","opening_hours":null,"capacity":null,"phone":"0883-52-5650","address":"18 脇町字東大谷, 779-3638 美馬市","ele":null,"operator":null,"wikipedia":null,"wikidata":null,"description":null,"wheelchair":null,"osmType":"way","osmId":312024397}},{"type":"Feature","geometry":{"type":"Point","coordinates":[134.15793,34.09721]},"properties":{"name":"交流促進宿泊施設・美村が丘","country":"Japan","website":null,"opening_hours":null,"capacity":null,"phone":null,"address":null,"ele":null,"operator":null,"wikipedia":null,"wikidata":null,"description":null,"wheelchair":null,"osmType":"way","osmId":312024398}},{"type":"Feature","geometry":{"type":"Point","coordinates":[134.15787,34.0971]},"properties":{"name":"交流促進宿泊施設・美村が丘","country":"Japan","website":null,"opening_hours":null,"capacity":null,"phone":null,"address":null,"ele":null,"operator":null,"wikipedia":null,"wikidata":null,"description":null,"wheelchair":null,"osmType":"way","osmId":312024399}},{"type":"Feature","geometry":{"type":"Point","coordinates":[134.15785,34.09696]},"properties":{"name":"交流促進宿泊施設・美村が丘","country":"Japan","website":null,"opening_hours":null,"capacity":null,"phone":null,"address":null,"ele":null,"operator":null,"wikipedia":null,"wikidata":null,"description":null,"wheelchair":null,"osmType":"way","osmId":312024400}},{"type":"Feature","geometry":{"type":"Point","coordinates":[134.15796,34.09692]},"properties":{"name":"交流促進宿泊施設・美村が丘","country":"Japan","website":null,"opening_hours":null,"capacity":null,"phone":null,"address":null,"ele":null,"operator":null,"wikipedia":null,"wikidata":null,"description":null,"wheelchair":null,"osmType":"way","osmId":312024401}},{"type":"Feature","geometry":{"type":"Point","coordinates":[134.15804,34.09703]},"properties":{"name":"交流促進宿泊施設・美村が丘","country":"Japan","website":null,"opening_hours":null,"capacity":null,"phone":null,"address":null,"ele":null,"operator":null,"wikipedia":null,"wikidata":null,"description":null,"wheelchair":null,"osmType":"way","osmId":312024402}},{"type":"Feature","geometry":{"type":"Point","coordinates":[137.79885,36.69712]},"properties":{"name":"八方池山荘","country":"Japan","website":null,"opening_hours":null,"capacity":null,"phone":null,"address":null,"ele":"1850","operator":"白馬村振興公社","wikipedia":null,"wikidata":null,"description":null,"wheelchair":null,"osmType":"way","osmId":312064753,"elevation":"1850"}},{"type":"Feature","geometry":{"type":"Point","coordinates":[133.96923,34.05894]},"properties":{"name":"健康とふれあいの森","country":"Japan","website":"https://www.miyoshinavi.jp/03asobu/detail.php?genr=102&area=3&uid=SS000007","opening_hours":null,"capacity":null,"phone":"0883-77-4320","address":"1342-3 三野町芝生, 771-2304 三好市","ele":null,"operator":null,"wikipedia":null,"wikidata":null,"description":null,"wheelchair":null,"osmType":"way","osmId":312153960}},{"type":"Feature","geometry":{"type":"Point","coordinates":[133.96901,34.05893]},"properties":{"name":"健康とふれあいの森","country":"Japan","website":null,"opening_hours":null,"capacity":null,"phone":null,"address":null,"ele":null,"operator":null,"wikipedia":null,"wikidata":null,"description":null,"wheelchair":null,"osmType":"way","osmId":312153961}},{"type":"Feature","geometry":{"type":"Point","coordinates":[133.96947,34.05901]},"properties":{"name":"健康とふれあいの森","country":"Japan","website":null,"opening_hours":null,"capacity":null,"phone":null,"address":null,"ele":null,"operator":null,"wikipedia":null,"wikidata":null,"description":null,"wheelchair":null,"osmType":"way","osmId":312153962}},{"type":"Feature","geometry":{"type":"Point","coordinates":[133.96963,34.05909]},"properties":{"name":"健康とふれあいの森","country":"Japan","website":null,"opening_hours":null,"capacity":null,"phone":null,"address":null,"ele":null,"operator":null,"wikipedia":null,"wikidata":null,"description":null,"wheelchair":null,"osmType":"way","osmId":312153963}},{"type":"Feature","geometry":{"type":"Point","coordinates":[133.96963,34.059]},"properties":{"name":"健康とふれあいの森","country":"Japan","website":null,"opening_hours":null,"capacity":null,"phone":null,"address":null,"ele":null,"operator":null,"wikipedia":null,"wikidata":null,"description":null,"wheelchair":null,"osmType":"way","osmId":312153964}},{"type":"Feature","geometry":{"type":"Point","coordinates":[133.96958,34.0588]},"properties":{"name":"健康とふれあいの森","country":"Japan","website":null,"opening_hours":null,"capacity":null,"phone":null,"address":null,"ele":null,"operator":null,"wikipedia":null,"wikidata":null,"description":null,"wheelchair":null,"osmType":"way","osmId":312153965}},{"type":"Feature","geometry":{"type":"Point","coordinates":[133.9697,34.0586]},"properties":{"name":"健康とふれあいの森","country":"Japan","website":null,"opening_hours":null,"capacity":null,"phone":null,"address":null,"ele":null,"operator":null,"wikipedia":null,"wikidata":null,"description":null,"wheelchair":null,"osmType":"way","osmId":312153966}},{"type":"Feature","geometry":{"type":"Point","coordinates":[133.9693,34.05881]},"properties":{"name":"健康とふれあいの森","country":"Japan","website":null,"opening_hours":null,"capacity":null,"phone":null,"address":null,"ele":null,"operator":null,"wikipedia":null,"wikidata":null,"description":null,"wheelchair":null,"osmType":"way","osmId":312153967}},{"type":"Feature","geometry":{"type":"Point","coordinates":[133.96922,34.05876]},"properties":{"name":"健康とふれあいの森","country":"Japan","website":null,"opening_hours":null,"capacity":null,"phone":null,"address":null,"ele":null,"operator":null,"wikipedia":null,"wikidata":null,"description":null,"wheelchair":null,"osmType":"way","osmId":312153968}},{"type":"Feature","geometry":{"type":"Point","coordinates":[133.96946,34.05856]},"properties":{"name":"健康とふれあいの森","country":"Japan","website":null,"opening_hours":null,"capacity":null,"phone":null,"address":null,"ele":null,"operator":null,"wikipedia":null,"wikidata":null,"description":null,"wheelchair":null,"osmType":"way","osmId":312153969}},{"type":"Feature","geometry":{"type":"Point","coordinates":[133.96877,34.05895]},"properties":{"name":"健康とふれあいの森","country":"Japan","website":null,"opening_hours":null,"capacity":null,"phone":null,"address":null,"ele":null,"operator":null,"wikipedia":null,"wikidata":null,"description":null,"wheelchair":null,"osmType":"way","osmId":312153970}},{"type":"Feature","geometry":{"type":"Point","coordinates":[133.96855,34.05883]},"properties":{"name":"健康とふれあいの森","country":"Japan","website":null,"opening_hours":null,"capacity":null,"phone":null,"address":null,"ele":null,"operator":null,"wikipedia":null,"wikidata":null,"description":null,"wheelchair":null,"osmType":"way","osmId":312153971}},{"type":"Feature","geometry":{"type":"Point","coordinates":[133.96918,34.0587]},"properties":{"name":"健康とふれあいの森","country":"Japan","website":null,"opening_hours":null,"capacity":null,"phone":null,"address":null,"ele":null,"operator":null,"wikipedia":null,"wikidata":null,"description":null,"wheelchair":null,"osmType":"way","osmId":312153972}},{"type":"Feature","geometry":{"type":"Point","coordinates":[133.96855,34.05849]},"properties":{"name":"健康とふれあいの森","country":"Japan","website":null,"opening_hours":null,"capacity":null,"phone":null,"address":null,"ele":null,"operator":null,"wikipedia":null,"wikidata":null,"description":null,"wheelchair":null,"osmType":"way","osmId":312153973}},{"type":"Feature","geometry":{"type":"Point","coordinates":[133.96889,34.05865]},"properties":{"name":"健康とふれあいの森","country":"Japan","website":null,"opening_hours":null,"capacity":null,"phone":null,"address":null,"ele":null,"operator":null,"wikipedia":null,"wikidata":null,"description":null,"wheelchair":null,"osmType":"way","osmId":312153974}},{"type":"Feature","geometry":{"type":"Point","coordinates":[133.96858,34.05895]},"properties":{"name":"健康とふれあいの森","country":"Japan","website":null,"opening_hours":null,"capacity":null,"phone":null,"address":null,"ele":null,"operator":null,"wikipedia":null,"wikidata":null,"description":null,"wheelchair":null,"osmType":"way","osmId":312153975}},{"type":"Feature","geometry":{"type":"Point","coordinates":[134.23265,33.90457]},"properties":{"name":"ファガスの森 高城","country":"Japan","website":"https://shikibidani-onsen.com/fagus_top/fagus_home.html","opening_hours":null,"capacity":null,"phone":"0884-65-2116","address":"1-1 沢谷字釜ヶ谷, 771-6114 那賀町","ele":null,"operator":null,"wikipedia":null,"wikidata":null,"description":null,"wheelchair":null,"osmType":"way","osmId":313337355}},{"type":"Feature","geometry":{"type":"Point","coordinates":[134.15434,33.74418]},"properties":{"name":null,"country":"Japan","website":null,"opening_hours":null,"capacity":null,"phone":null,"address":null,"ele":null,"operator":null,"wikipedia":null,"wikidata":null,"description":null,"wheelchair":null,"osmType":"way","osmId":313343328}},{"type":"Feature","geometry":{"type":"Point","coordinates":[134.15432,33.74425]},"properties":{"name":null,"country":"Japan","website":null,"opening_hours":null,"capacity":null,"phone":null,"address":null,"ele":null,"operator":null,"wikipedia":null,"wikidata":null,"description":null,"wheelchair":null,"osmType":"way","osmId":313343329}},{"type":"Feature","geometry":{"type":"Point","coordinates":[134.15535,33.74489]},"properties":{"name":null,"country":"Japan","website":null,"opening_hours":null,"capacity":null,"phone":null,"address":null,"ele":null,"operator":null,"wikipedia":null,"wikidata":null,"description":null,"wheelchair":null,"osmType":"way","osmId":313343330}},{"type":"Feature","geometry":{"type":"Point","coordinates":[134.44793,33.79704]},"properties":{"name":null,"country":"Japan","website":null,"opening_hours":null,"capacity":null,"phone":null,"address":null,"ele":null,"operator":null,"wikipedia":null,"wikidata":null,"description":null,"wheelchair":null,"osmType":"way","osmId":313351446}},{"type":"Feature","geometry":{"type":"Point","coordinates":[134.44789,33.79693]},"properties":{"name":null,"country":"Japan","website":null,"opening_hours":null,"capacity":null,"phone":null,"address":null,"ele":null,"operator":null,"wikipedia":null,"wikidata":null,"description":null,"wheelchair":null,"osmType":"way","osmId":313351447}},{"type":"Feature","geometry":{"type":"Point","coordinates":[134.44774,33.79671]},"properties":{"name":null,"country":"Japan","website":null,"opening_hours":null,"capacity":null,"phone":null,"address":null,"ele":null,"operator":null,"wikipedia":null,"wikidata":null,"description":null,"wheelchair":null,"osmType":"way","osmId":313351448}},{"type":"Feature","geometry":{"type":"Point","coordinates":[134.44769,33.7966]},"properties":{"name":null,"country":"Japan","website":null,"opening_hours":null,"capacity":null,"phone":null,"address":null,"ele":null,"operator":null,"wikipedia":null,"wikidata":null,"description":null,"wheelchair":null,"osmType":"way","osmId":313351449}},{"type":"Feature","geometry":{"type":"Point","coordinates":[134.44787,33.79634]},"properties":{"name":null,"country":"Japan","website":null,"opening_hours":null,"capacity":null,"phone":null,"address":null,"ele":null,"operator":null,"wikipedia":null,"wikidata":null,"description":null,"wheelchair":null,"osmType":"way","osmId":313351450}},{"type":"Feature","geometry":{"type":"Point","coordinates":[134.44806,33.79632]},"properties":{"name":null,"country":"Japan","website":null,"opening_hours":null,"capacity":null,"phone":null,"address":null,"ele":null,"operator":null,"wikipedia":null,"wikidata":null,"description":null,"wheelchair":null,"osmType":"way","osmId":313351451}},{"type":"Feature","geometry":{"type":"Point","coordinates":[134.44823,33.79639]},"properties":{"name":null,"country":"Japan","website":null,"opening_hours":null,"capacity":null,"phone":null,"address":null,"ele":null,"operator":null,"wikipedia":null,"wikidata":null,"description":null,"wheelchair":null,"osmType":"way","osmId":313351452}},{"type":"Feature","geometry":{"type":"Point","coordinates":[134.44808,33.7962]},"properties":{"name":null,"country":"Japan","website":null,"opening_hours":null,"capacity":null,"phone":null,"address":null,"ele":null,"operator":null,"wikipedia":null,"wikidata":null,"description":null,"wheelchair":null,"osmType":"way","osmId":313351453}},{"type":"Feature","geometry":{"type":"Point","coordinates":[134.44802,33.79604]},"properties":{"name":null,"country":"Japan","website":null,"opening_hours":null,"capacity":null,"phone":null,"address":null,"ele":null,"operator":null,"wikipedia":null,"wikidata":null,"description":null,"wheelchair":null,"osmType":"way","osmId":313351454}},{"type":"Feature","geometry":{"type":"Point","coordinates":[134.44822,33.79603]},"properties":{"name":null,"country":"Japan","website":null,"opening_hours":null,"capacity":null,"phone":null,"address":null,"ele":null,"operator":null,"wikipedia":null,"wikidata":null,"description":null,"wheelchair":null,"osmType":"way","osmId":313351455}},{"type":"Feature","geometry":{"type":"Point","coordinates":[134.44825,33.79586]},"properties":{"name":null,"country":"Japan","website":null,"opening_hours":null,"capacity":null,"phone":null,"address":null,"ele":null,"operator":null,"wikipedia":null,"wikidata":null,"description":null,"wheelchair":null,"osmType":"way","osmId":313351456}},{"type":"Feature","geometry":{"type":"Point","coordinates":[134.44875,33.79579]},"properties":{"name":null,"country":"Japan","website":null,"opening_hours":null,"capacity":null,"phone":null,"address":null,"ele":null,"operator":null,"wikipedia":null,"wikidata":null,"description":null,"wheelchair":null,"osmType":"way","osmId":313351457}},{"type":"Feature","geometry":{"type":"Point","coordinates":[134.44928,33.79589]},"properties":{"name":null,"country":"Japan","website":null,"opening_hours":null,"capacity":null,"phone":null,"address":null,"ele":null,"operator":null,"wikipedia":null,"wikidata":null,"description":null,"wheelchair":null,"osmType":"way","osmId":313351458}},{"type":"Feature","geometry":{"type":"Point","coordinates":[134.44919,33.79598]},"properties":{"name":null,"country":"Japan","website":null,"opening_hours":null,"capacity":null,"phone":null,"address":null,"ele":null,"operator":null,"wikipedia":null,"wikidata":null,"description":null,"wheelchair":null,"osmType":"way","osmId":313351459}},{"type":"Feature","geometry":{"type":"Point","coordinates":[134.44895,33.79612]},"properties":{"name":null,"country":"Japan","website":null,"opening_hours":null,"capacity":null,"phone":null,"address":null,"ele":null,"operator":null,"wikipedia":null,"wikidata":null,"description":null,"wheelchair":null,"osmType":"way","osmId":313351460}},{"type":"Feature","geometry":{"type":"Point","coordinates":[134.44894,33.79666]},"properties":{"name":null,"country":"Japan","website":null,"opening_hours":null,"capacity":null,"phone":null,"address":null,"ele":null,"operator":null,"wikipedia":null,"wikidata":null,"description":null,"wheelchair":null,"osmType":"way","osmId":313351461}},{"type":"Feature","geometry":{"type":"Point","coordinates":[134.44901,33.79695]},"properties":{"name":null,"country":"Japan","website":null,"opening_hours":null,"capacity":null,"phone":null,"address":null,"ele":null,"operator":null,"wikipedia":null,"wikidata":null,"description":null,"wheelchair":null,"osmType":"way","osmId":313351462}},{"type":"Feature","geometry":{"type":"Point","coordinates":[134.44899,33.79683]},"properties":{"name":null,"country":"Japan","website":null,"opening_hours":null,"capacity":null,"phone":null,"address":null,"ele":null,"operator":null,"wikipedia":null,"wikidata":null,"description":null,"wheelchair":null,"osmType":"way","osmId":313351463}},{"type":"Feature","geometry":{"type":"Point","coordinates":[133.89373,34.03602]},"properties":{"name":null,"country":"Japan","website":null,"opening_hours":null,"capacity":null,"phone":null,"address":null,"ele":null,"operator":null,"wikipedia":null,"wikidata":null,"description":null,"wheelchair":null,"osmType":"way","osmId":314353896}},{"type":"Feature","geometry":{"type":"Point","coordinates":[133.8938,34.03591]},"properties":{"name":null,"country":"Japan","website":null,"opening_hours":null,"capacity":null,"phone":null,"address":null,"ele":null,"operator":null,"wikipedia":null,"wikidata":null,"description":null,"wheelchair":null,"osmType":"way","osmId":314353897}},{"type":"Feature","geometry":{"type":"Point","coordinates":[133.89407,34.03579]},"properties":{"name":null,"country":"Japan","website":null,"opening_hours":null,"capacity":null,"phone":null,"address":null,"ele":null,"operator":null,"wikipedia":null,"wikidata":null,"description":null,"wheelchair":null,"osmType":"way","osmId":314353900}},{"type":"Feature","geometry":{"type":"Point","coordinates":[133.89414,34.0357]},"properties":{"name":null,"country":"Japan","website":null,"opening_hours":null,"capacity":null,"phone":null,"address":null,"ele":null,"operator":null,"wikipedia":null,"wikidata":null,"description":null,"wheelchair":null,"osmType":"way","osmId":314353901}},