{"type":"FeatureCollection","features":[{"type":"Feature","geometry":{"type":"Point","coordinates":[-157.92606,21.55535]},"properties":{"name":"Opaeula Cabin","country":"United States of America","website":null,"opening_hours":null,"capacity":null,"phone":null,"address":null,"ele":null,"osmType":"node","osmId":1489267952}},{"type":"Feature","geometry":{"type":"Point","coordinates":[-155.82098,19.99029]},"properties":{"name":"Cabin","country":"United States of America","website":null,"opening_hours":null,"capacity":null,"phone":null,"address":null,"ele":null,"osmType":"node","osmId":2207008154}},{"type":"Feature","geometry":{"type":"Point","coordinates":[-155.82047,19.99031]},"properties":{"name":"Cabin","country":"United States of America","website":null,"opening_hours":null,"capacity":null,"phone":null,"address":null,"ele":null,"osmType":"node","osmId":2207008155}},{"type":"Feature","geometry":{"type":"Point","coordinates":[-155.82074,19.99037]},"properties":{"name":"Cabin","country":"United States of America","website":null,"opening_hours":null,"capacity":null,"phone":null,"address":null,"ele":null,"osmType":"node","osmId":2207008156}},{"type":"Feature","geometry":{"type":"Point","coordinates":[-155.8213,19.99058]},"properties":{"name":"Cabin","country":"United States of America","website":null,"opening_hours":null,"capacity":null,"phone":null,"address":null,"ele":null,"osmType":"node","osmId":2207008157}},{"type":"Feature","geometry":{"type":"Point","coordinates":[-155.82153,19.99073]},"properties":{"name":"Cabin","country":"United States of America","website":null,"opening_hours":null,"capacity":null,"phone":null,"address":null,"ele":null,"osmType":"node","osmId":2207008158}},{"type":"Feature","geometry":{"type":"Point","coordinates":[-155.82118,19.99092]},"properties":{"name":"Cabin","country":"United States of America","website":null,"opening_hours":null,"capacity":null,"phone":null,"address":null,"ele":null,"osmType":"node","osmId":2207008159}},{"type":"Feature","geometry":{"type":"Point","coordinates":[-155.8214,19.99098]},"properties":{"name":"Cabin","country":"United States of America","website":null,"opening_hours":null,"capacity":null,"phone":null,"address":null,"ele":null,"osmType":"node","osmId":2207008160}},{"type":"Feature","geometry":{"type":"Point","coordinates":[-155.82093,19.99101]},"properties":{"name":"Cabin","country":"United States of America","website":null,"opening_hours":null,"capacity":null,"phone":null,"address":null,"ele":null,"osmType":"node","osmId":2207008161}},{"type":"Feature","geometry":{"type":"Point","coordinates":[-154.84144,59.97441]},"properties":{"name":"Newhalen Lodge","country":"United States of America","website":null,"opening_hours":null,"capacity":null,"phone":null,"address":null,"ele":null,"osmType":"way","osmId":1206226006}},{"type":"Feature","geometry":{"type":"Point","coordinates":[-154.82159,59.98191]},"properties":{"name":"Alaska's Valhalla Lodge","country":"United States of America","website":null,"opening_hours":null,"capacity":null,"phone":null,"address":null,"ele":null,"osmType":"way","osmId":1206226405}},{"type":"Feature","geometry":{"type":"Point","coordinates":[-122.03629,46.76014]},"properties":{"name":"Ashford Lodge","country":"United States of America","website":null,"opening_hours":null,"capacity":null,"phone":null,"address":null,"ele":null,"osmType":"node","osmId":857436236}},{"type":"Feature","geometry":{"type":"Point","coordinates":[-132.86643,56.72076]},"properties":{"name":null,"country":"United States of America","website":null,"opening_hours":null,"capacity":null,"phone":null,"address":null,"ele":null,"osmType":"node","osmId":1288757784}},{"type":"Feature","geometry":{"type":"Point","coordinates":[-132.87068,56.73963]},"properties":{"name":null,"country":"United States of America","website":null,"opening_hours":null,"capacity":null,"phone":null,"address":null,"ele":null,"osmType":"node","osmId":1288757788}},{"type":"Feature","geometry":{"type":"Point","coordinates":[-132.93832,56.78161]},"properties":{"name":"Ravens Roost","country":"United States of America","website":null,"opening_hours":null,"capacity":null,"phone":null,"address":null,"ele":null,"osmType":"node","osmId":1288791717}},{"type":"Feature","geometry":{"type":"Point","coordinates":[-122.19436,43.13245]},"properties":{"name":"Hemlock Butte Ski Cabin","country":"United States of America","website":null,"opening_hours":null,"capacity":null,"phone":null,"address":null,"ele":null,"osmType":"node","osmId":2123311719}},{"type":"Feature","geometry":{"type":"Point","coordinates":[-120.5684,48.97554]},"properties":{"name":"Pasayten Cabin","country":"United States of America","website":null,"opening_hours":null,"capacity":null,"phone":null,"address":null,"ele":null,"osmType":"node","osmId":3562312263}},{"type":"Feature","geometry":{"type":"Point","coordinates":[-121.83563,43.82854]},"properties":{"name":"Cultus Lake Lodge","country":"United States of America","website":null,"opening_hours":null,"capacity":null,"phone":null,"address":null,"ele":null,"osmType":"node","osmId":4295291590}},{"type":"Feature","geometry":{"type":"Point","coordinates":[-121.41625,47.42466]},"properties":{"name":"Webb's Lodge","country":"United States of America","website":null,"opening_hours":null,"capacity":null,"phone":null,"address":null,"ele":null,"osmType":"node","osmId":4424449489}},{"type":"Feature","geometry":{"type":"Point","coordinates":[-120.36096,35.34822]},"properties":{"name":"The Lodge at Oak Creek Ranch","country":"United States of America","website":null,"opening_hours":null,"capacity":null,"phone":null,"address":"93432","ele":null,"osmType":"node","osmId":4485963289}},{"type":"Feature","geometry":{"type":"Point","coordinates":[-121.74003,45.28772]},"properties":{"name":"Trillium Lake Basin Cabin","country":"United States of America","website":"https://trilliumlake.com/","opening_hours":null,"capacity":null,"phone":null,"address":"32798 East Mineral Creek Road, 97028","ele":null,"osmType":"node","osmId":5315730822}},{"type":"Feature","geometry":{"type":"Point","coordinates":[-122.07133,43.59238]},"properties":{"name":"Betchtel Shelter","country":"United States of America","website":null,"opening_hours":null,"capacity":null,"phone":null,"address":null,"ele":null,"osmType":"node","osmId":5840081378}},{"type":"Feature","geometry":{"type":"Point","coordinates":[-135.26837,59.44393]},"properties":{"name":"Upper Dewey Lake Cabin","country":"United States of America","website":null,"opening_hours":null,"capacity":null,"phone":null,"address":null,"ele":null,"osmType":"node","osmId":6743360010}},{"type":"Feature","geometry":{"type":"Point","coordinates":[-120.82218,39.01713]},"properties":{"name":"Mountain Shadows Resort","country":"United States of America","website":null,"opening_hours":null,"capacity":null,"phone":null,"address":null,"ele":null,"osmType":"node","osmId":10007184957}},{"type":"Feature","geometry":{"type":"Point","coordinates":[-120.65578,47.7368]},"properties":{"name":"Reindeer Lodge","country":"United States of America","website":null,"opening_hours":null,"capacity":null,"phone":null,"address":"21702 Colt Road, 98826 Leavenworth","ele":null,"osmType":"node","osmId":10536938011}},{"type":"Feature","geometry":{"type":"Point","coordinates":[-121.60342,47.81616]},"properties":{"name":"Mt. Index Cabin","country":"United States of America","website":null,"opening_hours":null,"capacity":null,"phone":null,"address":null,"ele":null,"osmType":"node","osmId":11196856237}},{"type":"Feature","geometry":{"type":"Point","coordinates":[-131.79767,55.91627]},"properties":{"name":"Yes Bay Lodge","country":"United States of America","website":null,"opening_hours":null,"capacity":null,"phone":null,"address":null,"ele":null,"osmType":"node","osmId":11276642934}},{"type":"Feature","geometry":{"type":"Point","coordinates":[-123.39574,42.65335]},"properties":{"name":"Sunny Valley Resort","country":"United States of America","website":null,"opening_hours":null,"capacity":null,"phone":"+1-702-468-6025","address":"1200 Leland Rd, 97497 Sunny Valley","ele":null,"osmType":"node","osmId":11298856579}},{"type":"Feature","geometry":{"type":"Point","coordinates":[-122.91313,41.99618]},"properties":{"name":"Donomore Cabin","country":"United States of America","website":null,"opening_hours":null,"capacity":null,"phone":null,"address":null,"ele":null,"osmType":"node","osmId":12007254169}},{"type":"Feature","geometry":{"type":"Point","coordinates":[-121.37264,40.2599]},"properties":{"name":"St. Bernard Lodge","country":"United States of America","website":"https://stbernardlodge.com","opening_hours":null,"capacity":null,"phone":"+1-530-258-3382","address":"44801 State Highway 36 East, 96061","ele":null,"osmType":"node","osmId":12037128269}},{"type":"Feature","geometry":{"type":"Point","coordinates":[-122.30856,41.32737]},"properties":{"name":"Basecamp Lodge","country":"United States of America","website":"https://www.basecampmtshasta.com/","opening_hours":null,"capacity":null,"phone":null,"address":"739 Ski Village Drive","ele":null,"osmType":"node","osmId":13140232601}},{"type":"Feature","geometry":{"type":"Point","coordinates":[-120.98128,46.88145]},"properties":{"name":"Rock Creek Chalet","country":"United States of America","website":null,"opening_hours":null,"capacity":null,"phone":null,"address":null,"ele":null,"osmType":"node","osmId":13196578102}},{"type":"Feature","geometry":{"type":"Point","coordinates":[-121.6613,43.99216]},"properties":{"name":"Sunrise Lodge","country":"United States of America","website":"https://www.mtbachelor.com/things-to-do/mountain-dining/sunrise-lodge","opening_hours":null,"capacity":null,"phone":"+1 541-382-1709","address":"Cascade Lakes Highway","ele":null,"osmType":"way","osmId":209711989}},{"type":"Feature","geometry":{"type":"Point","coordinates":[-121.32029,47.28033]},"properties":{"name":"Meany Lodge","country":"United States of America","website":"https://www.mountaineers.org/locations-lodges/meany-lodge","opening_hours":null,"capacity":null,"phone":null,"address":null,"ele":null,"osmType":"way","osmId":242003426}},{"type":"Feature","geometry":{"type":"Point","coordinates":[-121.65449,45.40403]},"properties":{"name":"Cloud Cap Inn","country":"United States of America","website":null,"opening_hours":null,"capacity":null,"phone":null,"address":null,"ele":"1793","osmType":"way","osmId":293136649,"elevation":"1793"}},{"type":"Feature","geometry":{"type":"Point","coordinates":[-121.77784,45.29281]},"properties":{"name":"Historic Warming Hut","country":"United States of America","website":null,"opening_hours":null,"capacity":null,"phone":null,"address":null,"ele":null,"osmType":"way","osmId":368567701}},{"type":"Feature","geometry":{"type":"Point","coordinates":[-121.96215,44.47839]},"properties":{"name":"Mountain View Snow Shelter","country":"United States of America","website":null,"opening_hours":null,"capacity":null,"phone":null,"address":null,"ele":null,"osmType":"way","osmId":389414266}},{"type":"Feature","geometry":{"type":"Point","coordinates":[-121.95282,44.45746]},"properties":{"name":"South Snow Shelter","country":"United States of America","website":null,"opening_hours":null,"capacity":null,"phone":null,"address":null,"ele":null,"osmType":"way","osmId":389418055}},{"type":"Feature","geometry":{"type":"Point","coordinates":[-122.08575,45.58043]},"properties":{"name":"Nesika Lodge","country":"United States of America","website":null,"opening_hours":null,"capacity":null,"phone":null,"address":null,"ele":"512","osmType":"way","osmId":546628631,"elevation":"512"}},{"type":"Feature","geometry":{"type":"Point","coordinates":[-121.73976,45.3039]},"properties":{"name":"Mazama Lodge","country":"United States of America","website":null,"opening_hours":null,"capacity":null,"phone":null,"address":null,"ele":null,"osmType":"way","osmId":548667977}},{"type":"Feature","geometry":{"type":"Point","coordinates":[-121.70949,45.3446]},"properties":{"name":"Silcox Hut","country":"United States of America","website":null,"opening_hours":null,"capacity":null,"phone":null,"address":null,"ele":null,"osmType":"way","osmId":548667995}},{"type":"Feature","geometry":{"type":"Point","coordinates":[-133.18745,56.54823]},"properties":{"name":"Kah Sheets Lake Cabin","country":"United States of America","website":null,"opening_hours":null,"capacity":null,"phone":null,"address":null,"ele":null,"osmType":"way","osmId":563190340}},{"type":"Feature","geometry":{"type":"Point","coordinates":[-121.6772,45.30106]},"properties":{"name":"Aubrey Watzek Lodge","country":"United States of America","website":null,"opening_hours":null,"capacity":null,"phone":null,"address":null,"ele":null,"osmType":"way","osmId":679040530}},{"type":"Feature","geometry":{"type":"Point","coordinates":[-121.17277,46.97306]},"properties":{"name":"American Ridge Lodge","country":"United States of America","website":"https://www.fs.usda.gov/r06/okanogan-wenatchee/recreation/american-ridge-lodge","opening_hours":null,"capacity":null,"phone":null,"address":null,"ele":null,"osmType":"way","osmId":729455104}},{"type":"Feature","geometry":{"type":"Point","coordinates":[-120.27367,39.28788]},"properties":{"name":"Lost Trail Lodge","country":"United States of America","website":null,"opening_hours":null,"capacity":null,"phone":null,"address":null,"ele":null,"osmType":"way","osmId":786397917}},{"type":"Feature","geometry":{"type":"Point","coordinates":[-120.06733,38.86393]},"properties":{"name":"Angora Lakes Resort","country":"United States of America","website":null,"opening_hours":null,"capacity":null,"phone":null,"address":null,"ele":null,"osmType":"way","osmId":905267274}},{"type":"Feature","geometry":{"type":"Point","coordinates":[-122.17638,41.34718]},"properties":{"name":"Mt. Shasta Ski Park Beyond the Boundaries Backcountry Cabin","country":"United States of America","website":"https://www.skipark.com/winter/backcountry-cabins","opening_hours":null,"capacity":null,"phone":null,"address":null,"ele":null,"osmType":"way","osmId":911068164}},{"type":"Feature","geometry":{"type":"Point","coordinates":[-122.9386,41.07125]},"properties":{"name":"Trinity Mountain Meadow Resort Lodge","country":"United States of America","website":null,"opening_hours":null,"capacity":null,"phone":null,"address":null,"ele":null,"osmType":"way","osmId":979388153}},{"type":"Feature","geometry":{"type":"Point","coordinates":[-121.7371,45.30687]},"properties":{"name":"Tyee Lodge","country":"United States of America","website":null,"opening_hours":null,"capacity":null,"phone":null,"address":null,"ele":null,"osmType":"way","osmId":1120886664}},{"type":"Feature","geometry":{"type":"Point","coordinates":[-120.29411,42.23687]},"properties":{"name":null,"country":"United States of America","website":null,"opening_hours":null,"capacity":null,"phone":null,"address":null,"ele":null,"osmType":"way","osmId":1151090253}},{"type":"Feature","geometry":{"type":"Point","coordinates":[-120.64376,42.28131]},"properties":{"name":"Camp Cottonwood","country":"United States of America","website":null,"opening_hours":null,"capacity":null,"phone":null,"address":null,"ele":null,"osmType":"way","osmId":1174001611}},{"type":"Feature","geometry":{"type":"Point","coordinates":[-120.32097,39.3702]},"properties":{"name":"Frog Lake Backcountry Huts","country":"United States of America","website":null,"opening_hours":null,"capacity":null,"phone":null,"address":null,"ele":null,"osmType":"way","osmId":1309075149}},{"type":"Feature","geometry":{"type":"Point","coordinates":[-122.17628,41.34722]},"properties":{"name":"Mt. Shasta Ski Park Beyond the Boundaries Backcountry Cabin","country":"United States of America","website":"https://www.skipark.com/winter/backcountry-cabins","opening_hours":null,"capacity":null,"phone":null,"address":null,"ele":null,"osmType":"way","osmId":1346211319}},{"type":"Feature","geometry":{"type":"Point","coordinates":[-123.34864,41.27774]},"properties":{"name":null,"country":"United States of America","website":null,"opening_hours":null,"capacity":null,"phone":null,"address":"14026 Salmon River Road, 96031 Forks of Salmon","ele":null,"osmType":"way","osmId":1348907076}},{"type":"Feature","geometry":{"type":"Point","coordinates":[-123.34916,41.27801]},"properties":{"name":"Otter Bar Lodge","country":"United States of America","website":"https://www.otterbar.com/","opening_hours":null,"capacity":null,"phone":null,"address":"14026 Salmon River Road, 96031 Forks of Salmon","ele":null,"osmType":"way","osmId":1348907077}},{"type":"Feature","geometry":{"type":"Point","coordinates":[-120.64951,47.59873]},"properties":{"name":"Loge Riverside Cabins","country":"United States of America","website":null,"opening_hours":null,"capacity":null,"phone":"+1-509-209-8958","address":"11798 US-2, 98826 Leavenworth","ele":null,"osmType":"way","osmId":1411991933}},{"type":"Feature","geometry":{"type":"Point","coordinates":[-123.6321,39.74052]},"properties":{"name":"Wilderness Lodge","country":"United States of America","website":null,"opening_hours":null,"capacity":null,"phone":null,"address":null,"ele":null,"osmType":"way","osmId":1414496807}},{"type":"Feature","geometry":{"type":"Point","coordinates":[-123.6306,39.74095]},"properties":{"name":"Fox Creek Lodge","country":"United States of America","website":null,"opening_hours":null,"capacity":null,"phone":null,"address":null,"ele":null,"osmType":"way","osmId":1414496808}},{"type":"Feature","geometry":{"type":"Point","coordinates":[-120.64119,48.02095]},"properties":{"name":"Cottonwood Cabin","country":"United States of America","website":"https://www.fs.usda.gov/r06/okanogan-wenatchee/recreation/cottonwood-cabin","opening_hours":null,"capacity":null,"phone":null,"address":null,"ele":null,"osmType":"way","osmId":1483062050}},{"type":"Feature","geometry":{"type":"Point","coordinates":[-120.85443,47.10677]},"properties":{"name":"Taneum Cabin","country":"United States of America","website":"https://www.fs.usda.gov/r06/okanogan-wenatchee/recreation/taneum-cabin","opening_hours":null,"capacity":null,"phone":null,"address":null,"ele":null,"osmType":"way","osmId":1485514892}},{"type":"Feature","geometry":{"type":"Point","coordinates":[-106.29989,39.38315]},"properties":{"name":"Vance's Cabin","country":"United States of America","website":null,"opening_hours":null,"capacity":null,"phone":null,"address":null,"ele":null,"osmType":"node","osmId":595308813}},{"type":"Feature","geometry":{"type":"Point","coordinates":[-105.59272,39.87195]},"properties":{"name":null,"country":"United States of America","website":null,"opening_hours":null,"capacity":null,"phone":null,"address":null,"ele":null,"osmType":"node","osmId":1600726878}},{"type":"Feature","geometry":{"type":"Point","coordinates":[-106.07321,39.43854]},"properties":{"name":"Francie's Cabin","country":"United States of America","website":"https://www.huts.org/The_Huts/francies.php","opening_hours":null,"capacity":"20","phone":null,"address":null,"ele":null,"osmType":"node","osmId":1910569812,"elevation":"11,360 feet"}},{"type":"Feature","geometry":{"type":"Point","coordinates":[-94.73051,47.53693]},"properties":{"name":null,"country":"United States of America","website":null,"opening_hours":null,"capacity":null,"phone":null,"address":null,"ele":null,"osmType":"node","osmId":2141704204}},{"type":"Feature","geometry":{"type":"Point","coordinates":[-94.73034,47.53653]},"properties":{"name":null,"country":"United States of America","website":null,"opening_hours":null,"capacity":null,"phone":null,"address":null,"ele":null,"osmType":"node","osmId":2141704210}},{"type":"Feature","geometry":{"type":"Point","coordinates":[-106.25846,38.44226]},"properties":{"name":null,"country":"United States of America","website":null,"opening_hours":null,"capacity":null,"phone":null,"address":null,"ele":null,"osmType":"node","osmId":2332624900}},{"type":"Feature","geometry":{"type":"Point","coordinates":[-111.87146,45.24068]},"properties":{"name":"Axolotl Cabin","country":"United States of America","website":"https://www.blm.gov/mt/st/en/fo/dillon_field_office/recreation/axolotlcabin.html","opening_hours":null,"capacity":null,"phone":null,"address":null,"ele":null,"osmType":"node","osmId":2958006153}},{"type":"Feature","geometry":{"type":"Point","coordinates":[-119.94648,38.95245]},"properties":{"name":"Adventure Lodge","country":"United States of America","website":null,"opening_hours":null,"capacity":null,"phone":null,"address":null,"ele":null,"osmType":"node","osmId":4104406101}},{"type":"Feature","geometry":{"type":"Point","coordinates":[-114.04632,48.38678]},"properties":{"name":"Timber Wolf Resort","country":"United States of America","website":null,"opening_hours":null,"capacity":null,"phone":null,"address":"9105 Old US Highway 2, 59919","ele":null,"osmType":"node","osmId":4270839789}},{"type":"Feature","geometry":{"type":"Point","coordinates":[-111.44957,44.47122]},"properties":{"name":"Bear Creek Inn","country":"United States of America","website":null,"opening_hours":null,"capacity":null,"phone":null,"address":null,"ele":null,"osmType":"node","osmId":4352138491}},{"type":"Feature","geometry":{"type":"Point","coordinates":[-110.69543,45.41206]},"properties":{"name":null,"country":"United States of America","website":null,"opening_hours":null,"capacity":null,"phone":null,"address":"5 Paradise Ranch Road, 59047","ele":null,"osmType":"node","osmId":4407624693}},{"type":"Feature","geometry":{"type":"Point","coordinates":[-90.96174,30.2328]},"properties":{"name":null,"country":"United States of America","website":null,"opening_hours":null,"capacity":null,"phone":null,"address":null,"ele":null,"osmType":"node","osmId":4779563521}},{"type":"Feature","geometry":{"type":"Point","coordinates":[-111.60271,43.69843]},"properties":{"name":"Warming Hut 33","country":"United States of America","website":null,"opening_hours":null,"capacity":null,"phone":null,"address":null,"ele":null,"osmType":"node","osmId":5045704665}},{"type":"Feature","geometry":{"type":"Point","coordinates":[-111.63742,37.03694]},"properties":{"name":"Amangiri","country":"United States of America","website":null,"opening_hours":null,"capacity":null,"phone":null,"address":null,"ele":null,"osmType":"node","osmId":5665322926}},{"type":"Feature","geometry":{"type":"Point","coordinates":[-109.89916,45.08086]},"properties":{"name":"Mount Zimmer Yurt","country":"United States of America","website":null,"opening_hours":null,"capacity":null,"phone":null,"address":null,"ele":null,"osmType":"node","osmId":5764585179}},{"type":"Feature","geometry":{"type":"Point","coordinates":[-109.27852,43.95213]},"properties":{"name":"The Rocky Mountains","country":"United States of America","website":null,"opening_hours":null,"capacity":null,"phone":null,"address":null,"ele":null,"osmType":"node","osmId":6482857786}},{"type":"Feature","geometry":{"type":"Point","coordinates":[-118.88118,37.23787]},"properties":{"name":"Muir Trail Ranch","country":"United States of America","website":"https://www.muirtrailranch.com/","opening_hours":"Mo-Su 08:00-17:00","capacity":null,"phone":"+1 209-966-3195","address":null,"ele":null,"osmType":"node","osmId":6636011693}},{"type":"Feature","geometry":{"type":"Point","coordinates":[-114.95362,44.10309]},"properties":{"name":"Bench Hut","country":"United States of America","website":null,"opening_hours":null,"capacity":null,"phone":null,"address":null,"ele":null,"osmType":"node","osmId":7117636942}},{"type":"Feature","geometry":{"type":"Point","coordinates":[-114.95406,44.1423]},"properties":{"name":"Fishhook Yurt","country":"United States of America","website":null,"opening_hours":null,"capacity":null,"phone":null,"address":null,"ele":null,"osmType":"node","osmId":7117636943}},{"type":"Feature","geometry":{"type":"Point","coordinates":[-100.72333,46.62693]},"properties":{"name":"Ski Lodge","country":"United States of America","website":null,"opening_hours":null,"capacity":null,"phone":null,"address":null,"ele":null,"osmType":"node","osmId":7900425111}},{"type":"Feature","geometry":{"type":"Point","coordinates":[-100.72363,46.62705]},"properties":{"name":"Ski Rentals","country":"United States of America","website":null,"opening_hours":null,"capacity":null,"phone":null,"address":null,"ele":null,"osmType":"node","osmId":7900425112}},{"type":"Feature","geometry":{"type":"Point","coordinates":[-108.06595,39.04299]},"properties":{"name":"Nordic Council Warming Hut","country":"United States of America","website":null,"opening_hours":null,"capacity":null,"phone":null,"address":null,"ele":null,"osmType":"node","osmId":8356405241}},{"type":"Feature","geometry":{"type":"Point","coordinates":[-113.97601,45.69773]},"properties":{"name":"Ridgeline Yurts","country":"United States of America","website":"https://wildernessriver.com","opening_hours":null,"capacity":null,"phone":null,"address":null,"ele":null,"osmType":"node","osmId":8403473674}},{"type":"Feature","geometry":{"type":"Point","coordinates":[-111.09233,36.58495]},"properties":{"name":"Navajoland","country":"United States of America","website":null,"opening_hours":null,"capacity":null,"phone":null,"address":null,"ele":null,"osmType":"node","osmId":9628404617}},{"type":"Feature","geometry":{"type":"Point","coordinates":[-111.25958,44.5516]},"properties":{"name":"Meadow Creek Lodge","country":"United States of America","website":null,"opening_hours":null,"capacity":null,"phone":null,"address":null,"ele":null,"osmType":"node","osmId":9908699118}},{"type":"Feature","geometry":{"type":"Point","coordinates":[-106.22523,39.2014]},"properties":{"name":"Leadville Backcountry Yurts","country":"United States of America","website":"http://www.leadvillebackcountry.com/","opening_hours":null,"capacity":null,"phone":null,"address":null,"ele":null,"osmType":"node","osmId":9986820285}},{"type":"Feature","geometry":{"type":"Point","coordinates":[-113.32375,47.0112]},"properties":{"name":"Cokalaiskit-Blackfoot River Retreat","country":"United States of America","website":null,"opening_hours":null,"capacity":null,"phone":"+1 406-640-4032","address":"48255 Sperry Grade Rd, Greenough","ele":null,"osmType":"node","osmId":10801963140}},{"type":"Feature","geometry":{"type":"Point","coordinates":[-106.27362,37.84567]},"properties":{"name":"Tin Can Camp","country":"United States of America","website":null,"opening_hours":null,"capacity":null,"phone":null,"address":"40064 County Road 41G, 81132 Del Norte","ele":null,"osmType":"node","osmId":11577965499}},{"type":"Feature","geometry":{"type":"Point","coordinates":[-95.68606,40.66765]},"properties":{"name":null,"country":"United States of America","website":null,"opening_hours":null,"capacity":null,"phone":null,"address":null,"ele":null,"osmType":"node","osmId":11841872206}},{"type":"Feature","geometry":{"type":"Point","coordinates":[-106.40599,39.63529]},"properties":{"name":"Eagle Point Resort","country":"United States of America","website":"http://www.eaglepointresort.net","opening_hours":"Mo-Su 08:00-22:00","capacity":null,"phone":null,"address":"1500 Matterhorn Circle, 81657","ele":null,"osmType":"node","osmId":12065986269}},{"type":"Feature","geometry":{"type":"Point","coordinates":[-112.29199,34.16121]},"properties":{"name":"Horsethief Cabin","country":"United States of America","website":"https://recreation.gov/camping/campsites/43404","opening_hours":null,"capacity":null,"phone":null,"address":"Horse Thief Road, 86343","ele":null,"osmType":"node","osmId":12101647401}},{"type":"Feature","geometry":{"type":"Point","coordinates":[-90.54109,39.00412]},"properties":{"name":"Camp Quatoga Dining Hall","country":"United States of America","website":null,"opening_hours":null,"capacity":null,"phone":null,"address":null,"ele":null,"osmType":"node","osmId":12495429492}},{"type":"Feature","geometry":{"type":"Point","coordinates":[-99.75488,32.33691]},"properties":{"name":"The DIG Lodge","country":"United States of America","website":null,"opening_hours":null,"capacity":null,"phone":null,"address":null,"ele":null,"osmType":"node","osmId":12742152175}},{"type":"Feature","geometry":{"type":"Point","coordinates":[-95.68475,40.66518]},"properties":{"name":null,"country":"United States of America","website":null,"opening_hours":null,"capacity":null,"phone":null,"address":null,"ele":null,"osmType":"node","osmId":13294231651}},{"type":"Feature","geometry":{"type":"Point","coordinates":[-105.0577,38.6876]},"properties":{"name":"Aspen Lakehouses","country":"United States of America","website":null,"opening_hours":null,"capacity":null,"phone":null,"address":"5132 County Road 861, 80813 Cripple Creek","ele":null,"osmType":"node","osmId":13637057409}},{"type":"Feature","geometry":{"type":"Point","coordinates":[-119.94038,38.93492]},"properties":{"name":"Heavenly California Lodge","country":"United States of America","website":"skiheavenly.com","opening_hours":null,"capacity":null,"phone":null,"address":"3860 Saddle Rd, 96150 South Lake Tahoe","ele":"2016","osmType":"way","osmId":38796500,"elevation":"2016"}},{"type":"Feature","geometry":{"type":"Point","coordinates":[-119.89119,38.9658]},"properties":{"name":"Heavenly Boulder Lodge","country":"United States of America","website":null,"opening_hours":null,"capacity":null,"phone":null,"address":"140 South Benjamin Drive, 89449 Stateline","ele":null,"osmType":"way","osmId":95752096}},{"type":"Feature","geometry":{"type":"Point","coordinates":[-119.86152,39.35111]},"properties":{"name":"Camp WeCheMe Lodge","country":"United States of America","website":null,"opening_hours":null,"capacity":null,"phone":null,"address":null,"ele":null,"osmType":"way","osmId":176856718}},{"type":"Feature","geometry":{"type":"Point","coordinates":[-119.88573,38.96111]},"properties":{"name":"Heavenly Stagecoach Lodge","country":"United States of America","website":null,"opening_hours":null,"capacity":null,"phone":null,"address":"375 Quaking Aspen Lane","ele":null,"osmType":"way","osmId":186155506}},{"type":"Feature","geometry":{"type":"Point","coordinates":[-97.18884,36.1709]},"properties":{"name":null,"country":"United States of America","website":null,"opening_hours":null,"capacity":null,"phone":null,"address":null,"ele":null,"osmType":"way","osmId":238014077}},{"type":"Feature","geometry":{"type":"Point","coordinates":[-114.35031,48.48063]},"properties":{"name":"Base Lodge","country":"United States of America","website":null,"opening_hours":null,"capacity":null,"phone":null,"address":"3808 Big Mountain Road, Whitefish","ele":null,"osmType":"way","osmId":251068461}},{"type":"Feature","geometry":{"type":"Point","coordinates":[-117.63868,34.28137]},"properties":{"name":"San Antonio Ski Hut","country":"United States of America","website":"https://angeles.sierraclub.org/san_antonio_ski_hut","opening_hours":null,"capacity":null,"phone":null,"address":null,"ele":null,"osmType":"way","osmId":285596296}},{"type":"Feature","geometry":{"type":"Point","coordinates":[-112.54713,36.58517]},"properties":{"name":"Jumpup Cabin","country":"United States of America","website":"https://www.recreation.gov/camping/campgrounds/251825","opening_hours":null,"capacity":null,"phone":null,"address":null,"ele":null,"osmType":"way","osmId":286524140}},{"type":"Feature","geometry":{"type":"Point","coordinates":[-110.95187,45.4784]},"properties":{"name":"Maxi Cabin","country":"United States of America","website":null,"opening_hours":null,"capacity":null,"phone":null,"address":null,"ele":null,"osmType":"way","osmId":335851970}},{"type":"Feature","geometry":{"type":"Point","coordinates":[-114.24196,46.10582]},"properties":{"name":"Lost Horse Lodge","country":"United States of America","website":null,"opening_hours":null,"capacity":null,"phone":null,"address":null,"ele":null,"osmType":"way","osmId":385361951}},{"type":"Feature","geometry":{"type":"Point","coordinates":[-105.89686,39.67313]},"properties":{"name":"Rock House Cabin","country":"United States of America","website":null,"opening_hours":null,"capacity":null,"phone":null,"address":null,"ele":null,"osmType":"way","osmId":406202599}},{"type":"Feature","geometry":{"type":"Point","coordinates":[-109.79174,44.45638]},"properties":{"name":"Absaroka Mountain Lodge","country":"United States of America","website":null,"opening_hours":null,"capacity":null,"phone":null,"address":null,"ele":null,"osmType":"way","osmId":427907723}},{"type":"Feature","geometry":{"type":"Point","coordinates":[-107.70837,37.88894]},"properties":{"name":"St. Paul Lodge and Hut","country":"United States of America","website":"https://stpaulhut.com","opening_hours":null,"capacity":null,"phone":null,"address":null,"ele":null,"osmType":"way","osmId":440940426}},{"type":"Feature","geometry":{"type":"Point","coordinates":[-105.55442,39.9317]},"properties":{"name":"Tennessee Mountain Cabin","country":"United States of America","website":null,"opening_hours":null,"capacity":null,"phone":null,"address":null,"ele":null,"osmType":"way","osmId":574221686}},{"type":"Feature","geometry":{"type":"Point","coordinates":[-119.85838,37.87601]},"properties":{"name":null,"country":"United States of America","website":null,"opening_hours":null,"capacity":null,"phone":null,"address":null,"ele":null,"osmType":"way","osmId":582638101}},{"type":"Feature","geometry":{"type":"Point","coordinates":[-109.35644,45.18001]},"properties":{"name":"Hancock Hut","country":"United States of America","website":null,"opening_hours":null,"capacity":null,"phone":null,"address":null,"ele":null,"osmType":"way","osmId":641442903}},{"type":"Feature","geometry":{"type":"Point","coordinates":[-111.24183,46.46465]},"properties":{"name":"Big Belt Hut","country":"United States of America","website":"https://bigbelthut.com","opening_hours":null,"capacity":null,"phone":"+1-406-848-4232","address":null,"ele":"2609","osmType":"way","osmId":704232232,"elevation":"2609"}},{"type":"Feature","geometry":{"type":"Point","coordinates":[-97.6467,32.38744]},"properties":{"name":"Horizon Lodge","country":"United States of America","website":null,"opening_hours":null,"capacity":null,"phone":null,"address":null,"ele":null,"osmType":"way","osmId":710290513}},{"type":"Feature","geometry":{"type":"Point","coordinates":[-97.64873,32.38803]},"properties":{"name":"Discovery Lodge","country":"United States of America","website":null,"opening_hours":null,"capacity":null,"phone":null,"address":null,"ele":null,"osmType":"way","osmId":710290709}},{"type":"Feature","geometry":{"type":"Point","coordinates":[-91.45927,47.14135]},"properties":{"name":"Lady Slipper Lodge","country":"United States of America","website":null,"opening_hours":null,"capacity":null,"phone":null,"address":null,"ele":null,"osmType":"way","osmId":710364993}},{"type":"Feature","geometry":{"type":"Point","coordinates":[-113.34556,47.1917]},"properties":{"name":"Alpine Yurt (YurtSki)","country":"United States of America","website":"https://yurtski.com","opening_hours":null,"capacity":"12","phone":"+14068484232","address":null,"ele":null,"osmType":"way","osmId":739670225}},{"type":"Feature","geometry":{"type":"Point","coordinates":[-113.34751,47.18293]},"properties":{"name":"Lupine Yurt (YurtSki)","country":"United States of America","website":"https://yurtski.com","opening_hours":null,"capacity":"8","phone":"+14068484232","address":null,"ele":null,"osmType":"way","osmId":739670226}},{"type":"Feature","geometry":{"type":"Point","coordinates":[-91.19643,47.38255]},"properties":{"name":"MAC Lodge","country":"United States of America","website":null,"opening_hours":null,"capacity":null,"phone":null,"address":null,"ele":null,"osmType":"way","osmId":931632145}},{"type":"Feature","geometry":{"type":"Point","coordinates":[-91.19436,47.38345]},"properties":{"name":"Summit Lodge","country":"United States of America","website":null,"opening_hours":null,"capacity":null,"phone":null,"address":null,"ele":null,"osmType":"way","osmId":931632152}},{"type":"Feature","geometry":{"type":"Point","coordinates":[-111.75685,41.92649]},"properties":{"name":"Cherry Peak Lodge","country":"United States of America","website":null,"opening_hours":null,"capacity":null,"phone":null,"address":"3200 East 11000 North, 84333 Richmond, US","ele":null,"osmType":"way","osmId":958222831}},{"type":"Feature","geometry":{"type":"Point","coordinates":[-111.51798,40.60423]},"properties":{"name":null,"country":"United States of America","website":null,"opening_hours":null,"capacity":null,"phone":null,"address":null,"ele":null,"osmType":"way","osmId":987605856}},{"type":"Feature","geometry":{"type":"Point","coordinates":[-110.95844,45.46234]},"properties":{"name":"Window Rock Cabin","country":"United States of America","website":null,"opening_hours":null,"capacity":null,"phone":null,"address":null,"ele":null,"osmType":"way","osmId":999808801}},{"type":"Feature","geometry":{"type":"Point","coordinates":[-112.98194,45.99838]},"properties":{"name":"Hut","country":"United States of America","website":null,"opening_hours":null,"capacity":null,"phone":null,"address":null,"ele":null,"osmType":"way","osmId":1036034892}},{"type":"Feature","geometry":{"type":"Point","coordinates":[-107.70629,37.90395]},"properties":{"name":"Red Mountain Alpine Lodge","country":"United States of America","website":"https://redmountainalpinelodge.com/","opening_hours":null,"capacity":null,"phone":null,"address":"2361 CR 31","ele":null,"osmType":"way","osmId":1043857770}},{"type":"Feature","geometry":{"type":"Point","coordinates":[-107.70069,37.89732]},"properties":{"name":null,"country":"United States of America","website":null,"opening_hours":null,"capacity":null,"phone":null,"address":null,"ele":null,"osmType":"way","osmId":1046338639}},{"type":"Feature","geometry":{"type":"Point","coordinates":[-107.70068,37.89723]},"properties":{"name":null,"country":"United States of America","website":null,"opening_hours":null,"capacity":null,"phone":null,"address":null,"ele":null,"osmType":"way","osmId":1046338640}},{"type":"Feature","geometry":{"type":"Point","coordinates":[-107.70704,37.89379]},"properties":{"name":null,"country":"United States of America","website":null,"opening_hours":null,"capacity":null,"phone":null,"address":null,"ele":null,"osmType":"way","osmId":1046366979}},{"type":"Feature","geometry":{"type":"Point","coordinates":[-107.70582,37.89402]},"properties":{"name":null,"country":"United States of America","website":null,"opening_hours":null,"capacity":null,"phone":null,"address":null,"ele":null,"osmType":"way","osmId":1046366980}},{"type":"Feature","geometry":{"type":"Point","coordinates":[-112.37432,46.80526]},"properties":{"name":null,"country":"United States of America","website":null,"opening_hours":null,"capacity":null,"phone":null,"address":null,"ele":null,"osmType":"way","osmId":1053168353}},{"type":"Feature","geometry":{"type":"Point","coordinates":[-112.37434,46.80513]},"properties":{"name":null,"country":"United States of America","website":null,"opening_hours":null,"capacity":null,"phone":null,"address":null,"ele":null,"osmType":"way","osmId":1053168354}},{"type":"Feature","geometry":{"type":"Point","coordinates":[-114.98471,47.23642]},"properties":{"name":"Sheep Mountain Lodge","country":"United States of America","website":null,"opening_hours":null,"capacity":null,"phone":null,"address":null,"ele":null,"osmType":"way","osmId":1086620992}},{"type":"Feature","geometry":{"type":"Point","coordinates":[-113.28595,47.92553]},"properties":{"name":"Silvertip Cabin","country":"United States of America","website":"https://www.fs.usda.gov/recarea/flathead/recarea/?recid=66816","opening_hours":null,"capacity":null,"phone":null,"address":null,"ele":null,"osmType":"way","osmId":1088242077}},{"type":"Feature","geometry":{"type":"Point","coordinates":[-110.99857,43.67397]},"properties":{"name":"Cabin 5","country":"United States of America","website":null,"opening_hours":null,"capacity":null,"phone":null,"address":null,"ele":null,"osmType":"way","osmId":1089799940}},{"type":"Feature","geometry":{"type":"Point","coordinates":[-110.99898,43.67391]},"properties":{"name":"Cabin 6","country":"United States of America","website":null,"opening_hours":null,"capacity":null,"phone":null,"address":null,"ele":null,"osmType":"way","osmId":1089799941}},{"type":"Feature","geometry":{"type":"Point","coordinates":[-110.9978,43.67398]},"properties":{"name":"Cabin 4","country":"United States of America","website":null,"opening_hours":null,"capacity":null,"phone":null,"address":null,"ele":null,"osmType":"way","osmId":1089799948}},{"type":"Feature","geometry":{"type":"Point","coordinates":[-110.99743,43.6741]},"properties":{"name":"Cabin 3","country":"United States of America","website":null,"opening_hours":null,"capacity":null,"phone":null,"address":null,"ele":null,"osmType":"way","osmId":1089799949}},{"type":"Feature","geometry":{"type":"Point","coordinates":[-110.99496,43.67472]},"properties":{"name":"Cabin 1","country":"United States of America","website":null,"opening_hours":null,"capacity":null,"phone":null,"address":null,"ele":null,"osmType":"way","osmId":1089799952}},{"type":"Feature","geometry":{"type":"Point","coordinates":[-110.99531,43.6746]},"properties":{"name":"Cabin 2","country":"United States of America","website":null,"opening_hours":null,"capacity":null,"phone":null,"address":null,"ele":null,"osmType":"way","osmId":1089799953}},{"type":"Feature","geometry":{"type":"Point","coordinates":[-110.99929,43.67387]},"properties":{"name":"Cabin 7","country":"United States of America","website":null,"opening_hours":null,"capacity":null,"phone":null,"address":null,"ele":null,"osmType":"way","osmId":1089799960}},{"type":"Feature","geometry":{"type":"Point","coordinates":[-111.3607,44.44478]},"properties":{"name":"The Pines At Island Park","country":"United States of America","website":"https://www.pinesislandpark.com/","opening_hours":null,"capacity":null,"phone":"+1-208-558-0192","address":"3907 Phillips Loop Road, 83429 Island Park","ele":null,"osmType":"way","osmId":1095655157}},{"type":"Feature","geometry":{"type":"Point","coordinates":[-113.99943,47.01431]},"properties":{"name":"Montana Snowbowl","country":"United States of America","website":null,"opening_hours":null,"capacity":null,"phone":null,"address":"1700 Snow Bowl Road, 59808 Missoula","ele":null,"osmType":"way","osmId":1119753288}},{"type":"Feature","geometry":{"type":"Point","coordinates":[-106.84411,38.66407]},"properties":{"name":"Three Rivers Resort & Outfitting","country":"United States of America","website":null,"opening_hours":null,"capacity":null,"phone":null,"address":"130 Taylor Canyon Road, 81210 Almont","ele":null,"osmType":"way","osmId":1127596530}},{"type":"Feature","geometry":{"type":"Point","coordinates":[-116.65979,47.06612]},"properties":{"name":"Palouse Divide Lodge","country":"United States of America","website":"https://www.myidaholodge.com/","opening_hours":null,"capacity":null,"phone":null,"address":null,"ele":null,"osmType":"way","osmId":1137377495}},{"type":"Feature","geometry":{"type":"Point","coordinates":[-115.24244,43.6068]},"properties":{"name":"Kokanee Creek Lodge","country":"United States of America","website":null,"opening_hours":null,"capacity":null,"phone":null,"address":"4240 North Kokanee Lane, 83647 Featherville","ele":null,"osmType":"way","osmId":1192787258}},{"type":"Feature","geometry":{"type":"Point","coordinates":[-114.53388,46.72489]},"properties":{"name":"Lolo Hot Springs","country":"United States of America","website":null,"opening_hours":null,"capacity":null,"phone":null,"address":"Lolo","ele":null,"osmType":"way","osmId":1214517484}},{"type":"Feature","geometry":{"type":"Point","coordinates":[-114.61933,48.6719]},"properties":{"name":null,"country":"United States of America","website":null,"opening_hours":null,"capacity":null,"phone":null,"address":null,"ele":null,"osmType":"way","osmId":1217359494}},{"type":"Feature","geometry":{"type":"Point","coordinates":[-114.5832,48.6711]},"properties":{"name":"Winter Wonderland Yurt","country":"United States of America","website":null,"opening_hours":null,"capacity":null,"phone":null,"address":null,"ele":null,"osmType":"way","osmId":1219410417}},{"type":"Feature","geometry":{"type":"Point","coordinates":[-106.59786,41.15006]},"properties":{"name":"Platt's Guides and Outfitters Rustic Mountain Lodge","country":"United States of America","website":null,"opening_hours":null,"capacity":null,"phone":null,"address":null,"ele":null,"osmType":"way","osmId":1236842697}},{"type":"Feature","geometry":{"type":"Point","coordinates":[-116.92816,32.97882]},"properties":{"name":"Vista Lodge","country":"United States of America","website":null,"opening_hours":null,"capacity":null,"phone":null,"address":null,"ele":null,"osmType":"way","osmId":1237399718}},{"type":"Feature","geometry":{"type":"Point","coordinates":[-115.32469,45.12719]},"properties":{"name":"Big Creek Lodge","country":"United States of America","website":null,"opening_hours":null,"capacity":null,"phone":null,"address":null,"ele":null,"osmType":"way","osmId":1311326599}},{"type":"Feature","geometry":{"type":"Point","coordinates":[-115.35261,47.05692]},"properties":{"name":"Red Ives Cabin","country":"United States of America","website":null,"opening_hours":null,"capacity":null,"phone":null,"address":null,"ele":null,"osmType":"way","osmId":1314984305}},{"type":"Feature","geometry":{"type":"Point","coordinates":[-92.18802,47.04051]},"properties":{"name":"Wolfski's Ski Den","country":"United States of America","website":null,"opening_hours":null,"capacity":null,"phone":null,"address":null,"ele":null,"osmType":"way","osmId":1315595554}},{"type":"Feature","geometry":{"type":"Point","coordinates":[-116.74799,47.35484]},"properties":{"name":null,"country":"United States of America","website":null,"opening_hours":null,"capacity":null,"phone":null,"address":null,"ele":null,"osmType":"way","osmId":1333584433}},{"type":"Feature","geometry":{"type":"Point","coordinates":[-116.12179,44.91405]},"properties":{"name":"The Clubhouse","country":"United States of America","website":null,"opening_hours":null,"capacity":null,"phone":null,"address":null,"ele":null,"osmType":"way","osmId":1344345373}},{"type":"Feature","geometry":{"type":"Point","coordinates":[-114.2716,48.35007]},"properties":{"name":"The Barn","country":"United States of America","website":null,"opening_hours":null,"capacity":null,"phone":null,"address":null,"ele":null,"osmType":"way","osmId":1349017050}},{"type":"Feature","geometry":{"type":"Point","coordinates":[-92.28435,46.6516]},"properties":{"name":"Mont Du Lac Base Lodge","country":"United States of America","website":null,"opening_hours":null,"capacity":null,"phone":null,"address":null,"ele":null,"osmType":"way","osmId":1364127647}},{"type":"Feature","geometry":{"type":"Point","coordinates":[-92.28507,46.64791]},"properties":{"name":"Trophy Lodge","country":"United States of America","website":null,"opening_hours":null,"capacity":null,"phone":null,"address":null,"ele":null,"osmType":"way","osmId":1364134677}},{"type":"Feature","geometry":{"type":"Point","coordinates":[-92.28352,46.6543]},"properties":{"name":"Mountain Lodge","country":"United States of America","website":null,"opening_hours":null,"capacity":null,"phone":null,"address":null,"ele":null,"osmType":"way","osmId":1364134689}},{"type":"Feature","geometry":{"type":"Point","coordinates":[-106.55037,39.58261]},"properties":{"name":"Eaton Haus","country":"United States of America","website":null,"opening_hours":null,"capacity":null,"phone":null,"address":null,"ele":null,"osmType":"way","osmId":1370761758}},{"type":"Feature","geometry":{"type":"Point","coordinates":[-116.60936,48.44121]},"properties":{"name":null,"country":"United States of America","website":null,"opening_hours":null,"capacity":null,"phone":null,"address":null,"ele":null,"osmType":"way","osmId":1383665328}},{"type":"Feature","geometry":{"type":"Point","coordinates":[-117.60321,48.1095]},"properties":{"name":"Bayview Lodge","country":"United States of America","website":null,"opening_hours":null,"capacity":null,"phone":"+1-509-233-0299","address":"3806 North Deer Lake Road, 99148 Loon Lake","ele":null,"osmType":"way","osmId":1427644754}},{"type":"Feature","geometry":{"type":"Point","coordinates":[-111.03312,43.19492]},"properties":{"name":null,"country":"United States of America","website":null,"opening_hours":null,"capacity":null,"phone":null,"address":null,"ele":null,"osmType":"way","osmId":1443438669}},{"type":"Feature","geometry":{"type":"Point","coordinates":[-111.03292,43.19478]},"properties":{"name":null,"country":"United States of America","website":null,"opening_hours":null,"capacity":null,"phone":null,"address":null,"ele":null,"osmType":"way","osmId":1443438670}},{"type":"Feature","geometry":{"type":"Point","coordinates":[-111.03308,43.19525]},"properties":{"name":null,"country":"United States of America","website":null,"opening_hours":null,"capacity":null,"phone":null,"address":null,"ele":null,"osmType":"way","osmId":1443438671}},{"type":"Feature","geometry":{"type":"Point","coordinates":[-111.03338,43.1955]},"properties":{"name":null,"country":"United States of America","website":null,"opening_hours":null,"capacity":null,"phone":null,"address":null,"ele":null,"osmType":"way","osmId":1443438672}},{"type":"Feature","geometry":{"type":"Point","coordinates":[-111.0331,43.19558]},"properties":{"name":null,"country":"United States of America","website":null,"opening_hours":null,"capacity":null,"phone":null,"address":null,"ele":null,"osmType":"way","osmId":1443438673}},{"type":"Feature","geometry":{"type":"Point","coordinates":[-111.03299,43.1951]},"properties":{"name":null,"country":"United States of America","website":null,"opening_hours":null,"capacity":null,"phone":null,"address":null,"ele":null,"osmType":"way","osmId":1443438674}},{"type":"Feature","geometry":{"type":"Point","coordinates":[-111.03284,43.19497]},"properties":{"name":null,"country":"United States of America","website":null,"opening_hours":null,"capacity":null,"phone":null,"address":null,"ele":null,"osmType":"way","osmId":1443438675}},{"type":"Feature","geometry":{"type":"Point","coordinates":[-111.03303,43.19573]},"properties":{"name":null,"country":"United States of America","website":null,"opening_hours":null,"capacity":null,"phone":null,"address":null,"ele":null,"osmType":"way","osmId":1443438676}},{"type":"Feature","geometry":{"type":"Point","coordinates":[-111.03267,43.1947]},"properties":{"name":null,"country":"United States of America","website":null,"opening_hours":null,"capacity":null,"phone":null,"address":null,"ele":null,"osmType":"way","osmId":1443438677}},{"type":"Feature","geometry":{"type":"Point","coordinates":[-111.03328,43.1951]},"properties":{"name":null,"country":"United States of America","website":null,"opening_hours":null,"capacity":null,"phone":null,"address":null,"ele":null,"osmType":"way","osmId":1443438679}},{"type":"Feature","geometry":{"type":"Point","coordinates":[-111.03315,43.19474]},"properties":{"name":null,"country":"United States of America","website":null,"opening_hours":null,"capacity":null,"phone":null,"address":null,"ele":null,"osmType":"way","osmId":1443438680}},{"type":"Feature","geometry":{"type":"Point","coordinates":[-111.03312,43.19541]},"properties":{"name":null,"country":"United States of America","website":null,"opening_hours":null,"capacity":null,"phone":null,"address":null,"ele":null,"osmType":"way","osmId":1443438681}},{"type":"Feature","geometry":{"type":"Point","coordinates":[-111.03336,43.1953]},"properties":{"name":null,"country":"United States of America","website":null,"opening_hours":null,"capacity":null,"phone":null,"address":null,"ele":null,"osmType":"way","osmId":1443438682}},{"type":"Feature","geometry":{"type":"Point","coordinates":[-111.02986,43.1962]},"properties":{"name":null,"country":"United States of America","website":null,"opening_hours":null,"capacity":null,"phone":null,"address":null,"ele":null,"osmType":"way","osmId":1443500045}},{"type":"Feature","geometry":{"type":"Point","coordinates":[-111.03018,43.19619]},"properties":{"name":null,"country":"United States of America","website":null,"opening_hours":null,"capacity":null,"phone":null,"address":null,"ele":null,"osmType":"way","osmId":1443500047}},{"type":"Feature","geometry":{"type":"Point","coordinates":[-111.03045,43.19652]},"properties":{"name":null,"country":"United States of America","website":null,"opening_hours":null,"capacity":null,"phone":null,"address":null,"ele":null,"osmType":"way","osmId":1443500048}},{"type":"Feature","geometry":{"type":"Point","coordinates":[-111.02985,43.19638]},"properties":{"name":null,"country":"United States of America","website":null,"opening_hours":null,"capacity":null,"phone":null,"address":null,"ele":null,"osmType":"way","osmId":1443500049}},{"type":"Feature","geometry":{"type":"Point","coordinates":[-111.03002,43.19646]},"properties":{"name":null,"country":"United States of America","website":null,"opening_hours":null,"capacity":null,"phone":null,"address":null,"ele":null,"osmType":"way","osmId":1443500050}},{"type":"Feature","geometry":{"type":"Point","coordinates":[-111.03066,43.19653]},"properties":{"name":null,"country":"United States of America","website":null,"opening_hours":null,"capacity":null,"phone":null,"address":null,"ele":null,"osmType":"way","osmId":1443500052}},{"type":"Feature","geometry":{"type":"Point","coordinates":[-111.03069,43.19626]},"properties":{"name":null,"country":"United States of America","website":null,"opening_hours":null,"capacity":null,"phone":null,"address":null,"ele":null,"osmType":"way","osmId":1443500053}},{"type":"Feature","geometry":{"type":"Point","coordinates":[-111.03023,43.19649]},"properties":{"name":null,"country":"United States of America","website":null,"opening_hours":null,"capacity":null,"phone":null,"address":null,"ele":null,"osmType":"way","osmId":1443500055}},{"type":"Feature","geometry":{"type":"Point","coordinates":[-105.58139,39.93599]},"properties":{"name":"Caribou Lodge","country":"United States of America","website":null,"opening_hours":null,"capacity":null,"phone":null,"address":"2861 Eldora Ski Rd, 80466 Nederland","ele":null,"osmType":"way","osmId":1454941290}},{"type":"Feature","geometry":{"type":"Point","coordinates":[-111.30004,43.56074]},"properties":{"name":null,"country":"United States of America","website":null,"opening_hours":null,"capacity":null,"phone":null,"address":null,"ele":null,"osmType":"way","osmId":1478690566}},{"type":"Feature","geometry":{"type":"Point","coordinates":[-111.74051,45.34197]},"properties":{"name":"Lure Me Inn","country":"United States of America","website":"https://www.luremeinn.com/","opening_hours":null,"capacity":null,"phone":"+1-406-682-7100","address":"701 Bauer Lane, 59729 Ennis","ele":null,"osmType":"way","osmId":1479807810}},{"type":"Feature","geometry":{"type":"Point","coordinates":[-113.982,44.80416]},"properties":{"name":null,"country":"United States of America","website":null,"opening_hours":null,"capacity":null,"phone":null,"address":"56 Burden Lane, Salmon","ele":null,"osmType":"way","osmId":1492435902}},{"type":"Feature","geometry":{"type":"Point","coordinates":[-116.65687,46.94099]},"properties":{"name":"Lodge & Trading Post","country":"United States of America","website":null,"opening_hours":null,"capacity":null,"phone":null,"address":null,"ele":null,"osmType":"way","osmId":1499958070}},{"type":"Feature","geometry":{"type":"Point","coordinates":[-71.1954,44.25929]},"properties":{"name":"Carter Notch Hut","country":"United States of America","website":null,"opening_hours":null,"capacity":"30","phone":null,"address":null,"ele":"1002","osmType":"node","osmId":419229509,"elevation":"1002"}},{"type":"Feature","geometry":{"type":"Point","coordinates":[-83.8234,42.36345]},"properties":{"name":"Eagle's Nest Scout Cabin Troop 477","country":"United States of America","website":null,"opening_hours":null,"capacity":null,"phone":null,"address":null,"ele":null,"osmType":"node","osmId":1041253971}},{"type":"Feature","geometry":{"type":"Point","coordinates":[-83.44138,35.6548]},"properties":{"name":"LeConte Lodge","country":"United States of America","website":"https://www.lecontelodge.com/","opening_hours":null,"capacity":null,"phone":"+1-865-429-5704","address":null,"ele":null,"osmType":"node","osmId":1223760934}},{"type":"Feature","geometry":{"type":"Point","coordinates":[-86.2693,38.14378]},"properties":{"name":"Chimney Shelter","country":"United States of America","website":"https://www.in.gov/dnr/forestry/properties/harrison-crawford-state-forest/","opening_hours":null,"capacity":null,"phone":null,"address":null,"ele":null,"osmType":"node","osmId":1668284436}},{"type":"Feature","geometry":{"type":"Point","coordinates":[-86.23842,38.16112]},"properties":{"name":"Indian Creek Overlook Shelter","country":"United States of America","website":null,"opening_hours":null,"capacity":null,"phone":null,"address":null,"ele":null,"osmType":"node","osmId":1668286703}},{"type":"Feature","geometry":{"type":"Point","coordinates":[-72.76991,44.48466]},"properties":{"name":"Slayton Pasture Cabin","country":"United States of America","website":null,"opening_hours":null,"capacity":null,"phone":null,"address":null,"ele":null,"osmType":"node","osmId":1825071859}},{"type":"Feature","geometry":{"type":"Point","coordinates":[-71.41013,44.50329]},"properties":{"name":"Mt. Cabot Cabin","country":"United States of America","website":null,"opening_hours":null,"capacity":null,"phone":null,"address":null,"ele":null,"osmType":"node","osmId":1865100786}},{"type":"Feature","geometry":{"type":"Point","coordinates":[-71.34588,43.12822]},"properties":{"name":null,"country":"United States of America","website":null,"opening_hours":null,"capacity":null,"phone":null,"address":null,"ele":null,"osmType":"node","osmId":2380530341}},{"type":"Feature","geometry":{"type":"Point","coordinates":[-71.32759,43.13288]},"properties":{"name":null,"country":"United States of America","website":null,"opening_hours":null,"capacity":null,"phone":null,"address":null,"ele":null,"osmType":"node","osmId":2380530342}},{"type":"Feature","geometry":{"type":"Point","coordinates":[-74.86797,42.00643]},"properties":{"name":"Pelnor Hollow Lean-To","country":"United States of America","website":null,"opening_hours":null,"capacity":null,"phone":null,"address":null,"ele":null,"osmType":"node","osmId":2904824919}},{"type":"Feature","geometry":{"type":"Point","coordinates":[-74.94705,42.01241]},"properties":{"name":"Trout Pond North Lean-To","country":"United States of America","website":null,"opening_hours":null,"capacity":null,"phone":null,"address":null,"ele":null,"osmType":"node","osmId":2907932740}},{"type":"Feature","geometry":{"type":"Point","coordinates":[-74.94787,42.01154]},"properties":{"name":"Trout Pond South Lean-To","country":"United States of America","website":null,"opening_hours":null,"capacity":null,"phone":null,"address":null,"ele":null,"osmType":"node","osmId":2907932744}},{"type":"Feature","geometry":{"type":"Point","coordinates":[-74.48849,42.54331]},"properties":{"name":null,"country":"United States of America","website":null,"opening_hours":null,"capacity":null,"phone":null,"address":null,"ele":null,"osmType":"node","osmId":3049573729}},{"type":"Feature","geometry":{"type":"Point","coordinates":[-70.17725,45.19781]},"properties":{"name":"Flagstaff Lake Hut","country":"United States of America","website":"https://mainehuts.org/hut/flagstaff-lake-hut/","opening_hours":null,"capacity":null,"phone":null,"address":null,"ele":null,"osmType":"node","osmId":3313340893}},{"type":"Feature","geometry":{"type":"Point","coordinates":[-73.83405,44.3784]},"properties":{"name":"Wilderness Inn Restaurant Bar","country":"United States of America","website":null,"opening_hours":null,"capacity":null,"phone":null,"address":null,"ele":null,"osmType":"node","osmId":3761949082}},{"type":"Feature","geometry":{"type":"Point","coordinates":[-83.92335,35.10258]},"properties":{"name":"treetop terrace","country":"United States of America","website":null,"opening_hours":null,"capacity":null,"phone":null,"address":"77 Shadow Pond Road","ele":null,"osmType":"node","osmId":4585685396}},{"type":"Feature","geometry":{"type":"Point","coordinates":[-70.20718,45.30311]},"properties":{"name":"Grand Falls Hut","country":"United States of America","website":null,"opening_hours":null,"capacity":null,"phone":null,"address":null,"ele":null,"osmType":"node","osmId":4706018882}},{"type":"Feature","geometry":{"type":"Point","coordinates":[-72.82531,42.06811]},"properties":{"name":"Sodom Camp Ground","country":"United States of America","website":null,"opening_hours":null,"capacity":null,"phone":null,"address":null,"ele":null,"osmType":"node","osmId":4945004521}},{"type":"Feature","geometry":{"type":"Point","coordinates":[-72.76615,44.45743]},"properties":{"name":"Nebraska Knoll Sugar House","country":"United States of America","website":null,"opening_hours":"Mo-Su 10:00-17:00","capacity":null,"phone":null,"address":"25y Falls Brook Lane, 05672","ele":null,"osmType":"node","osmId":4980809663}},{"type":"Feature","geometry":{"type":"Point","coordinates":[-69.06054,44.25186]},"properties":{"name":"Megunticook Ski hut","country":"United States of America","website":null,"opening_hours":null,"capacity":null,"phone":null,"address":null,"ele":null,"osmType":"node","osmId":5219012911}},{"type":"Feature","geometry":{"type":"Point","coordinates":[-80.03755,38.39269]},"properties":{"name":"2018 WV Lodge","country":"United States of America","website":null,"opening_hours":null,"capacity":null,"phone":null,"address":"6 Locust Glen","ele":null,"osmType":"node","osmId":5697629126}},{"type":"Feature","geometry":{"type":"Point","coordinates":[-69.16085,45.77009]},"properties":{"name":"Nahmakanta Lake Wilderness Camp","country":"United States of America","website":"https://nahmakanta.com","opening_hours":null,"capacity":null,"phone":"+1-207-731-8888","address":null,"ele":null,"osmType":"node","osmId":5747667925}},{"type":"Feature","geometry":{"type":"Point","coordinates":[-82.41688,35.34468]},"properties":{"name":"Henderson Hostel","country":"United States of America","website":null,"opening_hours":null,"capacity":null,"phone":null,"address":null,"ele":null,"osmType":"node","osmId":6615179486}},{"type":"Feature","geometry":{"type":"Point","coordinates":[-74.25952,44.44838]},"properties":{"name":"The Vic","country":"United States of America","website":null,"opening_hours":null,"capacity":null,"phone":null,"address":null,"ele":null,"osmType":"node","osmId":7167234386}},{"type":"Feature","geometry":{"type":"Point","coordinates":[-70.84976,44.25864]},"properties":{"name":"Timber stone adventures","country":"United States of America","website":null,"opening_hours":null,"capacity":null,"phone":null,"osmType":"node","osmId":7176468162}},{"type":"Feature","geometry":{"type":"Point","coordinates":[-77.12179,38.82855]},"properties":{"name":"Catherine's Lodge","country":"United States of America","website":"https://www.novaparks.com/parks/winkler-botanical-preserve","opening_hours":null,"capacity":null,"phone":null,"address":null,"ele":null,"osmType":"node","osmId":8451441340}},{"type":"Feature","geometry":{"type":"Point","coordinates":[-84.24399,35.12018]},"properties":{"name":"Lazy Timbers","country":"United States of America","website":"http://www.LazyVacationRentals.com","opening_hours":null,"capacity":null,"phone":"+19546558485","address":"209 Schenandoah Rd, 28906","ele":null,"osmType":"node","osmId":8878235917}},{"type":"Feature","geometry":{"type":"Point","coordinates":[-78.3835,42.67377]},"properties":{"name":"Beaver Lodge cabin","country":"United States of America","website":null,"opening_hours":null,"capacity":null,"phone":null,"address":null,"ele":null,"osmType":"node","osmId":9775797902}},{"type":"Feature","geometry":{"type":"Point","coordinates":[-73.16003,43.4928]},"properties":{"name":null,"country":"United States of America","website":null,"opening_hours":null,"capacity":null,"phone":null,"address":null,"ele":null,"osmType":"node","osmId":10009477263}},{"type":"Feature","geometry":{"type":"Point","coordinates":[-85.34284,35.64098]},"properties":{"name":"Group Lodge - Newton Ford Bunk","country":"United States of America","website":null,"opening_hours":null,"capacity":null,"phone":null,"address":"2009 Village Camp Road, 37367 Pikeville","ele":null,"osmType":"node","osmId":10028144766}},{"type":"Feature","geometry":{"type":"Point","coordinates":[-85.35132,35.6582]},"properties":{"name":"Group Lodge - Turkey Pen Bunk","country":"United States of America","website":null,"opening_hours":null,"capacity":null,"phone":null,"address":null,"ele":null,"osmType":"node","osmId":10052314942}},{"type":"Feature","geometry":{"type":"Point","coordinates":[-85.36668,35.65472]},"properties":{"name":"Fall Creek Falls Lodge & Restaurant","country":"United States of America","website":null,"opening_hours":null,"capacity":null,"phone":null,"address":null,"ele":null,"osmType":"node","osmId":10052324329}},{"type":"Feature","geometry":{"type":"Point","coordinates":[-83.80175,42.5227]},"properties":{"name":"Pine Creek Ridge Lodge","country":"United States of America","website":null,"opening_hours":null,"capacity":null,"phone":null,"address":null,"ele":null,"osmType":"node","osmId":10577673206}},{"type":"Feature","geometry":{"type":"Point","coordinates":[-73.58659,43.45865]},"properties":{"name":"Thomas Lodge","country":"United States of America","website":null,"opening_hours":null,"capacity":null,"phone":null,"address":null,"ele":null,"osmType":"node","osmId":11003007187}},{"type":"Feature","geometry":{"type":"Point","coordinates":[-70.18162,44.13497]},"properties":{"name":null,"country":"United States of America","website":null,"opening_hours":null,"capacity":null,"phone":null,"address":"Raiche Street","ele":null,"osmType":"node","osmId":11036514605}},{"type":"Feature","geometry":{"type":"Point","coordinates":[-74.20591,42.20671]},"properties":{"name":"The Base Lodge","country":"United States of America","website":null,"opening_hours":null,"capacity":null,"phone":null,"address":null,"ele":null,"osmType":"node","osmId":11267359522}},{"type":"Feature","geometry":{"type":"Point","coordinates":[-78.48013,38.71762]},"properties":{"name":"hook, line and sinker","country":"United States of America","website":null,"opening_hours":null,"capacity":null,"phone":null,"address":"107 Fish tale lane, 22835 Luray","ele":null,"osmType":"node","osmId":11310937581}},{"type":"Feature","geometry":{"type":"Point","coordinates":[-78.48045,38.71763]},"properties":{"name":null,"country":"United States of America","website":null,"opening_hours":null,"capacity":null,"phone":null,"address":null,"ele":null,"osmType":"node","osmId":11310964540}},{"type":"Feature","geometry":{"type":"Point","coordinates":[-78.37257,38.80742]},"properties":{"name":"the river lure","country":"United States of America","website":null,"opening_hours":null,"capacity":null,"phone":null,"address":"5152 Page Valley Road, 22835 Luray","ele":null,"osmType":"node","osmId":11317574573}},{"type":"Feature","geometry":{"type":"Point","coordinates":[-78.48478,38.71577]},"properties":{"name":"Rock tavern river camp","country":"United States of America","website":null,"opening_hours":null,"capacity":null,"phone":null,"address":"1420 South Page Valley Road, 22835 Luray","ele":null,"osmType":"node","osmId":11318089990}},{"type":"Feature","geometry":{"type":"Point","coordinates":[-78.45989,38.71807]},"properties":{"name":"ashleyrose on the river","country":"United States of America","website":null,"opening_hours":null,"capacity":null,"phone":null,"address":"646 Lazy River East Road, 22835 Luray","ele":null,"osmType":"node","osmId":11318413714}},{"type":"Feature","geometry":{"type":"Point","coordinates":[-78.46301,38.72612]},"properties":{"name":"Above the riversedge","country":"United States of America","website":null,"opening_hours":null,"capacity":null,"phone":"+1-540-244-9296","address":"1335 Fort Stover Road, 22835 Luray","ele":null,"osmType":"node","osmId":11318424694}},{"type":"Feature","geometry":{"type":"Point","coordinates":[-78.4627,38.72518]},"properties":{"name":"The jive/ the shuck","country":"United States of America","website":null,"opening_hours":null,"capacity":null,"phone":"+1-540-742-2975","address":"1225 Fort Stover Road, 22835 Luray","ele":null,"osmType":"node","osmId":11318431319}},{"type":"Feature","geometry":{"type":"Point","coordinates":[-78.46174,38.72456]},"properties":{"name":"Christopher's riverside cabins","country":"United States of America","website":null,"opening_hours":null,"capacity":null,"phone":"+1-540-236-2837","address":"1225 Fort Stover Road, 22835 Luray","ele":null,"osmType":"node","osmId":11318431320}},{"type":"Feature","geometry":{"type":"Point","coordinates":[-78.35964,38.80283]},"properties":{"name":"Beach's Bottom","country":"United States of America","website":null,"opening_hours":null,"capacity":null,"phone":null,"address":"5804 Page Valley Road, 22835 Luray","ele":null,"osmType":"node","osmId":11328379418}},{"type":"Feature","geometry":{"type":"Point","coordinates":[-78.40343,38.78905]},"properties":{"name":"Mountain Breeze River Chalet","country":"United States of America","website":null,"opening_hours":null,"capacity":null,"phone":null,"address":"2112 Island Ford Road, 22835 Luray","ele":null,"osmType":"node","osmId":11328379419}},{"type":"Feature","geometry":{"type":"Point","coordinates":[-78.39509,38.78396]},"properties":{"name":"Lone Bear Cabin","country":"United States of America","website":null,"opening_hours":null,"capacity":null,"phone":null,"address":"882 River View Road, 22650 Rileyville","ele":null,"osmType":"node","osmId":11328379421}},{"type":"Feature","geometry":{"type":"Point","coordinates":[-78.50945,38.71368]},"properties":{"name":"Southern Comfort","country":"United States of America","website":null,"opening_hours":null,"capacity":null,"phone":null,"address":"1172 Fort Valley Road, 22835 Luray","ele":null,"osmType":"node","osmId":11328406838}},{"type":"Feature","geometry":{"type":"Point","coordinates":[-78.49411,38.72011]},"properties":{"name":"Topley Retreat","country":"United States of America","website":null,"opening_hours":null,"capacity":null,"phone":null,"address":"1272 Serenity Ridge Road, 22835 Luray","ele":null,"osmType":"node","osmId":11328406839}},{"type":"Feature","geometry":{"type":"Point","coordinates":[-78.51407,38.72016]},"properties":{"name":"Mountain Top Getaway","country":"United States of America","website":null,"opening_hours":null,"capacity":null,"phone":null,"address":"760 Mt Top Drive, 22835 Luray","ele":null,"osmType":"node","osmId":11328406841}},{"type":"Feature","geometry":{"type":"Point","coordinates":[-78.50788,38.71273]},"properties":{"name":"Abbott","country":"United States of America","website":null,"opening_hours":null,"capacity":null,"phone":null,"address":"Fort Valley Road, 22835 Luray","ele":null,"osmType":"node","osmId":11328420315}},{"type":"Feature","geometry":{"type":"Point","coordinates":[-78.42409,38.74648]},"properties":{"name":"mountain view retreat","country":"United States of America","website":null,"opening_hours":null,"capacity":null,"phone":null,"address":"1195 Mountain View Drive, 22835 Luray","ele":null,"osmType":"node","osmId":11362871359}},{"type":"Feature","geometry":{"type":"Point","coordinates":[-78.40683,38.76096]},"properties":{"name":"Sundance Spectacular","country":"United States of America","website":null,"opening_hours":null,"capacity":null,"phone":null,"address":"622 Walla Road, 22835 Luray","ele":null,"osmType":"node","osmId":11362871360}},{"type":"Feature","geometry":{"type":"Point","coordinates":[-89.97583,46.50022]},"properties":{"name":"Snowriver Mountain Resort","country":"United States of America","website":"https://www.snowriver.com/","opening_hours":null,"capacity":null,"phone":"+1 906-229-5181","address":"500 Indianhead Road, 49968","ele":null,"osmType":"node","osmId":11457581769}},{"type":"Feature","geometry":{"type":"Point","coordinates":[-71.95235,43.76629]},"properties":{"name":"Trailside Stays","country":"United States of America","website":"https://www.trailsidestays.com/","opening_hours":null,"capacity":null,"phone":null,"address":null,"ele":null,"osmType":"node","osmId":11500541533}},{"type":"Feature","geometry":{"type":"Point","coordinates":[-79.61226,38.11604]},"properties":{"name":"Fort Lewis Lodge & Farm","country":"United States of America","website":"https://fortlewislodge.com/","opening_hours":null,"capacity":null,"phone":"+1-540-925-2314","address":"811 Millstone Lane, 24460 Millboro","ele":null,"osmType":"node","osmId":11985691422}},{"type":"Feature","geometry":{"type":"Point","coordinates":[-80.60266,36.98459]},"properties":{"name":"Rendezvous Cabin","country":"United States of America","website":null,"opening_hours":null,"capacity":null,"phone":null,"address":null,"ele":null,"osmType":"node","osmId":12889309860}},{"type":"Feature","geometry":{"type":"Point","coordinates":[-80.59508,36.98848]},"properties":{"name":"Mountaineer Ordinary","country":"United States of America","website":null,"opening_hours":null,"capacity":null,"phone":null,"address":null,"ele":null,"osmType":"node","osmId":12889309861}},{"type":"Feature","geometry":{"type":"Point","coordinates":[-80.61928,36.96327]},"properties":{"name":"Wild Goose Cabin","country":"United States of America","website":null,"opening_hours":null,"capacity":null,"phone":null,"address":null,"ele":null,"osmType":"node","osmId":12889309863}},{"type":"Feature","geometry":{"type":"Point","coordinates":[-86.79287,46.26993]},"properties":{"name":"OA Cabin","country":"United States of America","website":null,"opening_hours":null,"capacity":null,"phone":null,"address":null,"ele":null,"osmType":"node","osmId":13015929826}},{"type":"Feature","geometry":{"type":"Point","coordinates":[-87.8698,37.10269]},"properties":{"name":"Clinton Masonic Lodge","country":"United States of America","website":null,"opening_hours":null,"capacity":null,"phone":null,"address":null,"ele":null,"osmType":"node","osmId":13746833480}},{"type":"Feature","geometry":{"type":"Point","coordinates":[-72.89004,43.09764]},"properties":{"name":"Sun Bowl Base Lodge","country":"United States of America","website":null,"opening_hours":null,"capacity":null,"phone":null,"address":"60 Sun Bowl Road, 05360 Stratton","ele":null,"osmType":"way","osmId":95659428}},{"type":"Feature","geometry":{"type":"Point","coordinates":[-72.92028,42.96019]},"properties":{"name":"Summit Lodge","country":"United States of America","website":null,"opening_hours":null,"capacity":null,"phone":null,"address":"254 Summit Work Road, 05356 Dover","ele":null,"osmType":"way","osmId":101265270}},{"type":"Feature","geometry":{"type":"Point","coordinates":[-77.41394,42.7362]},"properties":{"name":"Morning Star Warming Hut","country":"United States of America","website":null,"opening_hours":null,"capacity":null,"phone":null,"address":"5779 South Hill Road, 14424 Canandaigua","ele":null,"osmType":"way","osmId":143024843}},{"type":"Feature","geometry":{"type":"Point","coordinates":[-72.77256,43.20169]},"properties":{"name":"Magic Mountain Base Lodge","country":"United States of America","website":"https://magicmtn.com/","opening_hours":null,"capacity":null,"phone":"+1 802-824-5645","address":"495 Magic Mountain Access Road, 05148 Londonderry","ele":"350.5","osmType":"way","osmId":233021633,"elevation":"350.5"}},{"type":"Feature","geometry":{"type":"Point","coordinates":[-83.44136,35.65472]},"properties":{"name":"LeConte Lodge","country":"United States of America","website":null,"opening_hours":null,"capacity":null,"phone":null,"address":null,"ele":null,"osmType":"way","osmId":237614447}},{"type":"Feature","geometry":{"type":"Point","coordinates":[-73.86246,44.15843]},"properties":{"name":"Johns Brook Lodge","country":"United States of America","website":"https://adk.org/lodging-and-camping-information/","opening_hours":null,"capacity":"28","phone":null,"address":null,"ele":null,"osmType":"way","osmId":238522827}},{"type":"Feature","geometry":{"type":"Point","coordinates":[-72.89066,42.95822]},"properties":{"name":"Carinthia Base Lodge","country":"United States of America","website":null,"opening_hours":null,"capacity":null,"phone":null,"address":"12 Carinthia Road","ele":null,"osmType":"way","osmId":255718060}},{"type":"Feature","geometry":{"type":"Point","coordinates":[-72.89216,42.96506]},"properties":{"name":"Sundance Base Lodge","country":"United States of America","website":null,"opening_hours":null,"capacity":null,"phone":null,"address":"289 Handle Road","ele":null,"osmType":"way","osmId":255718547}},{"type":"Feature","geometry":{"type":"Point","coordinates":[-72.89437,42.96786]},"properties":{"name":"Main Base Lodge","country":"United States of America","website":null,"opening_hours":null,"capacity":null,"phone":null,"address":null,"ele":null,"osmType":"way","osmId":255720183}},{"type":"Feature","geometry":{"type":"Point","coordinates":[-70.18613,45.10127]},"properties":{"name":"Poplar Stream Hut","country":"United States of America","website":"https://mainehuts.org/hut/poplar-stream-hut/","opening_hours":null,"capacity":null,"phone":null,"address":null,"ele":null,"osmType":"way","osmId":264854701}},{"type":"Feature","geometry":{"type":"Point","coordinates":[-74.51274,42.1236]},"properties":{"name":"Sunset Lodge","country":"United States of America","website":null,"opening_hours":null,"capacity":null,"phone":null,"address":null,"ele":null,"osmType":"way","osmId":290539469}},{"type":"Feature","geometry":{"type":"Point","coordinates":[-71.36951,44.21939]},"properties":{"name":"Mizpah Spring Hut","country":"United States of America","website":null,"opening_hours":null,"capacity":null,"phone":null,"address":null,"ele":null,"osmType":"way","osmId":314787582}},{"type":"Feature","geometry":{"type":"Point","coordinates":[-71.31897,44.25881]},"properties":{"name":"Lakes of the Clouds Hut","country":"United States of America","website":null,"opening_hours":null,"capacity":null,"phone":null,"address":null,"ele":null,"osmType":"way","osmId":314789293}},{"type":"Feature","geometry":{"type":"Point","coordinates":[-71.28317,44.32779]},"properties":{"name":"Madison Spring Hut","country":"United States of America","website":"https://www.outdoors.org/lodging-camping/huts/madison","opening_hours":null,"capacity":null,"phone":null,"address":null,"ele":null,"osmType":"way","osmId":314797448}},{"type":"Feature","geometry":{"type":"Point","coordinates":[-71.49439,44.19583]},"properties":{"name":"Zealand Falls Hut","country":"United States of America","website":"https://www.outdoors.org/lodging/huts/zealand/","opening_hours":null,"capacity":"30","phone":null,"address":null,"ele":"831","osmType":"way","osmId":320900401,"elevation":"831"}},{"type":"Feature","geometry":{"type":"Point","coordinates":[-74.61403,41.62943]},"properties":{"name":"North Lodge","country":"United States of America","website":null,"opening_hours":null,"capacity":null,"phone":null,"address":"99 Holiday Mountain Road, 12701 Monticello","ele":null,"osmType":"way","osmId":322992111}},{"type":"Feature","geometry":{"type":"Point","coordinates":[-71.66038,44.16043]},"properties":{"name":"Greenleaf Hut","country":"United States of America","website":null,"opening_hours":null,"capacity":"30","phone":null,"address":null,"ele":null,"osmType":"way","osmId":328889921}},{"type":"Feature","geometry":{"type":"Point","coordinates":[-71.70317,44.13839]},"properties":{"name":"Lonesome Lake Hut","country":"United States of America","website":null,"opening_hours":null,"capacity":"30","phone":null,"address":null,"ele":null,"osmType":"way","osmId":329733691}},{"type":"Feature","geometry":{"type":"Point","coordinates":[-71.1954,44.25929]},"properties":{"name":"Carter Notch Hut","country":"United States of America","website":null,"opening_hours":null,"capacity":null,"phone":null,"address":null,"ele":null,"osmType":"way","osmId":330631464}},{"type":"Feature","geometry":{"type":"Point","coordinates":[-71.30229,44.33495]},"properties":{"name":"Crag Camp","country":"United States of America","website":"https://www.randolphmountainclub.org/sheltersinfo/cragcamp.html","opening_hours":null,"capacity":"15","phone":null,"address":null,"ele":"1294","osmType":"way","osmId":335390245,"elevation":"1294"}},{"type":"Feature","geometry":{"type":"Point","coordinates":[-71.30956,44.33259]},"properties":{"name":"Gray Knob","country":"United States of America","website":"https://www.randolphmountainclub.org/sheltersinfo/grayknob.html","opening_hours":null,"capacity":"15","phone":null,"address":null,"ele":"1332","osmType":"way","osmId":335390246,"elevation":"1332"}},{"type":"Feature","geometry":{"type":"Point","coordinates":[-79.82937,37.90177]},"properties":{"name":"Tuscarora Overlook","country":"United States of America","website":null,"opening_hours":null,"capacity":null,"phone":null,"address":null,"ele":null,"osmType":"way","osmId":398729148}},{"type":"Feature","geometry":{"type":"Point","coordinates":[-78.37225,38.80713]},"properties":{"name":"Angler, drifter, paddler","country":"United States of America","website":null,"opening_hours":null,"capacity":null,"phone":null,"address":"105 Paddlers retreat lane, 22835 Luray","ele":null,"osmType":"way","osmId":404102539}},{"type":"Feature","geometry":{"type":"Point","coordinates":[-72.21186,42.97103]},"properties":{"name":"Main Lodge","country":"United States of America","website":null,"opening_hours":null,"capacity":null,"phone":"+1 603-352-6203","address":"341 NH Route 9, 03431 Roxbury","ele":null,"osmType":"way","osmId":450429235}},{"type":"Feature","geometry":{"type":"Point","coordinates":[-72.73089,44.4886]},"properties":{"name":"Tälta Mountain Lodge","country":"United States of America","website":null,"opening_hours":null,"capacity":null,"phone":null,"address":"44 Talta Lodge Way, Stowe","ele":null,"osmType":"way","osmId":559159509}},{"type":"Feature","geometry":{"type":"Point","coordinates":[-71.56892,44.18805]},"properties":{"name":"Galehead Hut","country":"United States of America","website":null,"opening_hours":null,"capacity":"30","phone":null,"address":null,"ele":null,"osmType":"way","osmId":688498080}},{"type":"Feature","geometry":{"type":"Point","coordinates":[-77.49814,39.7411]},"properties":{"name":"Shamir","country":"United States of America","website":null,"opening_hours":null,"capacity":null,"phone":null,"address":null,"ele":null,"osmType":"way","osmId":807001593}},{"type":"Feature","geometry":{"type":"Point","coordinates":[-77.50398,39.74014]},"properties":{"name":"Lodge Aleph","country":"United States of America","website":null,"opening_hours":null,"capacity":null,"phone":null,"address":null,"ele":null,"osmType":"way","osmId":807002151}},{"type":"Feature","geometry":{"type":"Point","coordinates":[-77.50329,39.73977]},"properties":{"name":"Ben Gurion","country":"United States of America","website":null,"opening_hours":null,"capacity":null,"phone":null,"address":null,"ele":null,"osmType":"way","osmId":807003659}},{"type":"Feature","geometry":{"type":"Point","coordinates":[-71.17243,44.19697]},"properties":{"name":"Black Mountain Cabin","country":"United States of America","website":"https://www.recreation.gov/camping/campgrounds/234237","opening_hours":null,"capacity":null,"phone":null,"address":null,"ele":"768","osmType":"way","osmId":839517096,"elevation":"768"}},{"type":"Feature","geometry":{"type":"Point","coordinates":[-71.13005,44.16772]},"properties":{"name":"Doublehead Cabin","country":"United States of America","website":"https://www.fs.usda.gov/recarea/whitemountain/recreation/recarea?recid=74835&actid=50","opening_hours":null,"capacity":null,"phone":null,"address":null,"ele":null,"osmType":"way","osmId":839517397}},{"type":"Feature","geometry":{"type":"Point","coordinates":[-71.36659,43.9968]},"properties":{"name":"Radeke Cabin","country":"United States of America","website":null,"opening_hours":null,"capacity":null,"phone":null,"address":null,"ele":null,"osmType":"way","osmId":839519641}},{"type":"Feature","geometry":{"type":"Point","coordinates":[-72.83035,44.42291]},"properties":{"name":"Wilderness Warming Hut","country":"United States of America","website":null,"opening_hours":null,"capacity":null,"phone":null,"address":null,"ele":null,"osmType":"way","osmId":899653058}},{"type":"Feature","geometry":{"type":"Point","coordinates":[-89.8081,46.16662]},"properties":{"name":"Lakeland Trails Warming Hut","country":"United States of America","website":null,"opening_hours":null,"capacity":null,"phone":null,"address":null,"ele":null,"osmType":"way","osmId":923086550}},{"type":"Feature","geometry":{"type":"Point","coordinates":[-83.46808,45.28042]},"properties":{"name":null,"country":"United States of America","website":null,"opening_hours":null,"capacity":null,"phone":null,"address":null,"ele":null,"osmType":"way","osmId":954988846}},{"type":"Feature","geometry":{"type":"Point","coordinates":[-86.45617,33.98945]},"properties":{"name":"Dalton Moss Lodge","country":"United States of America","website":null,"opening_hours":null,"capacity":null,"phone":null,"address":null,"ele":null,"osmType":"way","osmId":1007376661}},{"type":"Feature","geometry":{"type":"Point","coordinates":[-80.0774,41.85195]},"properties":{"name":"Hurst House","country":"United States of America","website":null,"opening_hours":null,"capacity":null,"phone":null,"address":null,"ele":null,"osmType":"way","osmId":1024906837}},{"type":"Feature","geometry":{"type":"Point","coordinates":[-72.89478,42.92272]},"properties":{"name":"The Hermitage Club Base Lodge & Clubhouse","country":"United States of America","website":null,"opening_hours":null,"capacity":null,"phone":null,"address":"183 Gatehouse Trail, 05363 Wilmington","ele":null,"osmType":"way","osmId":1052105114}},{"type":"Feature","geometry":{"type":"Point","coordinates":[-71.27771,44.26749]},"properties":{"name":"Harvard Cabin","country":"United States of America","website":null,"opening_hours":null,"capacity":null,"phone":null,"address":null,"ele":"1073","osmType":"way","osmId":1060558233,"elevation":"1073"}},{"type":"Feature","geometry":{"type":"Point","coordinates":[-74.20589,42.20672]},"properties":{"name":null,"country":"United States of America","website":null,"opening_hours":null,"capacity":null,"phone":null,"address":"7715 Main Street, 12485 Tannersville","ele":null,"osmType":"way","osmId":1079068946}},{"type":"Feature","geometry":{"type":"Point","coordinates":[-72.90798,43.11345]},"properties":{"name":"Main Base Lodge","country":"United States of America","website":null,"opening_hours":null,"capacity":null,"phone":null,"address":"10 Base Lodge Road, Stratton","ele":null,"osmType":"way","osmId":1085119532}},{"type":"Feature","geometry":{"type":"Point","coordinates":[-84.70873,34.18523]},"properties":{"name":"Parker Lodge","country":"United States of America","website":null,"opening_hours":null,"capacity":null,"phone":null,"address":null,"ele":null,"osmType":"way","osmId":1085713047}},{"type":"Feature","geometry":{"type":"Point","coordinates":[-85.34286,35.64092]},"properties":{"name":null,"country":"United States of America","website":null,"opening_hours":null,"capacity":null,"phone":null,"address":null,"ele":null,"osmType":"way","osmId":1094997997}},{"type":"Feature","geometry":{"type":"Point","coordinates":[-78.30711,41.82668]},"properties":{"name":"Lynn Hall","country":"United States of America","website":"https://www.lynnhallpa.com","opening_hours":null,"capacity":null,"phone":"+1 954-554-8492","address":"21656 US 6, 16743 Port Alleghany","ele":null,"osmType":"way","osmId":1097815481}},{"type":"Feature","geometry":{"type":"Point","coordinates":[-85.35155,35.65822]},"properties":{"name":null,"country":"United States of America","website":null,"opening_hours":null,"capacity":null,"phone":null,"address":null,"ele":null,"osmType":"way","osmId":1097818481}},{"type":"Feature","geometry":{"type":"Point","coordinates":[-85.35123,35.6581]},"properties":{"name":null,"country":"United States of America","website":null,"opening_hours":null,"capacity":null,"phone":null,"address":null,"ele":null,"osmType":"way","osmId":1097818482}},{"type":"Feature","geometry":{"type":"Point","coordinates":[-72.91087,43.10569]},"properties":{"name":"Mid Mountain Lodge","country":"United States of America","website":null,"opening_hours":null,"capacity":null,"phone":null,"address":"630 Maintenance Road, Stratton","ele":null,"osmType":"way","osmId":1104412644}},{"type":"Feature","geometry":{"type":"Point","coordinates":[-80.07102,41.85194]},"properties":{"name":null,"country":"United States of America","website":null,"opening_hours":null,"capacity":null,"phone":null,"address":null,"ele":null,"osmType":"way","osmId":1125907283}},{"type":"Feature","geometry":{"type":"Point","coordinates":[-71.11074,44.05426]},"properties":{"name":"Artist Falls Lodge","country":"United States of America","website":null,"opening_hours":null,"capacity":null,"phone":null,"address":null,"ele":null,"osmType":"way","osmId":1154602061}},{"type":"Feature","geometry":{"type":"Point","coordinates":[-84.31819,30.90517]},"properties":{"name":"Sweetwater Lodge","country":"United States of America","website":null,"opening_hours":null,"capacity":null,"phone":null,"address":"1280 Old Hwy 84, 39897 Whigham","ele":null,"osmType":"way","osmId":1182991672}},{"type":"Feature","geometry":{"type":"Point","coordinates":[-81.11633,37.90664]},"properties":{"name":"Gene H. Yamagata Lodging","country":"United States of America","website":"https://summiteventswv.com/lodging/gene-h-yamagata-lodge/","opening_hours":null,"capacity":null,"phone":"+1 304-465-2800","address":null,"ele":null,"osmType":"way","osmId":1190010142}},{"type":"Feature","geometry":{"type":"Point","coordinates":[-83.6341,35.72109]},"properties":{"name":"Amazing Grace","country":"United States of America","website":null,"opening_hours":null,"capacity":null,"phone":null,"address":"3320 Robeson Road, 37862 Pigeon Forge","ele":null,"osmType":"way","osmId":1219677268}},{"type":"Feature","geometry":{"type":"Point","coordinates":[-74.61091,41.62649]},"properties":{"name":"South Lodge","country":"United States of America","website":null,"opening_hours":null,"capacity":null,"phone":null,"address":null,"ele":null,"osmType":"way","osmId":1227025569}},{"type":"Feature","geometry":{"type":"Point","coordinates":[-75.70026,43.50516]},"properties":{"name":"Osceola Ski and Sport Resort","country":"United States of America","website":null,"opening_hours":null,"capacity":null,"phone":"+1-315-599-7168","address":"1573 Osceola Road, 13316 Camden","ele":null,"osmType":"way","osmId":1233611971}},{"type":"Feature","geometry":{"type":"Point","coordinates":[-79.47293,40.15136]},"properties":{"name":"Lodge","country":"United States of America","website":"https://laurelville.org/","opening_hours":null,"capacity":null,"phone":null,"address":null,"ele":null,"osmType":"way","osmId":1235724377}},{"type":"Feature","geometry":{"type":"Point","coordinates":[-67.57587,45.22357]},"properties":{"name":"Flying Eagle Lodge","country":"United States of America","website":null,"opening_hours":null,"capacity":null,"phone":null,"address":"14 Rolfe Street, 04668 Princeton","ele":null,"osmType":"way","osmId":1241500175}},{"type":"Feature","geometry":{"type":"Point","coordinates":[-81.42721,39.90664]},"properties":{"name":"Skyline Lodge","country":"United States of America","website":"https://www.skylineseneca.com/rooms","opening_hours":null,"capacity":null,"phone":"+1 740 260-1817","address":"55910 Skyline Drive, 43780 Senicaville","ele":null,"osmType":"way","osmId":1280728294}},{"type":"Feature","geometry":{"type":"Point","coordinates":[-81.42845,39.90199]},"properties":{"name":"Evergreen Cabin","country":"United States of America","website":null,"opening_hours":null,"capacity":null,"phone":null,"address":null,"ele":null,"osmType":"way","osmId":1280730525}},{"type":"Feature","geometry":{"type":"Point","coordinates":[-74.52581,39.69794]},"properties":{"name":"Happy Jack Hunt Club","country":"United States of America","website":null,"opening_hours":null,"capacity":null,"phone":null,"address":null,"ele":null,"osmType":"way","osmId":1286713325}},{"type":"Feature","geometry":{"type":"Point","coordinates":[-84.90222,45.45943]},"properties":{"name":"Pintail Lodge","country":"United States of America","website":null,"opening_hours":null,"capacity":null,"phone":null,"address":null,"ele":null,"osmType":"way","osmId":1311861420}},{"type":"Feature","geometry":{"type":"Point","coordinates":[-84.68451,44.64906]},"properties":{"name":"Cedar Lodge","country":"United States of America","website":null,"opening_hours":null,"capacity":null,"phone":null,"address":null,"ele":null,"osmType":"way","osmId":1341840271}},{"type":"Feature","geometry":{"type":"Point","coordinates":[-84.68436,44.64972]},"properties":{"name":"Forest Lodge","country":"United States of America","website":null,"opening_hours":null,"capacity":null,"phone":null,"address":null,"ele":null,"osmType":"way","osmId":1341840274}},{"type":"Feature","geometry":{"type":"Point","coordinates":[-77.80064,41.78233]},"properties":{"name":"Susquehannock Lodge and Trail Center","country":"United States of America","website":null,"opening_hours":null,"capacity":null,"phone":null,"address":null,"ele":null,"osmType":"way","osmId":1355291576}},{"type":"Feature","geometry":{"type":"Point","coordinates":[-76.85941,34.93742]},"properties":{"name":"Hancock Lodge","country":"United States of America","website":null,"opening_hours":null,"capacity":null,"phone":null,"address":null,"ele":null,"osmType":"way","osmId":1360811610}},{"type":"Feature","geometry":{"type":"Point","coordinates":[-89.83586,39.2485]},"properties":{"name":"Parkside Lodge","country":"United States of America","website":null,"opening_hours":null,"capacity":null,"phone":null,"address":null,"ele":null,"osmType":"way","osmId":1380343390}},{"type":"Feature","geometry":{"type":"Point","coordinates":[-86.27312,33.95267]},"properties":{"name":null,"country":"United States of America","website":null,"opening_hours":null,"capacity":null,"phone":null,"address":null,"ele":null,"osmType":"way","osmId":1421061797}},{"type":"Feature","geometry":{"type":"Point","coordinates":[-86.27334,33.95242]},"properties":{"name":null,"country":"United States of America","website":null,"opening_hours":null,"capacity":null,"phone":null,"address":null,"ele":null,"osmType":"way","osmId":1421061798}},{"type":"Feature","geometry":{"type":"Point","coordinates":[-86.27262,33.95303]},"properties":{"name":null,"country":"United States of America","website":null,"opening_hours":null,"capacity":null,"phone":null,"address":null,"ele":null,"osmType":"way","osmId":1421061799}},{"type":"Feature","geometry":{"type":"Point","coordinates":[-86.2734,33.95295]},"properties":{"name":null,"country":"United States of America","website":null,"opening_hours":null,"capacity":null,"phone":null,"address":null,"ele":null,"osmType":"way","osmId":1421061800}},{"type":"Feature","geometry":{"type":"Point","coordinates":[-86.27142,33.95403]},"properties":{"name":null,"country":"United States of America","website":null,"opening_hours":null,"capacity":null,"phone":null,"address":null,"ele":null,"osmType":"way","osmId":1421061801}},{"type":"Feature","geometry":{"type":"Point","coordinates":[-89.27637,45.66352]},"properties":{"name":null,"country":"United States of America","website":null,"opening_hours":null,"capacity":null,"phone":null,"address":null,"ele":null,"osmType":"way","osmId":1461945637}},{"type":"Feature","geometry":{"type":"Point","coordinates":[-71.9813,43.37996]},"properties":{"name":null,"country":"United States of America","website":null,"opening_hours":null,"capacity":null,"phone":null,"address":null,"ele":null,"osmType":"way","osmId":1474181751}},{"type":"Feature","geometry":{"type":"Point","coordinates":[-163.18442,62.0507]},"properties":{"name":"Andreafksi River Lodge","country":"United States of America","website":null,"opening_hours":null,"capacity":null,"phone":null,"osmType":"node","osmId":12195917829}},{"type":"Feature","geometry":{"type":"Point","coordinates":[-163.17758,62.05481]},"properties":{"name":"Eagle's Nest Lodge","country":"United States of America","website":null,"opening_hours":null,"capacity":null,"phone":null,"osmType":"node","osmId":12195917837}},{"type":"Feature","geometry":{"type":"Point","coordinates":[-150.67164,61.73304]},"properties":{"name":"Yentna Station Roadhouse","country":"United States of America","website":"http://www.yentnastation.com","opening_hours":null,"capacity":null,"phone":null,"osmType":"way","osmId":492195608}},{"type":"Feature","geometry":{"type":"Point","coordinates":[-153.37343,62.29488]},"properties":{"name":"Rohn Public Shelter Cabin","country":"United States of America","website":null,"opening_hours":null,"capacity":null,"phone":null,"osmType":"way","osmId":1257212909}},{"type":"Feature","geometry":{"type":"Point","coordinates":[-150.11425,67.40938]},"properties":{"name":"Lodge","country":"United States of America","website":null,"opening_hours":null,"capacity":null,"phone":null,"osmType":"way","osmId":1303212066}},{"type":"Feature","geometry":{"type":"Point","coordinates":[-142.96228,61.4346]},"properties":{"name":"McCarthy B&B","country":"United States of America","website":null,"opening_hours":null,"capacity":null,"phone":null,"osmType":"node","osmId":4252826506}},{"type":"Feature","geometry":{"type":"Point","coordinates":[-147.45218,65.04628]},"properties":{"name":"Aurora Borealis Lodge","country":"United States of America","website":null,"opening_hours":null,"capacity":null,"phone":null,"osmType":"node","osmId":4373010593}},{"type":"Feature","geometry":{"type":"Point","coordinates":[-145.52487,63.33512]},"properties":{"name":"Lower Canwell Hut","country":"United States of America","website":null,"opening_hours":null,"capacity":null,"phone":null,"osmType":"node","osmId":4406361937,"elevation":"1280"}},{"type":"Feature","geometry":{"type":"Point","coordinates":[-145.38298,63.31685]},"properties":{"name":"MacKeith Hut","country":"United States of America","website":null,"opening_hours":null,"capacity":null,"phone":null,"osmType":"node","osmId":4406361938,"elevation":"1676"}},{"type":"Feature","geometry":{"type":"Point","coordinates":[-145.53623,63.45239]},"properties":{"name":"Thayer Hut","country":"United States of America","website":null,"opening_hours":null,"capacity":null,"phone":null,"osmType":"node","osmId":4406361941,"elevation":"1463"}},{"type":"Feature","geometry":{"type":"Point","coordinates":[-148.94936,63.39151]},"properties":{"name":"Cantwell Lodge","country":"United States of America","website":null,"opening_hours":null,"capacity":null,"phone":"+19076710320","osmType":"way","osmId":521760181}},{"type":"Feature","geometry":{"type":"Point","coordinates":[-145.71889,60.57944]},"properties":{"name":"Orca Adventure Lodge","country":"United States of America","website":null,"opening_hours":null,"capacity":null,"phone":null,"osmType":"way","osmId":804082162}},{"type":"Feature","geometry":{"type":"Point","coordinates":[-146.59712,61.13405]},"properties":{"name":"McAllister Creek Public Use Cabin","country":"United States of America","website":"https://www.alaska.org/detail/mcallister-creek-public-use-cabin","opening_hours":null,"capacity":null,"phone":null,"osmType":"way","osmId":822308568}},{"type":"Feature","geometry":{"type":"Point","coordinates":[-103.42176,43.92291]},"properties":{"name":"Yak Ridge Cabins","country":"United States of America","website":"https://yakridge.com/","opening_hours":null,"capacity":null,"phone":"+1-605-972-2246","address":"24041 Cosmos Road, 57702","ele":null,"osmType":"node","osmId":13908585801}},